cnes;competence;ibge_id;municipality_code;municipality_name;uf;vinc_sus;atendhos;leithosp;niv_dep;nat_jur;is_sus_linked;has_hospital_care;has_hospital_beds;is_public_admin;is_public_hospital;name;latitude;longitude;coordinate_source;name_source
5701929;2101;1200013;120001;Acrelândia;AC;1;1;1;3;1023;1;1;1;1;1;CNES 5701929 (Acrelândia - AC);-9.933928269211487;-66.95015195086144;ibge_malha;synthetic_municipality
2001020;2101;1200054;120005;Assis Brasil;AC;1;1;1;3;1023;1;1;1;1;1;CNES 2001020 (Assis Brasil - AC);-10.779758304359087;-70.00567182389328;ibge_malha;synthetic_municipality
2001500;2101;1200104;120010;Brasiléia;AC;1;1;1;3;1023;1;1;1;1;1;CNES 2001500 (Brasiléia - AC);-10.747368180166763;-69.20747092330322;ibge_malha;synthetic_municipality
2000172;2101;1200203;120020;Cruzeiro do Sul;AC;1;0;1;3;1023;1;0;1;1;1;CNES 2000172 (Cruzeiro do Sul - AC);-7.971865907484339;-72.75480801397109;ibge_malha;synthetic_municipality
2000296;2101;1200203;120020;Cruzeiro do Sul;AC;1;1;1;3;1023;1;1;1;1;1;CNES 2000296 (Cruzeiro do Sul - AC);-7.971865907484339;-72.75480801397109;ibge_malha;synthetic_municipality
3959082;2101;1200203;120020;Cruzeiro do Sul;AC;1;1;0;3;1023;1;1;0;1;1;CNES 3959082 (Cruzeiro do Sul - AC);-7.971865907484339;-72.75480801397109;ibge_malha;synthetic_municipality
5336171;2101;1200203;120020;Cruzeiro do Sul;AC;1;1;1;3;1023;1;1;1;1;1;CNES 5336171 (Cruzeiro do Sul - AC);-7.971865907484339;-72.75480801397109;ibge_malha;synthetic_municipality
2000636;2101;1200302;120030;Feijó;AC;1;1;1;3;1023;1;1;1;1;1;CNES 2000636 (Feijó - AC);-8.92441953086217;-70.74476349462839;ibge_malha;synthetic_municipality
5353947;2101;1200328;120032;Jordão;AC;1;1;1;3;1023;1;1;1;1;1;CNES 5353947 (Jordão - AC);-9.242648663110273;-71.9061065810261;ibge_malha;synthetic_municipality
2000083;2101;1200336;120033;Mâncio Lima;AC;1;1;1;3;1023;1;1;1;1;1;CNES 2000083 (Mâncio Lima - AC);-7.504426008096305;-73.43908274209865;ibge_malha;synthetic_municipality
2000970;2101;1200344;120034;Manoel Urbano;AC;1;1;1;3;1023;1;1;1;1;1;CNES 2000970 (Manoel Urbano - AC);-9.381121415294164;-69.85378482703491;ibge_malha;synthetic_municipality
2001594;2101;1200351;120035;Marechal Thaumaturgo;AC;1;1;1;3;1023;1;1;1;1;1;CNES 2001594 (Marechal Thaumaturgo - AC);-9.096289522504389;-72.55923900774451;ibge_malha;synthetic_municipality
2000822;2101;1200385;120038;Plácido de Castro;AC;1;1;1;3;1023;1;1;1;1;1;CNES 2000822 (Plácido de Castro - AC);-10.249084663234742;-67.34031867614065;ibge_malha;synthetic_municipality
2000997;2101;1200385;120038;Plácido de Castro;AC;1;1;1;3;1023;1;1;1;1;1;CNES 2000997 (Plácido de Castro - AC);-10.249084663234742;-67.34031867614065;ibge_malha;synthetic_municipality
5661714;2101;1200393;120039;Porto Walter;AC;1;1;1;3;1023;1;1;1;1;1;CNES 5661714 (Porto Walter - AC);-8.491902917557796;-72.73356008077668;ibge_malha;synthetic_municipality
2000385;2101;1200401;120040;Rio Branco;AC;1;0;1;3;1023;1;0;1;1;1;CNES 2000385 (Rio Branco - AC);-10.066131205913743;-68.37106790920028;ibge_malha;synthetic_municipality
2000733;2101;1200401;120040;Rio Branco;AC;1;1;1;3;1023;1;1;1;1;1;CNES 2000733 (Rio Branco - AC);-10.066131205913743;-68.37106790920028;ibge_malha;synthetic_municipality
2001578;2101;1200401;120040;Rio Branco;AC;1;1;1;3;1023;1;1;1;1;1;CNES 2001578 (Rio Branco - AC);-10.066131205913743;-68.37106790920028;ibge_malha;synthetic_municipality
2001586;2101;1200401;120040;Rio Branco;AC;1;1;1;1;1147;1;1;1;1;1;CNES 2001586 (Rio Branco - AC);-10.066131205913743;-68.37106790920028;ibge_malha;synthetic_municipality
5625645;2101;1200401;120040;Rio Branco;AC;1;1;0;1;2062;1;1;0;1;1;CNES 5625645 (Rio Branco - AC);-10.066131205913743;-68.37106790920028;ibge_malha;synthetic_municipality
6497314;2101;1200401;120040;Rio Branco;AC;1;1;1;1;3999;1;1;1;1;1;CNES 6497314 (Rio Branco - AC);-10.066131205913743;-68.37106790920028;ibge_malha;synthetic_municipality
9246010;2101;1200401;120040;Rio Branco;AC;1;1;1;1;2062;1;1;1;1;1;CNES 9246010 (Rio Branco - AC);-10.066131205913743;-68.37106790920028;ibge_malha;synthetic_municipality
2000024;2101;1200427;120042;Rodrigues Alves;AC;1;1;1;3;1023;1;1;1;1;1;CNES 2000024 (Rodrigues Alves - AC);-7.8438394119060755;-73.22345530295745;ibge_malha;synthetic_municipality
5858208;2101;1200435;120043;Santa Rosa do Purus;AC;1;1;1;3;1023;1;1;1;1;1;CNES 5858208 (Santa Rosa do Purus - AC);-9.410647767619471;-70.39579446395867;ibge_malha;synthetic_municipality
2000725;2101;1200450;120045;Senador Guiomard;AC;1;1;1;3;1023;1;1;1;1;1;CNES 2000725 (Senador Guiomard - AC);-9.997214534056965;-67.42758732557158;ibge_malha;synthetic_municipality
2000865;2101;1200500;120050;Sena Madureira;AC;1;1;1;3;1023;1;1;1;1;1;CNES 2000865 (Sena Madureira - AC);-9.771419758794265;-69.38180101184211;ibge_malha;synthetic_municipality
2000121;2101;1200609;120060;Tarauacá;AC;1;1;1;3;1023;1;1;1;1;1;CNES 2000121 (Tarauacá - AC);-8.2394692022058;-71.44498879805617;ibge_malha;synthetic_municipality
2000393;2101;1200708;120070;Xapuri;AC;1;1;1;3;1023;1;1;1;1;1;CNES 2000393 (Xapuri - AC);-10.575601049556859;-68.50474679195194;ibge_malha;synthetic_municipality
2722364;2101;2700102;270010;Água Branca;AL;1;1;1;3;1023;1;1;1;1;1;CNES 2722364 (Água Branca - AL);-9.266502173419337;-37.89857572268937;ibge_malha;synthetic_municipality
2007967;2101;2700201;270020;Anadia;AL;1;1;1;3;1244;1;1;1;1;1;CNES 2007967 (Anadia - AL);-9.662981132239763;-36.31351512634524;ibge_malha;synthetic_municipality
2004976;2101;2700300;270030;Arapiraca;AL;1;1;1;1;2062;1;1;1;1;1;CNES 2004976 (Arapiraca - AL);-9.749274072402468;-36.641013409377585;ibge_malha;synthetic_municipality
2005026;2101;2700300;270030;Arapiraca;AL;1;1;1;1;2062;1;1;1;1;1;CNES 2005026 (Arapiraca - AL);-9.749274072402468;-36.641013409377585;ibge_malha;synthetic_municipality
2005050;2101;2700300;270030;Arapiraca;AL;1;1;1;1;3999;1;1;1;1;1;CNES 2005050 (Arapiraca - AL);-9.749274072402468;-36.641013409377585;ibge_malha;synthetic_municipality
2005344;2101;2700300;270030;Arapiraca;AL;1;1;0;1;2062;1;1;0;1;1;CNES 2005344 (Arapiraca - AL);-9.749274072402468;-36.641013409377585;ibge_malha;synthetic_municipality
2005417;2101;2700300;270030;Arapiraca;AL;1;1;1;1;2062;1;1;1;1;1;CNES 2005417 (Arapiraca - AL);-9.749274072402468;-36.641013409377585;ibge_malha;synthetic_municipality
3015408;2101;2700300;270030;Arapiraca;AL;1;1;1;3;1023;1;1;1;1;1;CNES 3015408 (Arapiraca - AL);-9.749274072402468;-36.641013409377585;ibge_malha;synthetic_municipality
2008106;2101;2700409;270040;Atalaia;AL;1;1;1;3;1244;1;1;1;1;1;CNES 2008106 (Atalaia - AL);-9.504738513264412;-36.07248402259028;ibge_malha;synthetic_municipality
2011689;2101;2700706;270070;Batalha;AL;1;1;1;3;1244;1;1;1;1;1;CNES 2011689 (Batalha - AL);-9.706688400440976;-37.100914109094084;ibge_malha;synthetic_municipality
2009528;2101;2701001;270100;Boca da Mata;AL;1;1;1;3;1244;1;1;1;1;1;CNES 2009528 (Boca da Mata - AL);-9.66890349672992;-36.17822516294034;ibge_malha;synthetic_municipality
2010380;2101;2701308;270130;Cajueiro;AL;1;1;1;3;1244;1;1;1;1;1;CNES 2010380 (Cajueiro - AL);-9.39328029617004;-36.16021803937731;ibge_malha;synthetic_municipality
2722410;2101;2701407;270140;Campo Alegre;AL;1;1;1;3;1244;1;1;1;1;1;CNES 2722410 (Campo Alegre - AL);-9.814858560355544;-36.282934043656496;ibge_malha;synthetic_municipality
0208116;2101;2701704;270170;Capela;AL;1;0;1;3;1244;1;0;1;1;1;CNES 0208116 (Capela - AL);-9.34590971987436;-36.09326369288978;ibge_malha;synthetic_municipality
2719010;2101;2701704;270170;Capela;AL;1;1;1;3;1244;1;1;1;1;1;CNES 2719010 (Capela - AL);-9.34590971987436;-36.09326369288978;ibge_malha;synthetic_municipality
2003856;2101;2702108;270210;Colônia Leopoldina;AL;1;1;1;3;1244;1;1;1;1;1;CNES 2003856 (Colônia Leopoldina - AL);-8.941851818445084;-35.760042906295226;ibge_malha;synthetic_municipality
2010356;2101;2702306;270230;Coruripe;AL;1;1;1;1;2062;1;1;1;1;1;CNES 2010356 (Coruripe - AL);-10.082450496592406;-36.23061164999999;ibge_malha;synthetic_municipality
7765738;2101;2702306;270230;Coruripe;AL;1;0;1;1;2062;1;0;1;1;1;CNES 7765738 (Coruripe - AL);-10.082450496592406;-36.23061164999999;ibge_malha;synthetic_municipality
2003910;2101;2702355;270235;Craíbas;AL;1;1;1;3;1244;1;1;1;1;1;CNES 2003910 (Craíbas - AL);-9.62952691283012;-36.788122055981695;ibge_malha;synthetic_municipality
4020197;2101;2702405;270240;Delmiro Gouveia;AL;1;1;1;3;1023;1;1;1;1;1;CNES 4020197 (Delmiro Gouveia - AL);-9.397585522079417;-38.04710056939376;ibge_malha;synthetic_municipality
7551673;2101;2702405;270240;Delmiro Gouveia;AL;1;1;0;1;2062;1;1;0;1;1;CNES 7551673 (Delmiro Gouveia - AL);-9.397585522079417;-38.04710056939376;ibge_malha;synthetic_municipality
2010887;2101;2702801;270280;Flexeiras;AL;1;1;1;3;1244;1;1;1;1;1;CNES 2010887 (Flexeiras - AL);-9.245131770972264;-35.76387881178798;ibge_malha;synthetic_municipality
4020278;2101;2702900;270290;Girau do Ponciano;AL;1;0;1;3;1244;1;0;1;1;1;CNES 4020278 (Girau do Ponciano - AL);-9.793312007740568;-36.850103890602846;ibge_malha;synthetic_municipality
6267238;2101;2703007;270300;Ibateguara;AL;1;1;0;3;1244;1;1;0;1;1;CNES 6267238 (Ibateguara - AL);-8.954215323265279;-35.89616570928905;ibge_malha;synthetic_municipality
3028984;2101;2703106;270310;Igaci;AL;1;1;1;3;1244;1;1;1;1;1;CNES 3028984 (Igaci - AL);-9.54336196985177;-36.681959615024624;ibge_malha;synthetic_municipality
2007584;2101;2703304;270330;Inhapi;AL;1;1;0;3;1244;1;1;0;1;1;CNES 2007584 (Inhapi - AL);-9.271793775353537;-37.69217728108398;ibge_malha;synthetic_municipality
2009242;2101;2703809;270380;Joaquim Gomes;AL;1;1;1;3;1244;1;1;1;1;1;CNES 2009242 (Joaquim Gomes - AL);-9.079385688371183;-35.778418836205745;ibge_malha;synthetic_municipality
2722429;2101;2704005;270400;Junqueiro;AL;1;1;1;3;1244;1;1;1;1;1;CNES 2722429 (Junqueiro - AL);-9.856501977484692;-36.44073057472754;ibge_malha;synthetic_municipality
6621333;2101;2704104;270410;Lagoa da Canoa;AL;1;1;0;3;1244;1;1;0;1;1;CNES 6621333 (Lagoa da Canoa - AL);-9.799948948439466;-36.73596300266176;ibge_malha;synthetic_municipality
2007401;2101;2704203;270420;Limoeiro de Anadia;AL;1;1;1;3;1031;1;1;1;1;1;CNES 2007401 (Limoeiro de Anadia - AL);-9.73238785449136;-36.4677456560279;ibge_malha;synthetic_municipality
0026042;2101;2704302;270430;Maceió;AL;1;1;1;1;2062;1;1;1;1;1;CNES 0026042 (Maceió - AL);-9.52239445793112;-35.71138393843422;ibge_malha;synthetic_municipality
0136581;2101;2704302;270430;Maceió;AL;1;1;1;3;1023;1;1;1;1;1;CNES 0136581 (Maceió - AL);-9.52239445793112;-35.71138393843422;ibge_malha;synthetic_municipality
2006197;2101;2704302;270430;Maceió;AL;1;1;1;3;1104;1;1;1;1;1;CNES 2006197 (Maceió - AL);-9.52239445793112;-35.71138393843422;ibge_malha;synthetic_municipality
2006219;2101;2704302;270430;Maceió;AL;1;1;1;1;2240;1;1;1;1;1;CNES 2006219 (Maceió - AL);-9.52239445793112;-35.71138393843422;ibge_malha;synthetic_municipality
2006286;2101;2704302;270430;Maceió;AL;1;0;1;1;2240;1;0;1;1;1;CNES 2006286 (Maceió - AL);-9.52239445793112;-35.71138393843422;ibge_malha;synthetic_municipality
2006340;2101;2704302;270430;Maceió;AL;1;1;1;1;2240;1;1;1;1;1;CNES 2006340 (Maceió - AL);-9.52239445793112;-35.71138393843422;ibge_malha;synthetic_municipality
2006359;2101;2704302;270430;Maceió;AL;1;1;1;1;3999;1;1;1;1;1;CNES 2006359 (Maceió - AL);-9.52239445793112;-35.71138393843422;ibge_malha;synthetic_municipality
2006405;2101;2704302;270430;Maceió;AL;1;1;1;1;2062;1;1;1;1;1;CNES 2006405 (Maceió - AL);-9.52239445793112;-35.71138393843422;ibge_malha;synthetic_municipality
2006421;2101;2704302;270430;Maceió;AL;1;1;1;1;2240;1;1;1;1;1;CNES 2006421 (Maceió - AL);-9.52239445793112;-35.71138393843422;ibge_malha;synthetic_municipality
2006448;2101;2704302;270430;Maceió;AL;1;1;1;1;3069;1;1;1;1;1;CNES 2006448 (Maceió - AL);-9.52239445793112;-35.71138393843422;ibge_malha;synthetic_municipality
2006472;2101;2704302;270430;Maceió;AL;1;1;1;1;2143;1;1;1;1;1;CNES 2006472 (Maceió - AL);-9.52239445793112;-35.71138393843422;ibge_malha;synthetic_municipality
2006499;2101;2704302;270430;Maceió;AL;1;1;1;1;2062;1;1;1;1;1;CNES 2006499 (Maceió - AL);-9.52239445793112;-35.71138393843422;ibge_malha;synthetic_municipality
2006510;2101;2704302;270430;Maceió;AL;1;1;1;3;1023;1;1;1;1;1;CNES 2006510 (Maceió - AL);-9.52239445793112;-35.71138393843422;ibge_malha;synthetic_municipality
2006944;2101;2704302;270430;Maceió;AL;1;1;1;1;2062;1;1;1;1;1;CNES 2006944 (Maceió - AL);-9.52239445793112;-35.71138393843422;ibge_malha;synthetic_municipality
2006960;2101;2704302;270430;Maceió;AL;1;1;1;1;2240;1;1;1;1;1;CNES 2006960 (Maceió - AL);-9.52239445793112;-35.71138393843422;ibge_malha;synthetic_municipality
2006979;2101;2704302;270430;Maceió;AL;1;1;1;1;2240;1;1;1;1;1;CNES 2006979 (Maceió - AL);-9.52239445793112;-35.71138393843422;ibge_malha;synthetic_municipality
2007037;2101;2704302;270430;Maceió;AL;1;1;1;1;3999;1;1;1;1;1;CNES 2007037 (Maceió - AL);-9.52239445793112;-35.71138393843422;ibge_malha;synthetic_municipality
2009250;2101;2704302;270430;Maceió;AL;1;1;1;3;1112;1;1;1;1;1;CNES 2009250 (Maceió - AL);-9.52239445793112;-35.71138393843422;ibge_malha;synthetic_municipality
2720035;2101;2704302;270430;Maceió;AL;1;0;1;3;1112;1;0;1;1;1;CNES 2720035 (Maceió - AL);-9.52239445793112;-35.71138393843422;ibge_malha;synthetic_municipality
3531449;2101;2704302;270430;Maceió;AL;1;1;0;1;2062;1;1;0;1;1;CNES 3531449 (Maceió - AL);-9.52239445793112;-35.71138393843422;ibge_malha;synthetic_municipality
5937906;2101;2704302;270430;Maceió;AL;1;1;0;1;2062;1;1;0;1;1;CNES 5937906 (Maceió - AL);-9.52239445793112;-35.71138393843422;ibge_malha;synthetic_municipality
6303153;2101;2704302;270430;Maceió;AL;1;1;1;1;3999;1;1;1;1;1;CNES 6303153 (Maceió - AL);-9.52239445793112;-35.71138393843422;ibge_malha;synthetic_municipality
7084137;2101;2704302;270430;Maceió;AL;1;1;1;1;2062;1;1;1;1;1;CNES 7084137 (Maceió - AL);-9.52239445793112;-35.71138393843422;ibge_malha;synthetic_municipality
7307152;2101;2704302;270430;Maceió;AL;1;1;1;1;2062;1;1;1;1;1;CNES 7307152 (Maceió - AL);-9.52239445793112;-35.71138393843422;ibge_malha;synthetic_municipality
7471955;2101;2704302;270430;Maceió;AL;1;1;1;1;2062;1;1;1;1;1;CNES 7471955 (Maceió - AL);-9.52239445793112;-35.71138393843422;ibge_malha;synthetic_municipality
9379517;2101;2704302;270430;Maceió;AL;1;1;1;1;2240;1;1;1;1;1;CNES 9379517 (Maceió - AL);-9.52239445793112;-35.71138393843422;ibge_malha;synthetic_municipality
9406697;2101;2704302;270430;Maceió;AL;1;1;1;1;3999;1;1;1;1;1;CNES 9406697 (Maceió - AL);-9.52239445793112;-35.71138393843422;ibge_malha;synthetic_municipality
9923837;2101;2704302;270430;Maceió;AL;1;1;1;3;1023;1;1;1;1;1;CNES 9923837 (Maceió - AL);-9.52239445793112;-35.71138393843422;ibge_malha;synthetic_municipality
2004488;2101;2704401;270440;Major Isidoro;AL;1;1;1;3;1244;1;1;1;1;1;CNES 2004488 (Major Isidoro - AL);-9.542686249449007;-37.010627218357435;ibge_malha;synthetic_municipality
2722380;2101;2704500;270450;Maragogi;AL;1;1;0;3;1244;1;1;0;1;1;CNES 2722380 (Maragogi - AL);-8.951752740204519;-35.26921721794442;ibge_malha;synthetic_municipality
0256684;2101;2704708;270470;Marechal Deodoro;AL;1;1;0;3;1244;1;1;0;1;1;CNES 0256684 (Marechal Deodoro - AL);-9.71529699727649;-35.90962035198198;ibge_malha;synthetic_municipality
4020383;2101;2705002;270500;Mata Grande;AL;1;1;1;3;1244;1;1;1;1;1;CNES 4020383 (Mata Grande - AL);-9.05210987395213;-37.7566163008102;ibge_malha;synthetic_municipality
2009161;2101;2705101;270510;Matriz de Camaragibe;AL;1;1;1;3;1244;1;1;1;1;1;CNES 2009161 (Matriz de Camaragibe - AL);-9.104487489288013;-35.581606014102924;ibge_malha;synthetic_municipality
2719355;2101;2705309;270530;Minador do Negrão;AL;1;1;0;3;1244;1;1;0;1;1;CNES 2719355 (Minador do Negrão - AL);-9.336921119106938;-36.8635154965335;ibge_malha;synthetic_municipality
4020405;2101;2705507;270550;Murici;AL;1;1;1;1;1031;1;1;1;1;1;CNES 4020405 (Murici - AL);-9.290866534358807;-35.923948433236944;ibge_malha;synthetic_municipality
2722313;2101;2705705;270570;Olho d'Água das Flores;AL;1;1;1;3;1244;1;1;1;1;1;CNES 2722313 (Olho d'Água das Flores - AL);-9.533031926253916;-37.257472827412165;ibge_malha;synthetic_municipality
2010631;2101;2706307;270630;Palmeira dos Índios;AL;1;1;1;1;3999;1;1;1;1;1;CNES 2010631 (Palmeira dos Índios - AL);-9.418228513530297;-36.6057035002155;ibge_malha;synthetic_municipality
3719839;2101;2706307;270630;Palmeira dos Índios;AL;1;1;0;1;2062;1;1;0;1;1;CNES 3719839 (Palmeira dos Índios - AL);-9.418228513530297;-36.6057035002155;ibge_malha;synthetic_municipality
3818152;2101;2706307;270630;Palmeira dos Índios;AL;1;1;0;1;2062;1;1;0;1;1;CNES 3818152 (Palmeira dos Índios - AL);-9.418228513530297;-36.6057035002155;ibge_malha;synthetic_municipality
2719290;2101;2706406;270640;Pão de Açúcar;AL;1;1;1;3;1244;1;1;1;1;1;CNES 2719290 (Pão de Açúcar - AL);-9.670581632787467;-37.48553526033273;ibge_malha;synthetic_municipality
4020472;2101;2706604;270660;Paulo Jacinto;AL;1;1;1;3;1244;1;1;1;1;1;CNES 4020472 (Paulo Jacinto - AL);-9.37762897548362;-36.40941755435364;ibge_malha;synthetic_municipality
2003775;2101;2706703;270670;Penedo;AL;1;1;1;1;3999;1;1;1;1;1;CNES 2003775 (Penedo - AL);-10.231330017129416;-36.48231230914546;ibge_malha;synthetic_municipality
9362487;2101;2706703;270670;Penedo;AL;1;1;1;1;2062;1;1;1;1;1;CNES 9362487 (Penedo - AL);-10.231330017129416;-36.48231230914546;ibge_malha;synthetic_municipality
2719363;2101;2706802;270680;Piaçabuçu;AL;1;1;1;3;1244;1;1;1;1;1;CNES 2719363 (Piaçabuçu - AL);-10.38694518821818;-36.401745207334805;ibge_malha;synthetic_municipality
2011166;2101;2706901;270690;Pilar;AL;1;1;1;1;3999;1;1;1;1;1;CNES 2011166 (Pilar - AL);-9.615311471329942;-36.00462543215866;ibge_malha;synthetic_municipality
2721643;2101;2707107;270710;Piranhas;AL;1;1;1;3;1023;1;1;1;1;1;CNES 2721643 (Piranhas - AL);-9.526108105377437;-37.725055450170785;ibge_malha;synthetic_municipality
4020510;2101;2707305;270730;Porto Calvo;AL;1;1;1;3;1244;1;1;1;1;1;CNES 4020510 (Porto Calvo - AL);-9.025987347678916;-35.42684581458875;ibge_malha;synthetic_municipality
7042671;2101;2707305;270730;Porto Calvo;AL;1;0;1;3;1023;1;0;1;1;1;CNES 7042671 (Porto Calvo - AL);-9.025987347678916;-35.42684581458875;ibge_malha;synthetic_municipality
2722321;2101;2707602;270760;Quebrangulo;AL;1;1;1;3;1244;1;1;1;1;1;CNES 2722321 (Quebrangulo - AL);-9.303268470849344;-36.46121141337393;ibge_malha;synthetic_municipality
2720043;2101;2707701;270770;Rio Largo;AL;1;1;1;3;1023;1;1;1;1;1;CNES 2720043 (Rio Largo - AL);-9.48004948711732;-35.86443360212975;ibge_malha;synthetic_municipality
5616298;2101;2708006;270800;Santana do Ipanema;AL;1;1;1;3;1244;1;1;1;1;1;CNES 5616298 (Santana do Ipanema - AL);-9.358075453379824;-37.2105428563936;ibge_malha;synthetic_municipality
2720027;2101;2708204;270820;São Brás;AL;1;1;1;3;1244;1;1;1;1;1;CNES 2720027 (São Brás - AL);-10.10859651979499;-36.86186042933387;ibge_malha;synthetic_municipality
0179019;2101;2708303;270830;São José da Laje;AL;1;0;1;3;1244;1;0;1;1;1;CNES 0179019 (São José da Laje - AL);-8.98749410135786;-36.04000519127999;ibge_malha;synthetic_municipality
2722356;2101;2708303;270830;São José da Laje;AL;1;1;1;3;1244;1;1;1;1;1;CNES 2722356 (São José da Laje - AL);-8.98749410135786;-36.04000519127999;ibge_malha;synthetic_municipality
2722372;2101;2708402;270840;São José da Tapera;AL;1;1;1;3;1244;1;1;1;1;1;CNES 2722372 (São José da Tapera - AL);-9.533091393197555;-37.489853562045234;ibge_malha;synthetic_municipality
2008858;2101;2708501;270850;São Luís do Quitunde;AL;1;1;1;3;1244;1;1;1;1;1;CNES 2008858 (São Luís do Quitunde - AL);-9.24976069212819;-35.63417736809549;ibge_malha;synthetic_municipality
2010151;2101;2708600;270860;São Miguel dos Campos;AL;1;1;1;1;3999;1;1;1;1;1;CNES 2010151 (São Miguel dos Campos - AL);-9.772795295013998;-36.10079649210576;ibge_malha;synthetic_municipality
2719339;2101;2708808;270880;São Sebastião;AL;1;1;0;3;1244;1;1;0;1;1;CNES 2719339 (São Sebastião - AL);-9.963368414319188;-36.55036182766339;ibge_malha;synthetic_municipality
2722402;2101;2709103;270910;Taquarana;AL;1;0;1;3;1244;1;0;1;1;1;CNES 2722402 (Taquarana - AL);-9.624680328557153;-36.49530052021504;ibge_malha;synthetic_municipality
2722399;2101;2709152;270915;Teotônio Vilela;AL;1;1;1;1;1031;1;1;1;1;1;CNES 2722399 (Teotônio Vilela - AL);-9.964708160328883;-36.37150737003169;ibge_malha;synthetic_municipality
2719894;2101;2709202;270920;Traipu;AL;1;1;1;3;1244;1;1;1;1;1;CNES 2719894 (Traipu - AL);-9.896569852778558;-36.969248451234705;ibge_malha;synthetic_municipality
2705737;2101;2709301;270930;União dos Palmares;AL;1;1;1;1;3999;1;1;1;1;1;CNES 2705737 (União dos Palmares - AL);-9.120431585703574;-36.01443743200875;ibge_malha;synthetic_municipality
7753470;2101;2709301;270930;União dos Palmares;AL;1;1;1;3;1023;1;1;1;1;1;CNES 7753470 (União dos Palmares - AL);-9.120431585703574;-36.01443743200875;ibge_malha;synthetic_municipality
2003570;2101;2709400;270940;Viçosa;AL;1;1;1;3;1244;1;1;1;1;1;CNES 2003570 (Viçosa - AL);-9.359240785347161;-36.26512363775905;ibge_malha;synthetic_municipality
2017768;2101;1300029;130002;Alvarães;AM;1;1;1;3;1023;1;1;1;1;1;CNES 2017768 (Alvarães - AM);-3.6946863343458363;-65.32444782055323;ibge_malha;synthetic_municipality
2016648;2101;1300060;130006;Amaturá;AM;1;1;1;3;1244;1;1;1;1;1;CNES 2016648 (Amaturá - AM);-3.418439340029836;-68.2864936871355;ibge_malha;synthetic_municipality
2017679;2101;1300086;130008;Anamã;AM;1;1;1;3;1023;1;1;1;1;1;CNES 2017679 (Anamã - AM);-3.5018688631509938;-61.717977684409185;ibge_malha;synthetic_municipality
2717379;2101;1300102;130010;Anori;AM;1;1;1;3;1023;1;1;1;1;1;CNES 2717379 (Anori - AM);-4.198680746855392;-62.095401588215196;ibge_malha;synthetic_municipality
2013282;2101;1300144;130014;Apuí;AM;1;1;1;3;1244;1;1;1;1;1;CNES 2013282 (Apuí - AM);-7.759945769263405;-59.43210282372341;ibge_malha;synthetic_municipality
2016672;2101;1300201;130020;Atalaia do Norte;AM;1;1;1;3;1023;1;1;1;1;1;CNES 2016672 (Atalaia do Norte - AM);-5.710782203843308;-71.74091105988781;ibge_malha;synthetic_municipality
2013045;2101;1300300;130030;Autazes;AM;1;1;1;3;1244;1;1;1;1;1;CNES 2013045 (Autazes - AM);-3.787227071471917;-59.525523055440786;ibge_malha;synthetic_municipality
2015242;2101;1300409;130040;Barcelos;AM;1;1;1;3;1023;1;1;1;1;1;CNES 2015242 (Barcelos - AM);-0.46509667751170597;-63.43471492090846;ibge_malha;synthetic_municipality
2012022;2101;1300508;130050;Barreirinha;AM;1;1;1;3;1244;1;1;1;1;1;CNES 2012022 (Barreirinha - AM);-3.129024211395767;-57.17238408034842;ibge_malha;synthetic_municipality
2016974;2101;1300607;130060;Benjamin Constant;AM;1;1;1;3;1244;1;1;1;1;1;CNES 2016974 (Benjamin Constant - AM);-5.425357119708385;-70.27594999212202;ibge_malha;synthetic_municipality
2016605;2101;1300631;130063;Beruri;AM;1;1;1;3;1244;1;1;1;1;1;CNES 2016605 (Beruri - AM);-4.606236463394885;-61.804359712540595;ibge_malha;synthetic_municipality
2016354;2101;1300680;130068;Boa Vista do Ramos;AM;1;1;1;3;1244;1;1;1;1;1;CNES 2016354 (Boa Vista do Ramos - AM);-3.1378190733642826;-57.670116056814315;ibge_malha;synthetic_municipality
2012499;2101;1300706;130070;Boca do Acre;AM;1;1;1;3;1244;1;1;1;1;1;CNES 2012499 (Boca do Acre - AM);-8.773147501681006;-68.04764090657362;ibge_malha;synthetic_municipality
2012383;2101;1300805;130080;Borba;AM;1;1;1;3;1244;1;1;1;1;1;CNES 2012383 (Borba - AM);-4.957614596406921;-59.53469223387587;ibge_malha;synthetic_municipality
0203505;2101;1300839;130083;Caapiranga;AM;1;0;1;3;1244;1;0;1;1;1;CNES 0203505 (Caapiranga - AM);-3.082020195540638;-61.87774870432048;ibge_malha;synthetic_municipality
2016656;2101;1300839;130083;Caapiranga;AM;1;1;1;3;1244;1;1;1;1;1;CNES 2016656 (Caapiranga - AM);-3.082020195540638;-61.87774870432048;ibge_malha;synthetic_municipality
2016419;2101;1300904;130090;Canutama;AM;1;1;1;3;1244;1;1;1;1;1;CNES 2016419 (Canutama - AM);-7.300759125960522;-64.06190711056328;ibge_malha;synthetic_municipality
2017555;2101;1301001;130100;Carauari;AM;1;1;1;3;1244;1;1;1;1;1;CNES 2017555 (Carauari - AM);-5.118527139091382;-67.33747506089618;ibge_malha;synthetic_municipality
2017652;2101;1301100;130110;Careiro;AM;1;1;1;3;1244;1;1;1;1;1;CNES 2017652 (Careiro - AM);-3.770488071446851;-60.18327583005434;ibge_malha;synthetic_municipality
2016915;2101;1301159;130115;Careiro da Várzea;AM;1;1;0;3;1244;1;1;0;1;1;CNES 2016915 (Careiro da Várzea - AM);-3.2859994379412316;-59.598687619073104;ibge_malha;synthetic_municipality
2018136;2101;1301209;130120;Coari;AM;1;1;1;3;1244;1;1;1;1;1;CNES 2018136 (Coari - AM);-4.436353817003345;-64.12531216237272;ibge_malha;synthetic_municipality
2019523;2101;1301308;130130;Codajás;AM;1;1;1;3;1023;1;1;1;1;1;CNES 2019523 (Codajás - AM);-3.288981667059345;-62.97330685230495;ibge_malha;synthetic_municipality
2016397;2101;1301407;130140;Eirunepé;AM;1;1;1;3;1023;1;1;1;1;1;CNES 2016397 (Eirunepé - AM);-7.0220035191262;-70.2182539363535;ibge_malha;synthetic_municipality
2708892;2101;1301506;130150;Envira;AM;1;1;1;3;1023;1;1;1;1;1;CNES 2708892 (Envira - AM);-7.573287783322982;-70.05506491402014;ibge_malha;synthetic_municipality
2017717;2101;1301605;130160;Fonte Boa;AM;1;1;1;3;1244;1;1;1;1;1;CNES 2017717 (Fonte Boa - AM);-2.490992367339539;-66.35791228200114;ibge_malha;synthetic_municipality
2017997;2101;1301654;130165;Guajará;AM;1;1;1;3;1023;1;1;1;1;1;CNES 2017997 (Guajará - AM);-7.229782161848933;-72.84458758180493;ibge_malha;synthetic_municipality
2017016;2101;1301704;130170;Humaitá;AM;1;1;1;3;1244;1;1;1;1;1;CNES 2017016 (Humaitá - AM);-7.3612135458146595;-62.48643782891811;ibge_malha;synthetic_municipality
2013614;2101;1301803;130180;Ipixuna;AM;1;1;1;3;1023;1;1;1;1;1;CNES 2013614 (Ipixuna - AM);-7.180520805107572;-71.41287209426432;ibge_malha;synthetic_municipality
2012839;2101;1301852;130185;Iranduba;AM;1;1;1;3;1244;1;1;1;1;1;CNES 2012839 (Iranduba - AM);-3.095219401099708;-60.47969868398399;ibge_malha;synthetic_municipality
2016923;2101;1301902;130190;Itacoatiara;AM;1;1;1;3;1244;1;1;1;1;1;CNES 2016923 (Itacoatiara - AM);-3.174116833665352;-58.77534063802684;ibge_malha;synthetic_municipality
2013568;2101;1301951;130195;Itamarati;AM;1;1;1;3;1023;1;1;1;1;1;CNES 2013568 (Itamarati - AM);-6.682817926344909;-68.11283501620126;ibge_malha;synthetic_municipality
2708906;2101;1302009;130200;Itapiranga;AM;1;1;1;3;1023;1;1;1;1;1;CNES 2708906 (Itapiranga - AM);-2.4972360128444997;-58.61327254690987;ibge_malha;synthetic_municipality
2013495;2101;1302108;130210;Japurá;AM;1;1;1;3;1023;1;1;1;1;1;CNES 2013495 (Japurá - AM);-1.6970763022426971;-68.32111697312799;ibge_malha;synthetic_municipality
2708914;2101;1302207;130220;Juruá;AM;1;1;1;3;1023;1;1;1;1;1;CNES 2708914 (Juruá - AM);-3.5244766117470774;-66.30781180371045;ibge_malha;synthetic_municipality
2011875;2101;1302306;130230;Jutaí;AM;1;1;1;3;1023;1;1;1;1;1;CNES 2011875 (Jutaí - AM);-4.715291416792586;-68.40630319140531;ibge_malha;synthetic_municipality
2012618;2101;1302405;130240;Lábrea;AM;1;1;1;3;1244;1;1;1;1;1;CNES 2012618 (Lábrea - AM);-8.375601651822185;-65.81165847733696;ibge_malha;synthetic_municipality
2013258;2101;1302504;130250;Manacapuru;AM;1;1;1;3;1244;1;1;1;1;1;CNES 2013258 (Manacapuru - AM);-3.291541013288628;-60.95874404882891;ibge_malha;synthetic_municipality
2011891;2101;1302553;130255;Manaquiri;AM;1;1;1;3;1244;1;1;1;1;1;CNES 2011891 (Manaquiri - AM);-3.7790631029193564;-60.69727454449695;ibge_malha;synthetic_municipality
0119326;2101;1302603;130260;Manaus;AM;1;0;1;3;1023;1;0;1;1;1;CNES 0119326 (Manaus - AM);-2.6259215412459946;-60.259625348748166;ibge_malha;synthetic_municipality
2012030;2101;1302603;130260;Manaus;AM;1;1;1;1;1023;1;1;1;1;1;CNES 2012030 (Manaus - AM);-2.6259215412459946;-60.259625348748166;ibge_malha;synthetic_municipality
2012162;2101;1302603;130260;Manaus;AM;1;1;1;1;2062;1;1;1;1;1;CNES 2012162 (Manaus - AM);-2.6259215412459946;-60.259625348748166;ibge_malha;synthetic_municipality
2012359;2101;1302603;130260;Manaus;AM;1;1;1;1;2062;1;1;1;1;1;CNES 2012359 (Manaus - AM);-2.6259215412459946;-60.259625348748166;ibge_malha;synthetic_municipality
2012464;2101;1302603;130260;Manaus;AM;1;1;1;1;2062;1;1;1;1;1;CNES 2012464 (Manaus - AM);-2.6259215412459946;-60.259625348748166;ibge_malha;synthetic_municipality
2012472;2101;1302603;130260;Manaus;AM;1;1;1;3;1023;1;1;1;1;1;CNES 2012472 (Manaus - AM);-2.6259215412459946;-60.259625348748166;ibge_malha;synthetic_municipality
2012480;2101;1302603;130260;Manaus;AM;1;1;1;3;1031;1;1;1;1;1;CNES 2012480 (Manaus - AM);-2.6259215412459946;-60.259625348748166;ibge_malha;synthetic_municipality
2012677;2101;1302603;130260;Manaus;AM;1;1;1;1;1147;1;1;1;1;1;CNES 2012677 (Manaus - AM);-2.6259215412459946;-60.259625348748166;ibge_malha;synthetic_municipality
2012685;2101;1302603;130260;Manaus;AM;1;1;1;1;1147;1;1;1;1;1;CNES 2012685 (Manaus - AM);-2.6259215412459946;-60.259625348748166;ibge_malha;synthetic_municipality
2013029;2101;1302603;130260;Manaus;AM;1;1;1;3;1023;1;1;1;1;1;CNES 2013029 (Manaus - AM);-2.6259215412459946;-60.259625348748166;ibge_malha;synthetic_municipality
2013274;2101;1302603;130260;Manaus;AM;1;0;1;1;1147;1;0;1;1;1;CNES 2013274 (Manaus - AM);-2.6259215412459946;-60.259625348748166;ibge_malha;synthetic_municipality
2013606;2101;1302603;130260;Manaus;AM;1;1;1;1;1147;1;1;1;1;1;CNES 2013606 (Manaus - AM);-2.6259215412459946;-60.259625348748166;ibge_malha;synthetic_municipality
2013649;2101;1302603;130260;Manaus;AM;1;1;1;3;1023;1;1;1;1;1;CNES 2013649 (Manaus - AM);-2.6259215412459946;-60.259625348748166;ibge_malha;synthetic_municipality
2017318;2101;1302603;130260;Manaus;AM;1;1;1;3;1023;1;1;1;1;1;CNES 2017318 (Manaus - AM);-2.6259215412459946;-60.259625348748166;ibge_malha;synthetic_municipality
2017431;2101;1302603;130260;Manaus;AM;1;1;1;3;1023;1;1;1;1;1;CNES 2017431 (Manaus - AM);-2.6259215412459946;-60.259625348748166;ibge_malha;synthetic_municipality
2017644;2101;1302603;130260;Manaus;AM;1;1;1;1;2011;1;1;1;1;1;CNES 2017644 (Manaus - AM);-2.6259215412459946;-60.259625348748166;ibge_malha;synthetic_municipality
2017849;2101;1302603;130260;Manaus;AM;1;1;1;3;1023;1;1;1;1;1;CNES 2017849 (Manaus - AM);-2.6259215412459946;-60.259625348748166;ibge_malha;synthetic_municipality
2018055;2101;1302603;130260;Manaus;AM;1;1;1;1;2062;1;1;1;1;1;CNES 2018055 (Manaus - AM);-2.6259215412459946;-60.259625348748166;ibge_malha;synthetic_municipality
2018071;2101;1302603;130260;Manaus;AM;1;1;1;3;1023;1;1;1;1;1;CNES 2018071 (Manaus - AM);-2.6259215412459946;-60.259625348748166;ibge_malha;synthetic_municipality
2018098;2101;1302603;130260;Manaus;AM;1;1;1;1;3999;1;1;1;1;1;CNES 2018098 (Manaus - AM);-2.6259215412459946;-60.259625348748166;ibge_malha;synthetic_municipality
2018101;2101;1302603;130260;Manaus;AM;1;1;1;3;1023;1;1;1;1;1;CNES 2018101 (Manaus - AM);-2.6259215412459946;-60.259625348748166;ibge_malha;synthetic_municipality
2018330;2101;1302603;130260;Manaus;AM;1;1;1;1;2240;1;1;1;1;1;CNES 2018330 (Manaus - AM);-2.6259215412459946;-60.259625348748166;ibge_malha;synthetic_municipality
2018403;2101;1302603;130260;Manaus;AM;1;1;1;3;1023;1;1;1;1;1;CNES 2018403 (Manaus - AM);-2.6259215412459946;-60.259625348748166;ibge_malha;synthetic_municipality
2018969;2101;1302603;130260;Manaus;AM;1;1;1;1;2062;1;1;1;1;1;CNES 2018969 (Manaus - AM);-2.6259215412459946;-60.259625348748166;ibge_malha;synthetic_municipality
2019558;2101;1302603;130260;Manaus;AM;1;1;1;3;1023;1;1;1;1;1;CNES 2019558 (Manaus - AM);-2.6259215412459946;-60.259625348748166;ibge_malha;synthetic_municipality
2019566;2101;1302603;130260;Manaus;AM;1;1;1;3;1023;1;1;1;1;1;CNES 2019566 (Manaus - AM);-2.6259215412459946;-60.259625348748166;ibge_malha;synthetic_municipality
2019574;2101;1302603;130260;Manaus;AM;1;1;1;3;1023;1;1;1;1;1;CNES 2019574 (Manaus - AM);-2.6259215412459946;-60.259625348748166;ibge_malha;synthetic_municipality
3004104;2101;1302603;130260;Manaus;AM;1;1;1;3;1023;1;1;1;1;1;CNES 3004104 (Manaus - AM);-2.6259215412459946;-60.259625348748166;ibge_malha;synthetic_municipality
3105490;2101;1302603;130260;Manaus;AM;1;1;1;1;2062;1;1;1;1;1;CNES 3105490 (Manaus - AM);-2.6259215412459946;-60.259625348748166;ibge_malha;synthetic_municipality
3151794;2101;1302603;130260;Manaus;AM;1;1;1;3;1023;1;1;1;1;1;CNES 3151794 (Manaus - AM);-2.6259215412459946;-60.259625348748166;ibge_malha;synthetic_municipality
3179583;2101;1302603;130260;Manaus;AM;1;1;1;1;2305;1;1;1;1;1;CNES 3179583 (Manaus - AM);-2.6259215412459946;-60.259625348748166;ibge_malha;synthetic_municipality
3499359;2101;1302603;130260;Manaus;AM;1;1;1;1;2062;1;1;1;1;1;CNES 3499359 (Manaus - AM);-2.6259215412459946;-60.259625348748166;ibge_malha;synthetic_municipality
3664155;2101;1302603;130260;Manaus;AM;1;1;1;1;2240;1;1;1;1;1;CNES 3664155 (Manaus - AM);-2.6259215412459946;-60.259625348748166;ibge_malha;synthetic_municipality
5010039;2101;1302603;130260;Manaus;AM;1;1;0;1;2062;1;1;0;1;1;CNES 5010039 (Manaus - AM);-2.6259215412459946;-60.259625348748166;ibge_malha;synthetic_municipality
5169976;2101;1302603;130260;Manaus;AM;1;1;1;3;1023;1;1;1;1;1;CNES 5169976 (Manaus - AM);-2.6259215412459946;-60.259625348748166;ibge_malha;synthetic_municipality
5967368;2101;1302603;130260;Manaus;AM;1;1;1;1;2062;1;1;1;1;1;CNES 5967368 (Manaus - AM);-2.6259215412459946;-60.259625348748166;ibge_malha;synthetic_municipality
6627595;2101;1302603;130260;Manaus;AM;1;1;1;1;1023;1;1;1;1;1;CNES 6627595 (Manaus - AM);-2.6259215412459946;-60.259625348748166;ibge_malha;synthetic_municipality
7564546;2101;1302603;130260;Manaus;AM;1;1;1;3;1023;1;1;1;1;1;CNES 7564546 (Manaus - AM);-2.6259215412459946;-60.259625348748166;ibge_malha;synthetic_municipality
7847718;2101;1302603;130260;Manaus;AM;1;0;1;3;1031;1;0;1;1;1;CNES 7847718 (Manaus - AM);-2.6259215412459946;-60.259625348748166;ibge_malha;synthetic_municipality
9963472;2101;1302603;130260;Manaus;AM;1;0;1;1;3999;1;0;1;1;1;CNES 9963472 (Manaus - AM);-2.6259215412459946;-60.259625348748166;ibge_malha;synthetic_municipality
2014688;2101;1302702;130270;Manicoré;AM;1;1;1;3;1244;1;1;1;1;1;CNES 2014688 (Manicoré - AM);-6.4599540355509335;-61.44677707883231;ibge_malha;synthetic_municipality
2017660;2101;1302801;130280;Maraã;AM;1;1;1;3;1023;1;1;1;1;1;CNES 2017660 (Maraã - AM);-2.4268303716251514;-65.03954600603562;ibge_malha;synthetic_municipality
2018144;2101;1302900;130290;Maués;AM;1;1;1;3;1244;1;1;1;1;1;CNES 2018144 (Maués - AM);-4.984775480626198;-58.06092871992256;ibge_malha;synthetic_municipality
2016540;2101;1303007;130300;Nhamundá;AM;1;1;1;3;1023;1;1;1;1;1;CNES 2016540 (Nhamundá - AM);-1.6805968743760162;-57.656237961425916;ibge_malha;synthetic_municipality
2011905;2101;1303106;130310;Nova Olinda do Norte;AM;1;1;1;3;1244;1;1;1;1;1;CNES 2011905 (Nova Olinda do Norte - AM);-3.9895039293146284;-58.59976174714213;ibge_malha;synthetic_municipality
2708922;2101;1303205;130320;Novo Airão;AM;1;1;1;3;1244;1;1;1;1;1;CNES 2708922 (Novo Airão - AM);-2.048249365714648;-61.70342889692951;ibge_malha;synthetic_municipality
2019604;2101;1303304;130330;Novo Aripuanã;AM;1;1;1;3;1023;1;1;1;1;1;CNES 2019604 (Novo Aripuanã - AM);-6.824022915683538;-60.47715792726059;ibge_malha;synthetic_municipality
3210243;2101;1303403;130340;Parintins;AM;1;1;1;3;1244;1;1;1;1;1;CNES 3210243 (Parintins - AM);-2.6881021493162374;-56.85464628245094;ibge_malha;synthetic_municipality
2018381;2101;1303502;130350;Pauini;AM;1;1;1;3;1023;1;1;1;1;1;CNES 2018381 (Pauini - AM);-7.757802952979325;-68.19712817496476;ibge_malha;synthetic_municipality
2013320;2101;1303536;130353;Presidente Figueiredo;AM;1;1;1;3;1244;1;1;1;1;1;CNES 2013320 (Presidente Figueiredo - AM);-1.3709170843895615;-59.98955461402532;ibge_malha;synthetic_municipality
2708930;2101;1303569;130356;Rio Preto da Eva;AM;1;1;1;3;1244;1;1;1;1;1;CNES 2708930 (Rio Preto da Eva - AM);-2.529822756673111;-59.63838248610667;ibge_malha;synthetic_municipality
7591012;2101;1303569;130356;Rio Preto da Eva;AM;1;0;1;3;1023;1;0;1;1;1;CNES 7591012 (Rio Preto da Eva - AM);-2.529822756673111;-59.63838248610667;ibge_malha;synthetic_municipality
2016478;2101;1303601;130360;Santa Isabel do Rio Negro;AM;1;1;1;3;1023;1;1;1;1;1;CNES 2016478 (Santa Isabel do Rio Negro - AM);-0.3183681361381749;-65.52132920731893;ibge_malha;synthetic_municipality
3220966;2101;1303700;130370;Santo Antônio do Içá;AM;1;1;1;3;1023;1;1;1;1;1;CNES 3220966 (Santo Antônio do Içá - AM);-3.05290294907029;-69.08932698799939;ibge_malha;synthetic_municipality
2717387;2101;1303809;130380;São Gabriel da Cachoeira;AM;1;1;1;3;1244;1;1;1;1;1;CNES 2717387 (São Gabriel da Cachoeira - AM);0.374477616580368;-67.99705931992042;ibge_malha;synthetic_municipality
4004736;2101;1303809;130380;São Gabriel da Cachoeira;AM;1;1;0;3;1015;1;1;0;1;1;CNES 4004736 (São Gabriel da Cachoeira - AM);0.374477616580368;-67.99705931992042;ibge_malha;synthetic_municipality
4004752;2101;1303809;130380;São Gabriel da Cachoeira;AM;1;1;0;3;1015;1;1;0;1;1;CNES 4004752 (São Gabriel da Cachoeira - AM);0.374477616580368;-67.99705931992042;ibge_malha;synthetic_municipality
4004779;2101;1303809;130380;São Gabriel da Cachoeira;AM;1;1;1;3;1244;1;1;1;1;1;CNES 4004779 (São Gabriel da Cachoeira - AM);0.374477616580368;-67.99705931992042;ibge_malha;synthetic_municipality
4004787;2101;1303809;130380;São Gabriel da Cachoeira;AM;1;1;1;3;1015;1;1;1;1;1;CNES 4004787 (São Gabriel da Cachoeira - AM);0.374477616580368;-67.99705931992042;ibge_malha;synthetic_municipality
2018128;2101;1303908;130390;São Paulo de Olivença;AM;1;1;1;3;1244;1;1;1;1;1;CNES 2018128 (São Paulo de Olivença - AM);-4.501425019953467;-69.45111108414034;ibge_malha;synthetic_municipality
2011859;2101;1303957;130395;São Sebastião do Uatumã;AM;1;1;1;3;1023;1;1;1;1;1;CNES 2011859 (São Sebastião do Uatumã - AM);-1.9417684401713793;-58.70525153699642;ibge_malha;synthetic_municipality
2016249;2101;1304005;130400;Silves;AM;1;1;1;3;1244;1;1;1;1;1;CNES 2016249 (Silves - AM);-2.8205488910661334;-58.53708959498277;ibge_malha;synthetic_municipality
2016125;2101;1304062;130406;Tabatinga;AM;1;1;1;3;1015;1;1;1;1;1;CNES 2016125 (Tabatinga - AM);-4.028233306258846;-69.6776222057608;ibge_malha;synthetic_municipality
7459750;2101;1304062;130406;Tabatinga;AM;1;1;1;3;1023;1;1;1;1;1;CNES 7459750 (Tabatinga - AM);-4.028233306258846;-69.6776222057608;ibge_malha;synthetic_municipality
7459831;2101;1304062;130406;Tabatinga;AM;1;1;1;3;1023;1;1;1;1;1;CNES 7459831 (Tabatinga - AM);-4.028233306258846;-69.6776222057608;ibge_malha;synthetic_municipality
2012553;2101;1304104;130410;Tapauá;AM;1;1;1;3;1023;1;1;1;1;1;CNES 2012553 (Tapauá - AM);-6.093701379340699;-64.95579179137738;ibge_malha;synthetic_municipality
2016141;2101;1304203;130420;Tefé;AM;1;1;1;3;1244;1;1;1;1;1;CNES 2016141 (Tefé - AM);-4.470118169528795;-65.53154264363938;ibge_malha;synthetic_municipality
2012804;2101;1304237;130423;Tonantins;AM;1;1;1;3;1244;1;1;1;1;1;CNES 2012804 (Tonantins - AM);-2.69180070566827;-67.8260419144874;ibge_malha;synthetic_municipality
2016443;2101;1304260;130426;Uarini;AM;1;1;1;3;1023;1;1;1;1;1;CNES 2016443 (Uarini - AM);-3.1656520596719315;-65.41079305520415;ibge_malha;synthetic_municipality
2717395;2101;1304302;130430;Urucará;AM;1;1;1;3;1023;1;1;1;1;1;CNES 2717395 (Urucará - AM);-0.8944106080831752;-59.029575807528595;ibge_malha;synthetic_municipality
2016567;2101;1304401;130440;Urucurituba;AM;1;1;1;3;1023;1;1;1;1;1;CNES 2016567 (Urucurituba - AM);-2.813764407537207;-57.77131523665416;ibge_malha;synthetic_municipality
2017911;2101;1304401;130440;Urucurituba;AM;1;1;1;3;1023;1;1;1;1;1;CNES 2017911 (Urucurituba - AM);-2.813764407537207;-57.77131523665416;ibge_malha;synthetic_municipality
2021382;2101;1600055;160005;Serra do Navio;AP;1;1;1;3;1023;1;1;1;1;1;CNES 2021382 (Serra do Navio - AP);1.651742842165938;-52.268135879623266;ibge_malha;synthetic_municipality
2019701;2101;1600105;160010;Amapá;AP;1;1;1;3;1023;1;1;1;1;1;CNES 2019701 (Amapá - AP);1.7467585114225994;-50.59259343542623;ibge_malha;synthetic_municipality
2021218;2101;1600154;160015;Pedra Branca do Amapari;AP;1;1;1;3;1023;1;1;1;1;1;CNES 2021218 (Pedra Branca do Amapari - AP);1.1576018853896066;-52.51955569312976;ibge_malha;synthetic_municipality
2019728;2101;1600204;160020;Calçoene;AP;1;1;1;3;1023;1;1;1;1;1;CNES 2019728 (Calçoene - AP);2.423839869821893;-51.40664650552991;ibge_malha;synthetic_municipality
2019663;2101;1600238;160023;Ferreira Gomes;AP;1;1;1;3;1023;1;1;1;1;1;CNES 2019663 (Ferreira Gomes - AP);0.9570860770625078;-51.417326944923126;ibge_malha;synthetic_municipality
2020076;2101;1600279;160027;Laranjal do Jari;AP;1;1;1;3;1023;1;1;1;1;1;CNES 2020076 (Laranjal do Jari - AP);1.101369774211346;-53.31054767209246;ibge_malha;synthetic_municipality
9619488;2101;1600279;160027;Laranjal do Jari;AP;1;0;1;3;1023;1;0;1;1;1;CNES 9619488 (Laranjal do Jari - AP);1.101369774211346;-53.31054767209246;ibge_malha;synthetic_municipality
0176664;2101;1600303;160030;Macapá;AP;1;0;1;3;1023;1;0;1;1;1;CNES 0176664 (Macapá - AP);0.5627552308237873;-50.69177741526286;ibge_malha;synthetic_municipality
2019647;2101;1600303;160030;Macapá;AP;1;1;1;3;1023;1;1;1;1;1;CNES 2019647 (Macapá - AP);0.5627552308237873;-50.69177741526286;ibge_malha;synthetic_municipality
2020068;2101;1600303;160030;Macapá;AP;1;1;1;3;1023;1;1;1;1;1;CNES 2020068 (Macapá - AP);0.5627552308237873;-50.69177741526286;ibge_malha;synthetic_municipality
2020645;2101;1600303;160030;Macapá;AP;1;1;1;3;1023;1;1;1;1;1;CNES 2020645 (Macapá - AP);0.5627552308237873;-50.69177741526286;ibge_malha;synthetic_municipality
2020653;2101;1600303;160030;Macapá;AP;1;1;1;3;1023;1;1;1;1;1;CNES 2020653 (Macapá - AP);0.5627552308237873;-50.69177741526286;ibge_malha;synthetic_municipality
2020890;2101;1600303;160030;Macapá;AP;1;1;1;1;3999;1;1;1;1;1;CNES 2020890 (Macapá - AP);0.5627552308237873;-50.69177741526286;ibge_malha;synthetic_municipality
7709196;2101;1600303;160030;Macapá;AP;1;0;1;3;1023;1;0;1;1;1;CNES 7709196 (Macapá - AP);0.5627552308237873;-50.69177741526286;ibge_malha;synthetic_municipality
2020165;2101;1600402;160040;Mazagão;AP;1;1;1;3;1023;1;1;1;1;1;CNES 2020165 (Mazagão - AP);-0.06683410071342424;-51.95120057954042;ibge_malha;synthetic_municipality
2021463;2101;1600501;160050;Oiapoque;AP;1;1;1;3;1023;1;1;1;1;1;CNES 2021463 (Oiapoque - AP);3.1118093422804494;-51.898684653306105;ibge_malha;synthetic_municipality
2019736;2101;1600535;160053;Porto Grande;AP;1;1;1;3;1244;1;1;1;1;1;CNES 2019736 (Porto Grande - AP);0.5856274509678399;-51.66996765962999;ibge_malha;synthetic_municipality
2021064;2101;1600600;160060;Santana;AP;1;1;1;3;1023;1;1;1;1;1;CNES 2021064 (Santana - AP);0.12980348483378734;-51.37836415459109;ibge_malha;synthetic_municipality
2021765;2101;1600600;160060;Santana;AP;1;1;1;1;2062;1;1;1;1;1;CNES 2021765 (Santana - AP);0.12980348483378734;-51.37836415459109;ibge_malha;synthetic_municipality
2019671;2101;1600709;160070;Tartarugalzinho;AP;1;1;1;3;1023;1;1;1;1;1;CNES 2019671 (Tartarugalzinho - AP);1.2975751958224098;-50.992609669265455;ibge_malha;synthetic_municipality
2020149;2101;1600808;160080;Vitória do Jari;AP;1;1;1;3;1023;1;1;1;1;1;CNES 2020149 (Vitória do Jari - AP);-0.9964438346944632;-52.06117908744139;ibge_malha;synthetic_municipality
6556450;2101;2900108;290010;Abaíra;BA;1;1;1;3;1244;1;1;1;1;1;CNES 6556450 (Abaíra - BA);-13.296579452439826;-41.74286633307678;ibge_malha;synthetic_municipality
2304295;2101;2900207;290020;Abaré;BA;1;1;1;3;1244;1;1;1;1;1;CNES 2304295 (Abaré - BA);-8.833548621726745;-39.317677705928965;ibge_malha;synthetic_municipality
2550393;2101;2900306;290030;Acajutiba;BA;1;0;1;3;1244;1;0;1;1;1;CNES 2550393 (Acajutiba - BA);-11.663178260736082;-38.00053699488207;ibge_malha;synthetic_municipality
2771292;2101;2900355;290035;Adustina;BA;1;1;1;3;1244;1;1;1;1;1;CNES 2771292 (Adustina - BA);-10.562275332170152;-38.037639053639396;ibge_malha;synthetic_municipality
2602202;2101;2900405;290040;Água Fria;BA;1;1;1;3;1244;1;1;1;1;1;CNES 2602202 (Água Fria - BA);-11.823172404517658;-38.71047337639318;ibge_malha;synthetic_municipality
4021185;2101;2900504;290050;Érico Cardoso;BA;1;0;1;3;1244;1;0;1;1;1;CNES 4021185 (Érico Cardoso - BA);-13.40021375708029;-42.06733404785442;ibge_malha;synthetic_municipality
4021231;2101;2900603;290060;Aiquara;BA;1;1;1;3;1244;1;1;1;1;1;CNES 4021231 (Aiquara - BA);-14.091801674701275;-39.88086403201501;ibge_malha;synthetic_municipality
2487322;2101;2900702;290070;Alagoinhas;BA;1;1;1;1;3999;1;1;1;1;1;CNES 2487322 (Alagoinhas - BA);-12.113111869397962;-38.40222297389029;ibge_malha;synthetic_municipality
2487411;2101;2900702;290070;Alagoinhas;BA;1;1;1;3;1244;1;1;1;1;1;CNES 2487411 (Alagoinhas - BA);-12.113111869397962;-38.40222297389029;ibge_malha;synthetic_municipality
2487438;2101;2900702;290070;Alagoinhas;BA;1;1;1;3;1023;1;1;1;1;1;CNES 2487438 (Alagoinhas - BA);-12.113111869397962;-38.40222297389029;ibge_malha;synthetic_municipality
2519879;2101;2900702;290070;Alagoinhas;BA;1;1;1;1;2054;1;1;1;1;1;CNES 2519879 (Alagoinhas - BA);-12.113111869397962;-38.40222297389029;ibge_malha;synthetic_municipality
2304848;2101;2900801;290080;Alcobaça;BA;1;1;1;1;3999;1;1;1;1;1;CNES 2304848 (Alcobaça - BA);-17.469229001071195;-39.40954783898665;ibge_malha;synthetic_municipality
2414244;2101;2901007;290100;Amargosa;BA;1;1;1;3;1244;1;1;1;1;1;CNES 2414244 (Amargosa - BA);-13.040848238555474;-39.62633029003709;ibge_malha;synthetic_municipality
2799103;2101;2901106;290110;Amélia Rodrigues;BA;1;1;1;3;1244;1;1;1;1;1;CNES 2799103 (Amélia Rodrigues - BA);-12.42116624652954;-38.7204783964911;ibge_malha;synthetic_municipality
2304538;2101;2901155;290115;América Dourada;BA;1;1;1;3;1244;1;1;1;1;1;CNES 2304538 (América Dourada - BA);-11.40619264882883;-41.522916572174125;ibge_malha;synthetic_municipality
3827127;2101;2901205;290120;Anagé;BA;1;1;1;3;1244;1;1;1;1;1;CNES 3827127 (Anagé - BA);-14.589897328592631;-40.92772228292777;ibge_malha;synthetic_municipality
4021460;2101;2901304;290130;Andaraí;BA;1;1;1;3;1244;1;1;1;1;1;CNES 4021460 (Andaraí - BA);-12.733623448772475;-41.2150873398555;ibge_malha;synthetic_municipality
4021495;2101;2901353;290135;Andorinha;BA;1;0;1;3;1244;1;0;1;1;1;CNES 4021495 (Andorinha - BA);-10.280764980452242;-39.871904733303566;ibge_malha;synthetic_municipality
3017028;2101;2901403;290140;Angical;BA;1;0;1;3;1244;1;0;1;1;1;CNES 3017028 (Angical - BA);-11.996638477924876;-44.6477038423072;ibge_malha;synthetic_municipality
2660229;2101;2901502;290150;Anguera;BA;1;1;1;3;1244;1;1;1;1;1;CNES 2660229 (Anguera - BA);-12.182991793113354;-39.192823700839924;ibge_malha;synthetic_municipality
2799820;2101;2901601;290160;Antas;BA;1;1;1;1;3999;1;1;1;1;1;CNES 2799820 (Antas - BA);-10.407124396552687;-38.29410886037269;ibge_malha;synthetic_municipality
2799847;2101;2901601;290160;Antas;BA;1;1;1;1;3999;1;1;1;1;1;CNES 2799847 (Antas - BA);-10.407124396552687;-38.29410886037269;ibge_malha;synthetic_municipality
9528741;2101;2901908;290190;Aporá;BA;1;0;1;3;1244;1;0;1;1;1;CNES 9528741 (Aporá - BA);-11.73156603434252;-38.1938013759078;ibge_malha;synthetic_municipality
2799472;2101;2902005;290200;Aracatu;BA;1;1;1;1;2062;1;1;1;1;1;CNES 2799472 (Aracatu - BA);-14.37124147413067;-41.37455043152123;ibge_malha;synthetic_municipality
3407829;2101;2902005;290200;Aracatu;BA;1;1;1;3;1244;1;1;1;1;1;CNES 3407829 (Aracatu - BA);-14.37124147413067;-41.37455043152123;ibge_malha;synthetic_municipality
2512084;2101;2902054;290205;Araçás;BA;1;1;1;3;1244;1;1;1;1;1;CNES 2512084 (Araçás - BA);-12.172948669863151;-38.2125411734558;ibge_malha;synthetic_municipality
2598213;2101;2902104;290210;Araci;BA;1;1;1;3;1244;1;1;1;1;1;CNES 2598213 (Araci - BA);-11.212474012270603;-39.064464301226955;ibge_malha;synthetic_municipality
2444798;2101;2902401;290240;Aurelino Leal;BA;1;1;1;3;1244;1;1;1;1;1;CNES 2444798 (Aurelino Leal - BA);-14.362135888338655;-39.47828983173431;ibge_malha;synthetic_municipality
4022068;2101;2902500;290250;Baianópolis;BA;1;1;1;3;1244;1;1;1;1;1;CNES 4022068 (Baianópolis - BA);-12.657130450048815;-44.440229861939414;ibge_malha;synthetic_municipality
2799766;2101;2902609;290260;Baixa Grande;BA;1;1;1;3;1244;1;1;1;1;1;CNES 2799766 (Baixa Grande - BA);-11.96474937009954;-40.1527654033645;ibge_malha;synthetic_municipality
2301687;2101;2902708;290270;Barra;BA;1;1;1;1;3999;1;1;1;1;1;CNES 2301687 (Barra - BA);-11.030561864045001;-43.366049430784365;ibge_malha;synthetic_municipality
3048209;2101;2902708;290270;Barra;BA;1;1;1;1;3069;1;1;1;1;1;CNES 3048209 (Barra - BA);-11.030561864045001;-43.366049430784365;ibge_malha;synthetic_municipality
2799855;2101;2902807;290280;Barra da Estiva;BA;1;1;1;1;3999;1;1;1;1;1;CNES 2799855 (Barra da Estiva - BA);-13.650480203349979;-41.09809360643341;ibge_malha;synthetic_municipality
2722844;2101;2902906;290290;Barra do Choça;BA;1;1;1;3;1244;1;1;1;1;1;CNES 2722844 (Barra do Choça - BA);-14.913064516877704;-40.58128352334309;ibge_malha;synthetic_municipality
4022262;2101;2903003;290300;Barra do Mendes;BA;1;1;1;3;1244;1;1;1;1;1;CNES 4022262 (Barra do Mendes - BA);-11.950032415585623;-42.1094922442863;ibge_malha;synthetic_municipality
0152870;2101;2903201;290320;Barreiras;BA;1;0;1;1;2062;1;0;1;1;1;CNES 0152870 (Barreiras - BA);-12.01303499049597;-45.542335435511326;ibge_malha;synthetic_municipality
2505231;2101;2903201;290320;Barreiras;BA;1;1;1;3;1244;1;1;1;1;1;CNES 2505231 (Barreiras - BA);-12.01303499049597;-45.542335435511326;ibge_malha;synthetic_municipality
2517744;2101;2903201;290320;Barreiras;BA;1;1;1;1;2062;1;1;1;1;1;CNES 2517744 (Barreiras - BA);-12.01303499049597;-45.542335435511326;ibge_malha;synthetic_municipality
2659069;2101;2903201;290320;Barreiras;BA;1;1;1;3;1244;1;1;1;1;1;CNES 2659069 (Barreiras - BA);-12.01303499049597;-45.542335435511326;ibge_malha;synthetic_municipality
3972925;2101;2903201;290320;Barreiras;BA;1;1;1;3;1023;1;1;1;1;1;CNES 3972925 (Barreiras - BA);-12.01303499049597;-45.542335435511326;ibge_malha;synthetic_municipality
2304910;2101;2903235;290323;Barro Alto;BA;1;1;1;1;2062;1;1;1;1;1;CNES 2304910 (Barro Alto - BA);-11.84801270767896;-41.83677453371239;ibge_malha;synthetic_municipality
4022416;2101;2903276;290327;Barrocas;BA;1;1;1;3;1244;1;1;1;1;1;CNES 4022416 (Barrocas - BA);-11.538046456257433;-39.094929695648226;ibge_malha;synthetic_municipality
2601079;2101;2903300;290330;Barro Preto;BA;1;1;1;3;1244;1;1;1;1;1;CNES 2601079 (Barro Preto - BA);-14.775866102551996;-39.44473268719006;ibge_malha;synthetic_municipality
2413922;2101;2903409;290340;Belmonte;BA;1;1;1;3;1244;1;1;1;1;1;CNES 2413922 (Belmonte - BA);-15.935419698315684;-39.17727686312776;ibge_malha;synthetic_municipality
2304953;2101;2903508;290350;Belo Campo;BA;1;1;1;3;1244;1;1;1;1;1;CNES 2304953 (Belo Campo - BA);-14.998516057095907;-41.2038426861852;ibge_malha;synthetic_municipality
2644827;2101;2903607;290360;Biritinga;BA;1;0;1;3;1244;1;0;1;1;1;CNES 2644827 (Biritinga - BA);-11.58531965727602;-38.79262687471466;ibge_malha;synthetic_municipality
2771268;2101;2903805;290380;Boa Vista do Tupim;BA;1;1;1;3;1244;1;1;1;1;1;CNES 2771268 (Boa Vista do Tupim - BA);-12.770169016301104;-40.67022545559992;ibge_malha;synthetic_municipality
4022718;2101;2903904;290390;Bom Jesus da Lapa;BA;1;1;1;3;1244;1;1;1;1;1;CNES 4022718 (Bom Jesus da Lapa - BA);-13.27714139588646;-43.29339171911761;ibge_malha;synthetic_municipality
7232519;2101;2903904;290390;Bom Jesus da Lapa;BA;1;1;1;3;1244;1;1;1;1;1;CNES 7232519 (Bom Jesus da Lapa - BA);-13.27714139588646;-43.29339171911761;ibge_malha;synthetic_municipality
4022750;2101;2903953;290395;Bom Jesus da Serra;BA;1;1;1;3;1244;1;1;1;1;1;CNES 4022750 (Bom Jesus da Serra - BA);-14.389890421345552;-40.577293595298784;ibge_malha;synthetic_municipality
2523515;2101;2904001;290400;Boninal;BA;1;1;1;3;1244;1;1;1;1;1;CNES 2523515 (Boninal - BA);-12.77667817955055;-41.80249119000702;ibge_malha;synthetic_municipality
3246558;2101;2904050;290405;Bonito;BA;1;1;1;3;1244;1;1;1;1;1;CNES 3246558 (Bonito - BA);-11.969263553004142;-41.32042164995462;ibge_malha;synthetic_municipality
4022807;2101;2904100;290410;Boquira;BA;1;1;1;3;1244;1;1;1;1;1;CNES 4022807 (Boquira - BA);-12.741131585619163;-42.7222972991891;ibge_malha;synthetic_municipality
2386305;2101;2904209;290420;Botuporã;BA;1;0;1;3;1244;1;0;1;1;1;CNES 2386305 (Botuporã - BA);-13.326226793981558;-42.534718654947795;ibge_malha;synthetic_municipality
2801590;2101;2904308;290430;Brejões;BA;1;1;1;3;1244;1;1;1;1;1;CNES 2801590 (Brejões - BA);-13.075379428452077;-39.85078040742114;ibge_malha;synthetic_municipality
7228724;2101;2904407;290440;Brejolândia;BA;1;1;1;3;1244;1;1;1;1;1;CNES 7228724 (Brejolândia - BA);-12.499371610319015;-43.82475694459543;ibge_malha;synthetic_municipality
6485235;2101;2904506;290450;Brotas de Macaúbas;BA;1;1;1;3;1244;1;1;1;1;1;CNES 6485235 (Brotas de Macaúbas - BA);-12.089273806775758;-42.4470558552763;ibge_malha;synthetic_municipality
2386569;2101;2904605;290460;Brumado;BA;1;1;1;3;1244;1;1;1;1;1;CNES 2386569 (Brumado - BA);-14.167934312207086;-41.689082451272554;ibge_malha;synthetic_municipality
2386674;2101;2904753;290475;Buritirama;BA;1;1;1;3;1244;1;1;1;1;1;CNES 2386674 (Buritirama - BA);-10.588129604506873;-43.66763318320026;ibge_malha;synthetic_municipality
2386739;2101;2904803;290480;Caatiba;BA;1;1;1;3;1244;1;1;1;1;1;CNES 2386739 (Caatiba - BA);-14.995796639740723;-40.36411671489453;ibge_malha;synthetic_municipality
2386836;2101;2904852;290485;Cabaceiras do Paraguaçu;BA;1;0;1;3;1244;1;0;1;1;1;CNES 2386836 (Cabaceiras do Paraguaçu - BA);-12.564273171188844;-39.1924708622262;ibge_malha;synthetic_municipality
2386879;2101;2904902;290490;Cachoeira;BA;1;1;1;1;3999;1;1;1;1;1;CNES 2386879 (Cachoeira - BA);-12.64670346585881;-38.884875237200234;ibge_malha;synthetic_municipality
2387042;2101;2905008;290500;Caculé;BA;1;1;1;1;3999;1;1;1;1;1;CNES 2387042 (Caculé - BA);-14.482884993311355;-42.28505515203691;ibge_malha;synthetic_municipality
4023463;2101;2905107;290510;Caém;BA;1;1;1;3;1244;1;1;1;1;1;CNES 4023463 (Caém - BA);-11.143062805474178;-40.29112513560739;ibge_malha;synthetic_municipality
2387115;2101;2905156;290515;Caetanos;BA;1;1;0;3;1244;1;1;0;1;1;CNES 2387115 (Caetanos - BA);-14.313679647966474;-40.92673709179625;ibge_malha;synthetic_municipality
2557096;2101;2905206;290520;Caetité;BA;1;0;1;3;1244;1;0;1;1;1;CNES 2557096 (Caetité - BA);-13.947967048953808;-42.476647714788776;ibge_malha;synthetic_municipality
2557118;2101;2905206;290520;Caetité;BA;1;1;1;1;3069;1;1;1;1;1;CNES 2557118 (Caetité - BA);-13.947967048953808;-42.476647714788776;ibge_malha;synthetic_municipality
7319770;2101;2905206;290520;Caetité;BA;1;1;1;3;1244;1;1;1;1;1;CNES 7319770 (Caetité - BA);-13.947967048953808;-42.476647714788776;ibge_malha;synthetic_municipality
2387131;2101;2905305;290530;Cafarnaum;BA;1;1;1;3;1244;1;1;1;1;1;CNES 2387131 (Cafarnaum - BA);-11.733830952356232;-41.501456079930186;ibge_malha;synthetic_municipality
4023536;2101;2905503;290550;Caldeirão Grande;BA;1;1;1;3;1244;1;1;1;1;1;CNES 4023536 (Caldeirão Grande - BA);-11.03986043411342;-40.22182342534651;ibge_malha;synthetic_municipality
2601710;2101;2905602;290560;Camacan;BA;1;1;1;1;3069;1;1;1;1;1;CNES 2601710 (Camacan - BA);-15.44437429173142;-39.5186674963824;ibge_malha;synthetic_municipality
9696091;2101;2905602;290560;Camacan;BA;1;1;1;1;3999;1;1;1;1;1;CNES 9696091 (Camacan - BA);-15.44437429173142;-39.5186674963824;ibge_malha;synthetic_municipality
0102652;2101;2905701;290570;Camaçari;BA;1;0;1;3;1244;1;0;1;1;1;CNES 0102652 (Camaçari - BA);-12.666028706970154;-38.20630421161771;ibge_malha;synthetic_municipality
0118095;2101;2905701;290570;Camaçari;BA;1;0;1;3;1244;1;0;1;1;1;CNES 0118095 (Camaçari - BA);-12.666028706970154;-38.20630421161771;ibge_malha;synthetic_municipality
2388057;2101;2905701;290570;Camaçari;BA;1;1;1;3;1023;1;1;1;1;1;CNES 2388057 (Camaçari - BA);-12.666028706970154;-38.20630421161771;ibge_malha;synthetic_municipality
2467402;2101;2905701;290570;Camaçari;BA;1;1;1;1;2305;1;1;1;1;1;CNES 2467402 (Camaçari - BA);-12.666028706970154;-38.20630421161771;ibge_malha;synthetic_municipality
2647036;2101;2905701;290570;Camaçari;BA;1;1;1;1;2062;1;1;1;1;1;CNES 2647036 (Camaçari - BA);-12.666028706970154;-38.20630421161771;ibge_malha;synthetic_municipality
7540736;2101;2905701;290570;Camaçari;BA;1;1;0;1;2062;1;1;0;1;1;CNES 7540736 (Camaçari - BA);-12.666028706970154;-38.20630421161771;ibge_malha;synthetic_municipality
9340165;2101;2905701;290570;Camaçari;BA;1;1;1;1;2062;1;1;1;1;1;CNES 9340165 (Camaçari - BA);-12.666028706970154;-38.20630421161771;ibge_malha;synthetic_municipality
2387514;2101;2905800;290580;Camamu;BA;1;1;1;3;1244;1;1;1;1;1;CNES 2387514 (Camamu - BA);-14.012546609927524;-39.16418682095233;ibge_malha;synthetic_municipality
6600476;2101;2905909;290590;Campo Alegre de Lourdes;BA;1;1;1;3;1244;1;1;1;1;1;CNES 6600476 (Campo Alegre de Lourdes - BA);-9.561568216924323;-43.15885342030528;ibge_malha;synthetic_municipality
2799839;2101;2906006;290600;Campo Formoso;BA;1;1;1;1;3999;1;1;1;1;1;CNES 2799839 (Campo Formoso - BA);-10.251057102603882;-40.7289298618229;ibge_malha;synthetic_municipality
2602571;2101;2906105;290610;Canápolis;BA;1;1;1;3;1244;1;1;1;1;1;CNES 2602571 (Canápolis - BA);-13.096588449068506;-44.2035584379616;ibge_malha;synthetic_municipality
2387263;2101;2906204;290620;Canarana;BA;1;1;1;3;1244;1;1;1;1;1;CNES 2387263 (Canarana - BA);-11.752947679144954;-41.699631297976026;ibge_malha;synthetic_municipality
2804042;2101;2906303;290630;Canavieiras;BA;1;1;1;3;1244;1;1;1;1;1;CNES 2804042 (Canavieiras - BA);-15.651537578518258;-39.10882240161772;ibge_malha;synthetic_municipality
2771411;2101;2906402;290640;Candeal;BA;1;1;1;3;1244;1;1;1;1;1;CNES 2771411 (Candeal - BA);-11.871111401168687;-39.19075214303977;ibge_malha;synthetic_municipality
2387581;2101;2906501;290650;Candeias;BA;1;1;1;3;1244;1;1;1;1;1;CNES 2387581 (Candeias - BA);-12.678490088063764;-38.48115317082282;ibge_malha;synthetic_municipality
3791130;2101;2906501;290650;Candeias;BA;1;1;1;1;2062;1;1;1;1;1;CNES 3791130 (Candeias - BA);-12.678490088063764;-38.48115317082282;ibge_malha;synthetic_municipality
9142193;2101;2906501;290650;Candeias;BA;1;0;1;3;1244;1;0;1;1;1;CNES 9142193 (Candeias - BA);-12.678490088063764;-38.48115317082282;ibge_malha;synthetic_municipality
2819147;2101;2906600;290660;Candiba;BA;1;1;1;3;1244;1;1;1;1;1;CNES 2819147 (Candiba - BA);-14.404207928166857;-42.831736769194755;ibge_malha;synthetic_municipality
0177474;2101;2906709;290670;Cândido Sales;BA;1;0;1;3;1244;1;0;1;1;1;CNES 0177474 (Cândido Sales - BA);-15.355086123079898;-41.26948543624991;ibge_malha;synthetic_municipality
2387700;2101;2906709;290670;Cândido Sales;BA;1;1;1;3;1244;1;1;1;1;1;CNES 2387700 (Cândido Sales - BA);-15.355086123079898;-41.26948543624991;ibge_malha;synthetic_municipality
2597594;2101;2906808;290680;Cansanção;BA;1;1;1;3;1244;1;1;1;1;1;CNES 2597594 (Cansanção - BA);-10.726918706813434;-39.472723185019596;ibge_malha;synthetic_municipality
2597586;2101;2906824;290682;Canudos;BA;1;1;1;3;1244;1;1;1;1;1;CNES 2597586 (Canudos - BA);-10.005924369320695;-38.994521465429735;ibge_malha;synthetic_municipality
2802120;2101;2906857;290685;Capela do Alto Alegre;BA;1;1;1;3;1244;1;1;1;1;1;CNES 2802120 (Capela do Alto Alegre - BA);-11.672279833050782;-39.82495003093291;ibge_malha;synthetic_municipality
2387727;2101;2906873;290687;Capim Grosso;BA;1;1;1;1;3999;1;1;1;1;1;CNES 2387727 (Capim Grosso - BA);-11.306276360185995;-39.99590520681119;ibge_malha;synthetic_municipality
6441904;2101;2906899;290689;Caraíbas;BA;1;0;1;3;1244;1;0;1;1;1;CNES 6441904 (Caraíbas - BA);-14.62558146477973;-41.28371731304387;ibge_malha;synthetic_municipality
4024222;2101;2906907;290690;Caravelas;BA;1;1;1;3;1244;1;1;1;1;1;CNES 4024222 (Caravelas - BA);-17.65751484007333;-39.68884067095613;ibge_malha;synthetic_municipality
4024303;2101;2907103;290710;Carinhanha;BA;1;1;1;3;1244;1;1;1;1;1;CNES 4024303 (Carinhanha - BA);-14.020545051255617;-43.84896988106278;ibge_malha;synthetic_municipality
2388928;2101;2907202;290720;Casa Nova;BA;1;1;1;3;1244;1;1;1;1;1;CNES 2388928 (Casa Nova - BA);-9.240249273616895;-41.33647445131749;ibge_malha;synthetic_municipality
2601613;2101;2907301;290730;Castro Alves;BA;1;1;1;1;3999;1;1;1;1;1;CNES 2601613 (Castro Alves - BA);-12.731620763360832;-39.363988116045675;ibge_malha;synthetic_municipality
2602075;2101;2907301;290730;Castro Alves;BA;1;1;1;3;1023;1;1;1;1;1;CNES 2602075 (Castro Alves - BA);-12.731620763360832;-39.363988116045675;ibge_malha;synthetic_municipality
0424811;2101;2907509;290750;Catu;BA;1;1;0;3;1244;1;1;0;1;1;CNES 0424811 (Catu - BA);-12.33057623349553;-38.41289954688791;ibge_malha;synthetic_municipality
2388685;2101;2907509;290750;Catu;BA;1;1;1;1;3999;1;1;1;1;1;CNES 2388685 (Catu - BA);-12.33057623349553;-38.41289954688791;ibge_malha;synthetic_municipality
4024370;2101;2907558;290755;Caturama;BA;1;1;1;3;1244;1;1;1;1;1;CNES 4024370 (Caturama - BA);-13.233457216157056;-42.31940678767386;ibge_malha;synthetic_municipality
2389398;2101;2907608;290760;Central;BA;1;1;1;3;1244;1;1;1;1;1;CNES 2389398 (Central - BA);-11.151290583619364;-42.112426619156665;ibge_malha;synthetic_municipality
0198552;2101;2907707;290770;Chorrochó;BA;1;0;1;3;1244;1;0;1;1;1;CNES 0198552 (Chorrochó - BA);-9.271721931203759;-39.189109973696134;ibge_malha;synthetic_municipality
2601907;2101;2907707;290770;Chorrochó;BA;1;0;1;3;1244;1;0;1;1;1;CNES 2601907 (Chorrochó - BA);-9.271721931203759;-39.189109973696134;ibge_malha;synthetic_municipality
2532522;2101;2907806;290780;Cícero Dantas;BA;1;1;1;3;1244;1;1;1;1;1;CNES 2532522 (Cícero Dantas - BA);-10.506948423498203;-38.45418406205975;ibge_malha;synthetic_municipality
9194541;2101;2907806;290780;Cícero Dantas;BA;1;1;1;1;2062;1;1;1;1;1;CNES 9194541 (Cícero Dantas - BA);-10.506948423498203;-38.45418406205975;ibge_malha;synthetic_municipality
2799812;2101;2907905;290790;Cipó;BA;1;1;1;3;1244;1;1;1;1;1;CNES 2799812 (Cipó - BA);-11.107772192807463;-38.52311655069172;ibge_malha;synthetic_municipality
2603071;2101;2908002;290800;Coaraci;BA;1;1;1;3;1244;1;1;1;1;1;CNES 2603071 (Coaraci - BA);-14.631828492474845;-39.59316780818809;ibge_malha;synthetic_municipality
2389584;2101;2908101;290810;Cocos;BA;1;1;1;3;1244;1;1;1;1;1;CNES 2389584 (Cocos - BA);-14.496939895863058;-45.21996121318031;ibge_malha;synthetic_municipality
3226816;2101;2908200;290820;Conceição da Feira;BA;1;1;0;3;1244;1;1;0;1;1;CNES 3226816 (Conceição da Feira - BA);-12.50487648275583;-38.999751217638824;ibge_malha;synthetic_municipality
2389592;2101;2908309;290830;Conceição do Almeida;BA;1;1;1;3;1244;1;1;1;1;1;CNES 2389592 (Conceição do Almeida - BA);-12.859901970857772;-39.245606501179125;ibge_malha;synthetic_municipality
2598183;2101;2908408;290840;Conceição do Coité;BA;1;1;1;1;3999;1;1;1;1;1;CNES 2598183 (Conceição do Coité - BA);-11.524130282330903;-39.249828440896245;ibge_malha;synthetic_municipality
2598205;2101;2908408;290840;Conceição do Coité;BA;1;1;1;1;3999;1;1;1;1;1;CNES 2598205 (Conceição do Coité - BA);-11.524130282330903;-39.249828440896245;ibge_malha;synthetic_municipality
2644800;2101;2908408;290840;Conceição do Coité;BA;1;1;1;1;2062;1;1;1;1;1;CNES 2644800 (Conceição do Coité - BA);-11.524130282330903;-39.249828440896245;ibge_malha;synthetic_municipality
2649764;2101;2908408;290840;Conceição do Coité;BA;1;1;1;1;2062;1;1;1;1;1;CNES 2649764 (Conceição do Coité - BA);-11.524130282330903;-39.249828440896245;ibge_malha;synthetic_municipality
2600609;2101;2908507;290850;Conceição do Jacuípe;BA;1;1;1;3;1244;1;1;1;1;1;CNES 2600609 (Conceição do Jacuípe - BA);-12.337191919160997;-38.74219935893993;ibge_malha;synthetic_municipality
2602601;2101;2908507;290850;Conceição do Jacuípe;BA;1;1;1;1;2062;1;1;1;1;1;CNES 2602601 (Conceição do Jacuípe - BA);-12.337191919160997;-38.74219935893993;ibge_malha;synthetic_municipality
2512149;2101;2908606;290860;Conde;BA;1;1;1;3;1244;1;1;1;1;1;CNES 2512149 (Conde - BA);-11.82773889122921;-37.677600468226736;ibge_malha;synthetic_municipality
2801566;2101;2908705;290870;Condeúba;BA;1;1;1;3;1244;1;1;1;1;1;CNES 2801566 (Condeúba - BA);-14.921494943950034;-42.05108554621921;ibge_malha;synthetic_municipality
2799731;2101;2908903;290890;Coração de Maria;BA;1;1;1;1;3999;1;1;1;1;1;CNES 2799731 (Coração de Maria - BA);-12.2106390969854;-38.783117851249926;ibge_malha;synthetic_municipality
5446333;2101;2909000;290900;Cordeiros;BA;1;1;1;3;1244;1;1;1;1;1;CNES 5446333 (Cordeiros - BA);-15.04095287467778;-41.908240625882215;ibge_malha;synthetic_municipality
2801558;2101;2909109;290910;Coribe;BA;1;1;1;3;1244;1;1;1;1;1;CNES 2801558 (Coribe - BA);-13.814328622058133;-44.37629156374719;ibge_malha;synthetic_municipality
2801574;2101;2909307;290930;Correntina;BA;1;1;1;3;1244;1;1;1;1;1;CNES 2801574 (Correntina - BA);-13.467238190616005;-45.39586485581497;ibge_malha;synthetic_municipality
2550407;2101;2909406;290940;Cotegipe;BA;1;1;1;3;1244;1;1;1;1;1;CNES 2550407 (Cotegipe - BA);-11.711104715910405;-44.328001275318876;ibge_malha;synthetic_municipality
2601753;2101;2909505;290950;Cravolândia;BA;1;1;1;3;1244;1;1;1;1;1;CNES 2601753 (Cravolândia - BA);-13.423999587540534;-39.784478625087154;ibge_malha;synthetic_municipality
2620421;2101;2909604;290960;Crisópolis;BA;1;1;1;3;1244;1;1;1;1;1;CNES 2620421 (Crisópolis - BA);-11.51807894774275;-38.172572577753094;ibge_malha;synthetic_municipality
7476523;2101;2909703;290970;Cristópolis;BA;1;1;1;3;1244;1;1;1;1;1;CNES 7476523 (Cristópolis - BA);-12.194000035414222;-44.25883735857395;ibge_malha;synthetic_municipality
2390043;2101;2909802;290980;Cruz das Almas;BA;1;1;1;1;3999;1;1;1;1;1;CNES 2390043 (Cruz das Almas - BA);-12.683034720375314;-39.11790809149674;ibge_malha;synthetic_municipality
4025032;2101;2909802;290980;Cruz das Almas;BA;1;1;1;1;2062;1;1;1;1;1;CNES 4025032 (Cruz das Almas - BA);-12.683034720375314;-39.11790809149674;ibge_malha;synthetic_municipality
2400901;2101;2909901;290990;Curaçá;BA;1;1;1;3;1244;1;1;1;1;1;CNES 2400901 (Curaçá - BA);-9.222477749820692;-39.65145467078604;ibge_malha;synthetic_municipality
2532549;2101;2910057;291005;Dias d'Ávila;BA;1;1;1;3;1244;1;1;1;1;1;CNES 2532549 (Dias d'Ávila - BA);-12.601267113121754;-38.28241700146382;ibge_malha;synthetic_municipality
2602563;2101;2910107;291010;Dom Basílio;BA;1;1;1;3;1244;1;1;1;1;1;CNES 2602563 (Dom Basílio - BA);-13.856313975144893;-41.712246750150406;ibge_malha;synthetic_municipality
4025121;2101;2910305;291030;Elísio Medrado;BA;1;1;1;3;1244;1;1;1;1;1;CNES 4025121 (Elísio Medrado - BA);-12.934874491654861;-39.52633452846622;ibge_malha;synthetic_municipality
4025148;2101;2910404;291040;Encruzilhada;BA;1;1;1;3;1244;1;1;1;1;1;CNES 4025148 (Encruzilhada - BA);-15.594915579901064;-40.999905158119084;ibge_malha;synthetic_municipality
2620464;2101;2910503;291050;Entre Rios;BA;1;1;1;3;1244;1;1;1;1;1;CNES 2620464 (Entre Rios - BA);-12.063566627042787;-38.04827980309845;ibge_malha;synthetic_municipality
2627183;2101;2910602;291060;Esplanada;BA;1;1;1;1;3999;1;1;1;1;1;CNES 2627183 (Esplanada - BA);-11.931268127404532;-37.88535196861731;ibge_malha;synthetic_municipality
2401231;2101;2910701;291070;Euclides da Cunha;BA;1;1;1;1;3999;1;1;1;1;1;CNES 2401231 (Euclides da Cunha - BA);-10.46419719091143;-38.91514007140325;ibge_malha;synthetic_municipality
2507447;2101;2910727;291072;Eunápolis;BA;1;1;1;3;1244;1;1;1;1;1;CNES 2507447 (Eunápolis - BA);-16.298758197647444;-39.606133004208274;ibge_malha;synthetic_municipality
2507455;2101;2910727;291072;Eunápolis;BA;1;1;1;1;2062;1;1;1;1;1;CNES 2507455 (Eunápolis - BA);-16.298758197647444;-39.606133004208274;ibge_malha;synthetic_municipality
2556316;2101;2910727;291072;Eunápolis;BA;1;1;0;1;2062;1;1;0;1;1;CNES 2556316 (Eunápolis - BA);-16.298758197647444;-39.606133004208274;ibge_malha;synthetic_municipality
2556510;2101;2910727;291072;Eunápolis;BA;1;1;1;3;1244;1;1;1;1;1;CNES 2556510 (Eunápolis - BA);-16.298758197647444;-39.606133004208274;ibge_malha;synthetic_municipality
3017826;2101;2910727;291072;Eunápolis;BA;1;1;0;1;2062;1;1;0;1;1;CNES 3017826 (Eunápolis - BA);-16.298758197647444;-39.606133004208274;ibge_malha;synthetic_municipality
9994041;2101;2910727;291072;Eunápolis;BA;1;1;0;1;2062;1;1;0;1;1;CNES 9994041 (Eunápolis - BA);-16.298758197647444;-39.606133004208274;ibge_malha;synthetic_municipality
3013359;2101;2910776;291077;Feira da Mata;BA;1;1;1;3;1244;1;1;1;1;1;CNES 3013359 (Feira da Mata - BA);-14.131744781508255;-44.23223174673453;ibge_malha;synthetic_municipality
0180505;2101;2910800;291080;Feira de Santana;BA;1;0;1;3;1244;1;0;1;1;1;CNES 0180505 (Feira de Santana - BA);-12.193075237687639;-39.03399304707189;ibge_malha;synthetic_municipality
2402025;2101;2910800;291080;Feira de Santana;BA;1;1;1;1;2062;1;1;1;1;1;CNES 2402025 (Feira de Santana - BA);-12.193075237687639;-39.03399304707189;ibge_malha;synthetic_municipality
2402041;2101;2910800;291080;Feira de Santana;BA;1;1;1;1;2062;1;1;1;1;1;CNES 2402041 (Feira de Santana - BA);-12.193075237687639;-39.03399304707189;ibge_malha;synthetic_municipality
2601680;2101;2910800;291080;Feira de Santana;BA;1;1;1;1;3999;1;1;1;1;1;CNES 2601680 (Feira de Santana - BA);-12.193075237687639;-39.03399304707189;ibge_malha;synthetic_municipality
2602679;2101;2910800;291080;Feira de Santana;BA;1;1;0;1;2062;1;1;0;1;1;CNES 2602679 (Feira de Santana - BA);-12.193075237687639;-39.03399304707189;ibge_malha;synthetic_municipality
2602857;2101;2910800;291080;Feira de Santana;BA;1;1;1;1;2062;1;1;1;1;1;CNES 2602857 (Feira de Santana - BA);-12.193075237687639;-39.03399304707189;ibge_malha;synthetic_municipality
2602938;2101;2910800;291080;Feira de Santana;BA;1;1;1;1;2062;1;1;1;1;1;CNES 2602938 (Feira de Santana - BA);-12.193075237687639;-39.03399304707189;ibge_malha;synthetic_municipality
2603098;2101;2910800;291080;Feira de Santana;BA;1;1;0;1;2062;1;1;0;1;1;CNES 2603098 (Feira de Santana - BA);-12.193075237687639;-39.03399304707189;ibge_malha;synthetic_municipality
2799278;2101;2910800;291080;Feira de Santana;BA;1;1;1;3;1155;1;1;1;1;1;CNES 2799278 (Feira de Santana - BA);-12.193075237687639;-39.03399304707189;ibge_malha;synthetic_municipality
2799758;2101;2910800;291080;Feira de Santana;BA;1;1;1;3;1023;1;1;1;1;1;CNES 2799758 (Feira de Santana - BA);-12.193075237687639;-39.03399304707189;ibge_malha;synthetic_municipality
2802031;2101;2910800;291080;Feira de Santana;BA;1;1;1;1;2062;1;1;1;1;1;CNES 2802031 (Feira de Santana - BA);-12.193075237687639;-39.03399304707189;ibge_malha;synthetic_municipality
3021823;2101;2910800;291080;Feira de Santana;BA;1;1;1;1;2062;1;1;1;1;1;CNES 3021823 (Feira de Santana - BA);-12.193075237687639;-39.03399304707189;ibge_malha;synthetic_municipality
3049469;2101;2910800;291080;Feira de Santana;BA;1;1;1;1;2062;1;1;1;1;1;CNES 3049469 (Feira de Santana - BA);-12.193075237687639;-39.03399304707189;ibge_malha;synthetic_municipality
3050637;2101;2910800;291080;Feira de Santana;BA;1;1;1;1;2062;1;1;1;1;1;CNES 3050637 (Feira de Santana - BA);-12.193075237687639;-39.03399304707189;ibge_malha;synthetic_municipality
3060098;2101;2910800;291080;Feira de Santana;BA;1;1;1;1;2062;1;1;1;1;1;CNES 3060098 (Feira de Santana - BA);-12.193075237687639;-39.03399304707189;ibge_malha;synthetic_municipality
3060918;2101;2910800;291080;Feira de Santana;BA;1;1;1;1;2062;1;1;1;1;1;CNES 3060918 (Feira de Santana - BA);-12.193075237687639;-39.03399304707189;ibge_malha;synthetic_municipality
3220214;2101;2910800;291080;Feira de Santana;BA;1;1;1;1;2062;1;1;1;1;1;CNES 3220214 (Feira de Santana - BA);-12.193075237687639;-39.03399304707189;ibge_malha;synthetic_municipality
3745325;2101;2910800;291080;Feira de Santana;BA;1;1;1;1;2062;1;1;1;1;1;CNES 3745325 (Feira de Santana - BA);-12.193075237687639;-39.03399304707189;ibge_malha;synthetic_municipality
4025423;2101;2910800;291080;Feira de Santana;BA;1;1;1;1;2062;1;1;1;1;1;CNES 4025423 (Feira de Santana - BA);-12.193075237687639;-39.03399304707189;ibge_malha;synthetic_municipality
5398398;2101;2910800;291080;Feira de Santana;BA;1;1;1;1;2305;1;1;1;1;1;CNES 5398398 (Feira de Santana - BA);-12.193075237687639;-39.03399304707189;ibge_malha;synthetic_municipality
6058345;2101;2910800;291080;Feira de Santana;BA;1;1;0;1;2240;1;1;0;1;1;CNES 6058345 (Feira de Santana - BA);-12.193075237687639;-39.03399304707189;ibge_malha;synthetic_municipality
6602533;2101;2910800;291080;Feira de Santana;BA;1;1;1;3;1023;1;1;1;1;1;CNES 6602533 (Feira de Santana - BA);-12.193075237687639;-39.03399304707189;ibge_malha;synthetic_municipality
9429506;2101;2910800;291080;Feira de Santana;BA;1;1;1;1;2062;1;1;1;1;1;CNES 9429506 (Feira de Santana - BA);-12.193075237687639;-39.03399304707189;ibge_malha;synthetic_municipality
9470832;2101;2910800;291080;Feira de Santana;BA;1;0;1;3;1244;1;0;1;1;1;CNES 9470832 (Feira de Santana - BA);-12.193075237687639;-39.03399304707189;ibge_malha;synthetic_municipality
2401665;2101;2910859;291085;Filadélfia;BA;1;1;1;3;1244;1;1;1;1;1;CNES 2401665 (Filadélfia - BA);-10.72322273959842;-40.13692035719096;ibge_malha;synthetic_municipality
2660210;2101;2911105;291110;Formosa do Rio Preto;BA;1;1;1;3;1244;1;1;1;1;1;CNES 2660210 (Formosa do Rio Preto - BA);-11.014211810556285;-45.745288825382474;ibge_malha;synthetic_municipality
0260568;2101;2911204;291120;Gandu;BA;1;0;1;3;1244;1;0;1;1;1;CNES 0260568 (Gandu - BA);-13.788697830349662;-39.48269172860427;ibge_malha;synthetic_municipality
2412381;2101;2911204;291120;Gandu;BA;1;1;1;3;1244;1;1;1;1;1;CNES 2412381 (Gandu - BA);-13.788697830349662;-39.48269172860427;ibge_malha;synthetic_municipality
2402394;2101;2911303;291130;Gentio do Ouro;BA;1;1;1;3;1244;1;1;1;1;1;CNES 2402394 (Gentio do Ouro - BA);-11.41025069607637;-42.6052173677615;ibge_malha;synthetic_municipality
3023036;2101;2911501;291150;Gongogi;BA;1;1;1;3;1244;1;1;1;1;1;CNES 3023036 (Gongogi - BA);-14.280581628137995;-39.58192984845312;ibge_malha;synthetic_municipality
2823160;2101;2911600;291160;Governador Mangabeira;BA;1;1;0;3;1244;1;1;0;1;1;CNES 2823160 (Governador Mangabeira - BA);-12.58338044613177;-39.072353973407616;ibge_malha;synthetic_municipality
2412241;2101;2911709;291170;Guanambi;BA;1;1;1;1;2062;1;1;1;1;1;CNES 2412241 (Guanambi - BA);-14.203962191949062;-42.82003299759356;ibge_malha;synthetic_municipality
2804034;2101;2911709;291170;Guanambi;BA;1;1;1;3;1023;1;1;1;1;1;CNES 2804034 (Guanambi - BA);-14.203962191949062;-42.82003299759356;ibge_malha;synthetic_municipality
2816881;2101;2911709;291170;Guanambi;BA;1;1;1;3;1244;1;1;1;1;1;CNES 2816881 (Guanambi - BA);-14.203962191949062;-42.82003299759356;ibge_malha;synthetic_municipality
6444954;2101;2911709;291170;Guanambi;BA;1;1;1;1;2062;1;1;1;1;1;CNES 6444954 (Guanambi - BA);-14.203962191949062;-42.82003299759356;ibge_malha;synthetic_municipality
2412276;2101;2911808;291180;Guaratinga;BA;1;1;1;3;1244;1;1;1;1;1;CNES 2412276 (Guaratinga - BA);-16.55319719364636;-39.93771213942577;ibge_malha;synthetic_municipality
2772671;2101;2911907;291190;Iaçu;BA;1;1;1;3;1244;1;1;1;1;1;CNES 2772671 (Iaçu - BA);-12.813531435871758;-40.11309103684837;ibge_malha;synthetic_municipality
2412551;2101;2912004;291200;Ibiassucê;BA;1;1;1;3;1244;1;1;1;1;1;CNES 2412551 (Ibiassucê - BA);-14.29153689224932;-42.30538281112407;ibge_malha;synthetic_municipality
2602105;2101;2912103;291210;Ibicaraí;BA;1;1;1;3;1244;1;1;1;1;1;CNES 2602105 (Ibicaraí - BA);-14.848755877565846;-39.56846591819995;ibge_malha;synthetic_municipality
2412845;2101;2912301;291230;Ibicuí;BA;1;1;1;3;1244;1;1;1;1;1;CNES 2412845 (Ibicuí - BA);-14.641905184650145;-39.86378264385229;ibge_malha;synthetic_municipality
9441743;2101;2912400;291240;Ibipeba;BA;1;1;1;3;1244;1;1;1;1;1;CNES 9441743 (Ibipeba - BA);-11.570752844691091;-42.18177731511103;ibge_malha;synthetic_municipality
5020743;2101;2912509;291250;Ibipitanga;BA;1;1;1;3;1244;1;1;1;1;1;CNES 5020743 (Ibipitanga - BA);-12.859343197713537;-42.35969494992392;ibge_malha;synthetic_municipality
9183345;2101;2912608;291260;Ibiquera;BA;1;0;1;3;1244;1;0;1;1;1;CNES 9183345 (Ibiquera - BA);-12.60317615064955;-40.88477302127652;ibge_malha;synthetic_municipality
2413043;2101;2912707;291270;Ibirapitanga;BA;1;1;1;3;1244;1;1;1;1;1;CNES 2413043 (Ibirapitanga - BA);-14.060711260500138;-39.43567913369337;ibge_malha;synthetic_municipality
2659999;2101;2912806;291280;Ibirapuã;BA;1;1;1;3;1244;1;1;1;1;1;CNES 2659999 (Ibirapuã - BA);-17.74301165560465;-40.01278256031191;ibge_malha;synthetic_municipality
2413051;2101;2912905;291290;Ibirataia;BA;1;1;1;1;3069;1;1;1;1;1;CNES 2413051 (Ibirataia - BA);-13.97597349259088;-39.6261688984008;ibge_malha;synthetic_municipality
2602172;2101;2912905;291290;Ibirataia;BA;1;1;1;1;3069;1;1;1;1;1;CNES 2602172 (Ibirataia - BA);-13.97597349259088;-39.6261688984008;ibge_malha;synthetic_municipality
2412713;2101;2913002;291300;Ibitiara;BA;1;1;1;1;3999;1;1;1;1;1;CNES 2412713 (Ibitiara - BA);-12.575889466611388;-42.282694404834665;ibge_malha;synthetic_municipality
2601397;2101;2913101;291310;Ibititá;BA;1;1;1;1;2240;1;1;1;1;1;CNES 2601397 (Ibititá - BA);-11.57905578780786;-41.915133263421154;ibge_malha;synthetic_municipality
2602121;2101;2913200;291320;Ibotirama;BA;1;1;1;3;1244;1;1;1;1;1;CNES 2602121 (Ibotirama - BA);-12.038559029761377;-43.20476508233292;ibge_malha;synthetic_municipality
4026233;2101;2913309;291330;Ichu;BA;1;1;1;3;1244;1;1;1;1;1;CNES 4026233 (Ichu - BA);-11.731509531513407;-39.15233708204475;ibge_malha;synthetic_municipality
2627256;2101;2913408;291340;Igaporã;BA;1;1;1;3;1244;1;1;1;1;1;CNES 2627256 (Igaporã - BA);-13.863083563309145;-42.70413697028588;ibge_malha;synthetic_municipality
2413299;2101;2913457;291345;Igrapiúna;BA;1;1;1;3;1244;1;1;1;1;1;CNES 2413299 (Igrapiúna - BA);-13.870938273355236;-39.20552820891232;ibge_malha;synthetic_municipality
2413450;2101;2913507;291350;Iguaí;BA;1;1;1;1;3999;1;1;1;1;1;CNES 2413450 (Iguaí - BA);-14.632368833911736;-40.06587809808815;ibge_malha;synthetic_municipality
2413469;2101;2913507;291350;Iguaí;BA;1;1;1;1;3999;1;1;1;1;1;CNES 2413469 (Iguaí - BA);-14.632368833911736;-40.06587809808815;ibge_malha;synthetic_municipality
0131709;2101;2913606;291360;Ilhéus;BA;1;0;1;3;1244;1;0;1;1;1;CNES 0131709 (Ilhéus - BA);-14.752735791998598;-39.1918073761724;ibge_malha;synthetic_municipality
2415933;2101;2913606;291360;Ilhéus;BA;1;1;1;1;2062;1;1;1;1;1;CNES 2415933 (Ilhéus - BA);-14.752735791998598;-39.1918073761724;ibge_malha;synthetic_municipality
2706563;2101;2913606;291360;Ilhéus;BA;1;1;1;1;2062;1;1;1;1;1;CNES 2706563 (Ilhéus - BA);-14.752735791998598;-39.1918073761724;ibge_malha;synthetic_municipality
2802112;2101;2913606;291360;Ilhéus;BA;1;1;1;1;3999;1;1;1;1;1;CNES 2802112 (Ilhéus - BA);-14.752735791998598;-39.1918073761724;ibge_malha;synthetic_municipality
3906787;2101;2913606;291360;Ilhéus;BA;1;1;1;1;2062;1;1;1;1;1;CNES 3906787 (Ilhéus - BA);-14.752735791998598;-39.1918073761724;ibge_malha;synthetic_municipality
6043607;2101;2913606;291360;Ilhéus;BA;1;1;1;1;2062;1;1;1;1;1;CNES 6043607 (Ilhéus - BA);-14.752735791998598;-39.1918073761724;ibge_malha;synthetic_municipality
6671993;2101;2913606;291360;Ilhéus;BA;1;1;1;1;2062;1;1;1;1;1;CNES 6671993 (Ilhéus - BA);-14.752735791998598;-39.1918073761724;ibge_malha;synthetic_municipality
7300565;2101;2913606;291360;Ilhéus;BA;1;1;0;1;2305;1;1;0;1;1;CNES 7300565 (Ilhéus - BA);-14.752735791998598;-39.1918073761724;ibge_malha;synthetic_municipality
7518846;2101;2913606;291360;Ilhéus;BA;1;1;1;1;2062;1;1;1;1;1;CNES 7518846 (Ilhéus - BA);-14.752735791998598;-39.1918073761724;ibge_malha;synthetic_municipality
9107959;2101;2913606;291360;Ilhéus;BA;1;1;0;1;2062;1;1;0;1;1;CNES 9107959 (Ilhéus - BA);-14.752735791998598;-39.1918073761724;ibge_malha;synthetic_municipality
9137009;2101;2913606;291360;Ilhéus;BA;1;1;0;1;2062;1;1;0;1;1;CNES 9137009 (Ilhéus - BA);-14.752735791998598;-39.1918073761724;ibge_malha;synthetic_municipality
9388133;2101;2913606;291360;Ilhéus;BA;1;1;1;3;1023;1;1;1;1;1;CNES 9388133 (Ilhéus - BA);-14.752735791998598;-39.1918073761724;ibge_malha;synthetic_municipality
2653230;2101;2913705;291370;Inhambupe;BA;1;1;1;3;1244;1;1;1;1;1;CNES 2653230 (Inhambupe - BA);-11.80510394179814;-38.4038134716166;ibge_malha;synthetic_municipality
2660253;2101;2913804;291380;Ipecaetá;BA;1;1;1;3;1244;1;1;1;1;1;CNES 2660253 (Ipecaetá - BA);-12.307410054454198;-39.32697109485374;ibge_malha;synthetic_municipality
2603055;2101;2913903;291390;Ipiaú;BA;1;1;1;3;1023;1;1;1;1;1;CNES 2603055 (Ipiaú - BA);-14.054892387412629;-39.72649684172115;ibge_malha;synthetic_municipality
2819139;2101;2913903;291390;Ipiaú;BA;1;1;1;1;3999;1;1;1;1;1;CNES 2819139 (Ipiaú - BA);-14.054892387412629;-39.72649684172115;ibge_malha;synthetic_municipality
4026640;2101;2914000;291400;Ipirá;BA;1;1;1;3;1244;1;1;1;1;1;CNES 4026640 (Ipirá - BA);-12.211241699237446;-39.77715173214489;ibge_malha;synthetic_municipality
9026908;2101;2914000;291400;Ipirá;BA;1;0;1;3;1244;1;0;1;1;1;CNES 9026908 (Ipirá - BA);-12.211241699237446;-39.77715173214489;ibge_malha;synthetic_municipality
4026675;2101;2914109;291410;Ipupiara;BA;1;1;1;3;1244;1;1;1;1;1;CNES 4026675 (Ipupiara - BA);-11.835881692170918;-42.50183240090871;ibge_malha;synthetic_municipality
2413663;2101;2914208;291420;Irajuba;BA;1;1;1;3;1244;1;1;1;1;1;CNES 2413663 (Irajuba - BA);-13.230714251811055;-40.052292311364624;ibge_malha;synthetic_municipality
4026756;2101;2914307;291430;Iramaia;BA;1;1;1;3;1244;1;1;1;1;1;CNES 4026756 (Iramaia - BA);-13.468634880254243;-40.92082723279092;ibge_malha;synthetic_municipality
4026772;2101;2914406;291440;Iraquara;BA;1;1;1;1;2062;1;1;1;1;1;CNES 4026772 (Iraquara - BA);-12.248346951533568;-41.58309972110815;ibge_malha;synthetic_municipality
2413671;2101;2914505;291450;Irará;BA;1;1;1;3;1244;1;1;1;1;1;CNES 2413671 (Irará - BA);-12.04642289975679;-38.75388479699997;ibge_malha;synthetic_municipality
2532638;2101;2914604;291460;Irecê;BA;1;0;1;3;1244;1;0;1;1;1;CNES 2532638 (Irecê - BA);-11.309447074193164;-41.838973556781305;ibge_malha;synthetic_municipality
2532751;2101;2914604;291460;Irecê;BA;1;1;1;1;2305;1;1;1;1;1;CNES 2532751 (Irecê - BA);-11.309447074193164;-41.838973556781305;ibge_malha;synthetic_municipality
2533162;2101;2914604;291460;Irecê;BA;1;1;1;1;2240;1;1;1;1;1;CNES 2533162 (Irecê - BA);-11.309447074193164;-41.838973556781305;ibge_malha;synthetic_municipality
2533219;2101;2914604;291460;Irecê;BA;1;1;1;1;2062;1;1;1;1;1;CNES 2533219 (Irecê - BA);-11.309447074193164;-41.838973556781305;ibge_malha;synthetic_municipality
3208508;2101;2914604;291460;Irecê;BA;1;1;1;1;2062;1;1;1;1;1;CNES 3208508 (Irecê - BA);-11.309447074193164;-41.838973556781305;ibge_malha;synthetic_municipality
4026896;2101;2914604;291460;Irecê;BA;1;1;1;3;1023;1;1;1;1;1;CNES 4026896 (Irecê - BA);-11.309447074193164;-41.838973556781305;ibge_malha;synthetic_municipality
2802015;2101;2914653;291465;Itabela;BA;1;1;1;3;1244;1;1;1;1;1;CNES 2802015 (Itabela - BA);-16.66291149418188;-39.551340463456114;ibge_malha;synthetic_municipality
2470098;2101;2914703;291470;Itaberaba;BA;1;1;1;3;1244;1;1;1;1;1;CNES 2470098 (Itaberaba - BA);-12.49909452361293;-40.26226495796786;ibge_malha;synthetic_municipality
3245500;2101;2914703;291470;Itaberaba;BA;1;1;1;1;2062;1;1;1;1;1;CNES 3245500 (Itaberaba - BA);-12.49909452361293;-40.26226495796786;ibge_malha;synthetic_municipality
9054162;2101;2914703;291470;Itaberaba;BA;1;0;1;3;1244;1;0;1;1;1;CNES 9054162 (Itaberaba - BA);-12.49909452361293;-40.26226495796786;ibge_malha;synthetic_municipality
2385171;2101;2914802;291480;Itabuna;BA;1;1;1;1;1155;1;1;1;1;1;CNES 2385171 (Itabuna - BA);-14.851653446510959;-39.31281050579163;ibge_malha;synthetic_municipality
2444828;2101;2914802;291480;Itabuna;BA;1;1;1;1;3069;1;1;1;1;1;CNES 2444828 (Itabuna - BA);-14.851653446510959;-39.31281050579163;ibge_malha;synthetic_municipality
2470357;2101;2914802;291480;Itabuna;BA;1;1;0;1;2062;1;1;0;1;1;CNES 2470357 (Itabuna - BA);-14.851653446510959;-39.31281050579163;ibge_malha;synthetic_municipality
2698218;2101;2914802;291480;Itabuna;BA;1;1;1;1;2062;1;1;1;1;1;CNES 2698218 (Itabuna - BA);-14.851653446510959;-39.31281050579163;ibge_malha;synthetic_municipality
2526557;2101;2914901;291490;Itacaré;BA;1;1;1;1;3999;1;1;1;1;1;CNES 2526557 (Itacaré - BA);-14.36208845263537;-39.157801608095106;ibge_malha;synthetic_municipality
5313287;2101;2914901;291490;Itacaré;BA;1;1;1;3;1244;1;1;1;1;1;CNES 5313287 (Itacaré - BA);-14.36208845263537;-39.157801608095106;ibge_malha;synthetic_municipality
2413507;2101;2915007;291500;Itaeté;BA;1;1;1;3;1244;1;1;1;1;1;CNES 2413507 (Itaeté - BA);-13.091767454577202;-41.04041874007448;ibge_malha;synthetic_municipality
2601761;2101;2915106;291510;Itagi;BA;1;1;1;3;1244;1;1;1;1;1;CNES 2601761 (Itagi - BA);-14.162266285362195;-40.024854595929526;ibge_malha;synthetic_municipality
2674548;2101;2915205;291520;Itagibá;BA;1;1;1;1;2062;1;1;1;1;1;CNES 2674548 (Itagibá - BA);-14.25256058612734;-39.83045893980164;ibge_malha;synthetic_municipality
3043185;2101;2915304;291530;Itagimirim;BA;1;1;1;3;1244;1;1;1;1;1;CNES 3043185 (Itagimirim - BA);-16.096332710530913;-39.73799887619492;ibge_malha;synthetic_municipality
2414058;2101;2915353;291535;Itaguaçu da Bahia;BA;1;1;1;3;1244;1;1;1;1;1;CNES 2414058 (Itaguaçu da Bahia - BA);-10.769725374575177;-42.23898651533871;ibge_malha;synthetic_municipality
2414074;2101;2915403;291540;Itaju do Colônia;BA;1;1;1;3;1244;1;1;1;1;1;CNES 2414074 (Itaju do Colônia - BA);-15.148334290255312;-39.73164371892052;ibge_malha;synthetic_municipality
2602814;2101;2915502;291550;Itajuípe;BA;1;1;1;1;3999;1;1;1;1;1;CNES 2602814 (Itajuípe - BA);-14.6715239655383;-39.44490452147966;ibge_malha;synthetic_municipality
2556847;2101;2915601;291560;Itamaraju;BA;1;1;1;3;1244;1;1;1;1;1;CNES 2556847 (Itamaraju - BA);-17.00876159800827;-39.76482146137934;ibge_malha;synthetic_municipality
2414465;2101;2915809;291580;Itambé;BA;1;1;1;1;3999;1;1;1;1;1;CNES 2414465 (Itambé - BA);-15.158181259691444;-40.462237120891324;ibge_malha;synthetic_municipality
2601591;2101;2916005;291600;Itanhém;BA;1;1;1;1;3999;1;1;1;1;1;CNES 2601591 (Itanhém - BA);-17.115415936416856;-40.378346597635826;ibge_malha;synthetic_municipality
2602083;2101;2916104;291610;Itaparica;BA;1;1;1;3;1023;1;1;1;1;1;CNES 2602083 (Itaparica - BA);-12.892217877838604;-38.6549763934048;ibge_malha;synthetic_municipality
2414651;2101;2916302;291630;Itapebi;BA;1;1;1;3;1244;1;1;1;1;1;CNES 2414651 (Itapebi - BA);-15.912110069690513;-39.65315164139614;ibge_malha;synthetic_municipality
2415739;2101;2916401;291640;Itapetinga;BA;1;1;1;1;2062;1;1;1;1;1;CNES 2415739 (Itapetinga - BA);-15.299279552659009;-40.057518944016266;ibge_malha;synthetic_municipality
2417189;2101;2916401;291640;Itapetinga;BA;1;1;1;1;3069;1;1;1;1;1;CNES 2417189 (Itapetinga - BA);-15.299279552659009;-40.057518944016266;ibge_malha;synthetic_municipality
2799782;2101;2916500;291650;Itapicuru;BA;1;1;1;3;1244;1;1;1;1;1;CNES 2799782 (Itapicuru - BA);-11.192015334079914;-38.19422046525491;ibge_malha;synthetic_municipality
5352541;2101;2916500;291650;Itapicuru;BA;1;0;1;3;1244;1;0;1;1;1;CNES 5352541 (Itapicuru - BA);-11.192015334079914;-38.19422046525491;ibge_malha;synthetic_municipality
2649985;2101;2916609;291660;Itapitanga;BA;1;1;1;3;1244;1;1;1;1;1;CNES 2649985 (Itapitanga - BA);-14.472911732015055;-39.619970774145166;ibge_malha;synthetic_municipality
2602881;2101;2916708;291670;Itaquara;BA;1;1;1;3;1244;1;1;1;1;1;CNES 2602881 (Itaquara - BA);-13.448886885797327;-39.89845989921683;ibge_malha;synthetic_municipality
2417456;2101;2916807;291680;Itarantim;BA;1;1;1;3;1244;1;1;1;1;1;CNES 2417456 (Itarantim - BA);-15.697747552209199;-40.04915089553245;ibge_malha;synthetic_municipality
2444704;2101;2916856;291685;Itatim;BA;1;1;1;3;1244;1;1;1;1;1;CNES 2444704 (Itatim - BA);-12.712849282735737;-39.73469306685212;ibge_malha;synthetic_municipality
2423928;2101;2916906;291690;Itiruçu;BA;1;1;1;3;1244;1;1;1;1;1;CNES 2423928 (Itiruçu - BA);-13.487638776546175;-40.15303744197886;ibge_malha;synthetic_municipality
2423936;2101;2917003;291700;Itiúba;BA;1;1;1;3;1244;1;1;1;1;1;CNES 2423936 (Itiúba - BA);-10.731375843464294;-39.84537014378323;ibge_malha;synthetic_municipality
2445204;2101;2917102;291710;Itororó;BA;1;1;1;1;3999;1;1;1;1;1;CNES 2445204 (Itororó - BA);-15.048839288428443;-40.00711787206208;ibge_malha;synthetic_municipality
2445247;2101;2917201;291720;Ituaçu;BA;1;1;1;3;1244;1;1;1;1;1;CNES 2445247 (Ituaçu - BA);-13.837110058469367;-41.390004803578535;ibge_malha;synthetic_municipality
0225568;2101;2917300;291730;Ituberá;BA;1;0;1;3;1244;1;0;1;1;1;CNES 0225568 (Ituberá - BA);-13.74931777498125;-39.15292667244918;ibge_malha;synthetic_municipality
2445352;2101;2917300;291730;Ituberá;BA;1;1;1;3;1244;1;1;1;1;1;CNES 2445352 (Ituberá - BA);-13.74931777498125;-39.15292667244918;ibge_malha;synthetic_municipality
6670385;2101;2917334;291733;Iuiu;BA;1;1;1;3;1244;1;1;1;1;1;CNES 6670385 (Iuiu - BA);-14.466259506660666;-43.54295421188956;ibge_malha;synthetic_municipality
2801582;2101;2917359;291735;Jaborandi;BA;1;1;1;3;1244;1;1;1;1;1;CNES 2801582 (Jaborandi - BA);-14.031890839051776;-45.44045026265262;ibge_malha;synthetic_municipality
2466694;2101;2917409;291740;Jacaraci;BA;1;1;1;3;1244;1;1;1;1;1;CNES 2466694 (Jacaraci - BA);-14.784839636202332;-42.322277406484744;ibge_malha;synthetic_municipality
2467372;2101;2917508;291750;Jacobina;BA;1;1;1;3;1244;1;1;1;1;1;CNES 2467372 (Jacobina - BA);-11.134918339404289;-40.56854888880693;ibge_malha;synthetic_municipality
2470748;2101;2917508;291750;Jacobina;BA;1;1;1;3;1244;1;1;1;1;1;CNES 2470748 (Jacobina - BA);-11.134918339404289;-40.56854888880693;ibge_malha;synthetic_municipality
9532994;2101;2917508;291750;Jacobina;BA;1;1;1;1;2062;1;1;1;1;1;CNES 9532994 (Jacobina - BA);-11.134918339404289;-40.56854888880693;ibge_malha;synthetic_municipality
2802252;2101;2917607;291760;Jaguaquara;BA;1;1;1;3;1244;1;1;1;1;1;CNES 2802252 (Jaguaquara - BA);-13.553863838186185;-39.956976170356775;ibge_malha;synthetic_municipality
9216413;2101;2917607;291760;Jaguaquara;BA;1;1;1;1;2062;1;1;1;1;1;CNES 9216413 (Jaguaquara - BA);-13.553863838186185;-39.956976170356775;ibge_malha;synthetic_municipality
2601400;2101;2917706;291770;Jaguarari;BA;1;1;1;3;1244;1;1;1;1;1;CNES 2601400 (Jaguarari - BA);-10.042613567255367;-40.068342182701386;ibge_malha;synthetic_municipality
2400359;2101;2918001;291800;Jequié;BA;1;1;1;1;2062;1;1;1;1;1;CNES 2400359 (Jequié - BA);-13.877602178017865;-40.146129730752854;ibge_malha;synthetic_municipality
2400693;2101;2918001;291800;Jequié;BA;1;1;1;3;1023;1;1;1;1;1;CNES 2400693 (Jequié - BA);-13.877602178017865;-40.146129730752854;ibge_malha;synthetic_municipality
2444801;2101;2918001;291800;Jequié;BA;1;1;0;1;2062;1;1;0;1;1;CNES 2444801 (Jequié - BA);-13.877602178017865;-40.146129730752854;ibge_malha;synthetic_municipality
2494930;2101;2918001;291800;Jequié;BA;1;1;1;1;3999;1;1;1;1;1;CNES 2494930 (Jequié - BA);-13.877602178017865;-40.146129730752854;ibge_malha;synthetic_municipality
2494949;2101;2918001;291800;Jequié;BA;1;1;1;1;2062;1;1;1;1;1;CNES 2494949 (Jequié - BA);-13.877602178017865;-40.146129730752854;ibge_malha;synthetic_municipality
2550555;2101;2918001;291800;Jequié;BA;1;1;1;1;2054;1;1;1;1;1;CNES 2550555 (Jequié - BA);-13.877602178017865;-40.146129730752854;ibge_malha;synthetic_municipality
6923356;2101;2918001;291800;Jequié;BA;1;1;1;1;3069;1;1;1;1;1;CNES 6923356 (Jequié - BA);-13.877602178017865;-40.146129730752854;ibge_malha;synthetic_municipality
9632514;2101;2918001;291800;Jequié;BA;1;1;1;1;2062;1;1;1;1;1;CNES 9632514 (Jequié - BA);-13.877602178017865;-40.146129730752854;ibge_malha;synthetic_municipality
2304767;2101;2918100;291810;Jeremoabo;BA;1;1;1;3;1244;1;1;1;1;1;CNES 2304767 (Jeremoabo - BA);-9.981429933191482;-38.49929997741715;ibge_malha;synthetic_municipality
2483408;2101;2918209;291820;Jiquiriçá;BA;1;1;1;3;1244;1;1;1;1;1;CNES 2483408 (Jiquiriçá - BA);-13.324476389463165;-39.584656369167654;ibge_malha;synthetic_municipality
5110025;2101;2918308;291830;Jitaúna;BA;1;1;1;3;1244;1;1;1;1;1;CNES 5110025 (Jitaúna - BA);-13.957969826514057;-39.86666738195746;ibge_malha;synthetic_municipality
2483424;2101;2918357;291835;João Dourado;BA;1;1;1;3;1244;1;1;1;1;1;CNES 2483424 (João Dourado - BA);-11.220157921657416;-41.567206682644475;ibge_malha;synthetic_municipality
2423960;2101;2918407;291840;Juazeiro;BA;1;1;1;1;2062;1;1;1;1;1;CNES 2423960 (Juazeiro - BA);-9.556880886845322;-40.27466197156362;ibge_malha;synthetic_municipality
2520524;2101;2918407;291840;Juazeiro;BA;1;1;1;3;1244;1;1;1;1;1;CNES 2520524 (Juazeiro - BA);-9.556880886845322;-40.27466197156362;ibge_malha;synthetic_municipality
2557509;2101;2918407;291840;Juazeiro;BA;1;1;1;1;3999;1;1;1;1;1;CNES 2557509 (Juazeiro - BA);-9.556880886845322;-40.27466197156362;ibge_malha;synthetic_municipality
3202143;2101;2918407;291840;Juazeiro;BA;1;1;1;1;2240;1;1;1;1;1;CNES 3202143 (Juazeiro - BA);-9.556880886845322;-40.27466197156362;ibge_malha;synthetic_municipality
4028155;2101;2918407;291840;Juazeiro;BA;1;1;1;3;1023;1;1;1;1;1;CNES 4028155 (Juazeiro - BA);-9.556880886845322;-40.27466197156362;ibge_malha;synthetic_municipality
6579744;2101;2918407;291840;Juazeiro;BA;1;1;1;1;3999;1;1;1;1;1;CNES 6579744 (Juazeiro - BA);-9.556880886845322;-40.27466197156362;ibge_malha;synthetic_municipality
9162585;2101;2918407;291840;Juazeiro;BA;1;1;1;1;3999;1;1;1;1;1;CNES 9162585 (Juazeiro - BA);-9.556880886845322;-40.27466197156362;ibge_malha;synthetic_municipality
9436855;2101;2918407;291840;Juazeiro;BA;1;1;1;1;2062;1;1;1;1;1;CNES 9436855 (Juazeiro - BA);-9.556880886845322;-40.27466197156362;ibge_malha;synthetic_municipality
2533413;2101;2918456;291845;Jucuruçu;BA;1;1;1;3;1244;1;1;1;1;1;CNES 2533413 (Jucuruçu - BA);-16.8455670895908;-40.100757969238124;ibge_malha;synthetic_municipality
2483033;2101;2918506;291850;Jussara;BA;1;1;1;3;1244;1;1;1;1;1;CNES 2483033 (Jussara - BA);-10.925537075012196;-41.88031691718878;ibge_malha;synthetic_municipality
2483041;2101;2918555;291855;Jussari;BA;1;1;1;3;1244;1;1;1;1;1;CNES 2483041 (Jussari - BA);-15.136628864337599;-39.49800891398832;ibge_malha;synthetic_municipality
2483300;2101;2918605;291860;Jussiape;BA;1;1;1;3;1244;1;1;1;1;1;CNES 2483300 (Jussiape - BA);-13.511333619764141;-41.59886819382257;ibge_malha;synthetic_municipality
2483319;2101;2918753;291875;Lagoa Real;BA;1;1;1;3;1244;1;1;1;1;1;CNES 2483319 (Lagoa Real - BA);-14.04729746467265;-42.21961733536781;ibge_malha;synthetic_municipality
2390078;2101;2918803;291880;Laje;BA;1;1;1;3;1244;1;1;1;1;1;CNES 2390078 (Laje - BA);-13.166962838160831;-39.346405485807225;ibge_malha;synthetic_municipality
2771365;2101;2918902;291890;Lajedão;BA;1;1;0;3;1244;1;1;0;1;1;CNES 2771365 (Lajedão - BA);-17.5595812663994;-40.309829255857515;ibge_malha;synthetic_municipality
2602210;2101;2919058;291905;Lajedo do Tabocal;BA;1;1;1;3;1244;1;1;1;1;1;CNES 2602210 (Lajedo do Tabocal - BA);-13.460202528858131;-40.282254113832906;ibge_malha;synthetic_municipality
2483548;2101;2919157;291915;Lapão;BA;1;1;1;3;1244;1;1;1;1;1;CNES 2483548 (Lapão - BA);-11.501271627127208;-41.77668923390618;ibge_malha;synthetic_municipality
0131202;2101;2919207;291920;Lauro de Freitas;BA;1;0;1;3;1023;1;0;1;1;1;CNES 0131202 (Lauro de Freitas - BA);-12.86354401773052;-38.32723284938902;ibge_malha;synthetic_municipality
0218782;2101;2919207;291920;Lauro de Freitas;BA;1;0;1;3;1244;1;0;1;1;1;CNES 0218782 (Lauro de Freitas - BA);-12.86354401773052;-38.32723284938902;ibge_malha;synthetic_municipality
2799251;2101;2919207;291920;Lauro de Freitas;BA;1;1;1;3;1244;1;1;1;1;1;CNES 2799251 (Lauro de Freitas - BA);-12.86354401773052;-38.32723284938902;ibge_malha;synthetic_municipality
2802023;2101;2919207;291920;Lauro de Freitas;BA;1;1;1;3;1023;1;1;1;1;1;CNES 2802023 (Lauro de Freitas - BA);-12.86354401773052;-38.32723284938902;ibge_malha;synthetic_municipality
6226485;2101;2919207;291920;Lauro de Freitas;BA;1;1;1;1;2305;1;1;1;1;1;CNES 6226485 (Lauro de Freitas - BA);-12.86354401773052;-38.32723284938902;ibge_malha;synthetic_municipality
0503894;2101;2919306;291930;Lençóis;BA;1;1;1;3;1244;1;1;1;1;1;CNES 0503894 (Lençóis - BA);-12.424986611619346;-41.33729706863356;ibge_malha;synthetic_municipality
2490218;2101;2919405;291940;Licínio de Almeida;BA;1;1;1;3;1244;1;1;1;1;1;CNES 2490218 (Licínio de Almeida - BA);-14.58602366239758;-42.470103296959024;ibge_malha;synthetic_municipality
2487616;2101;2919504;291950;Livramento de Nossa Senhora;BA;1;1;1;3;1244;1;1;1;1;1;CNES 2487616 (Livramento de Nossa Senhora - BA);-13.810651153916597;-41.990929707771265;ibge_malha;synthetic_municipality
0145688;2101;2919553;291955;Luís Eduardo Magalhães;BA;1;0;1;3;1244;1;0;1;1;1;CNES 0145688 (Luís Eduardo Magalhães - BA);-12.198388784671925;-46.020357537046415;ibge_malha;synthetic_municipality
3271137;2101;2919553;291955;Luís Eduardo Magalhães;BA;1;1;1;1;2062;1;1;1;1;1;CNES 3271137 (Luís Eduardo Magalhães - BA);-12.198388784671925;-46.020357537046415;ibge_malha;synthetic_municipality
4028414;2101;2919553;291955;Luís Eduardo Magalhães;BA;1;1;1;3;1244;1;1;1;1;1;CNES 4028414 (Luís Eduardo Magalhães - BA);-12.198388784671925;-46.020357537046415;ibge_malha;synthetic_municipality
9007792;2101;2919553;291955;Luís Eduardo Magalhães;BA;1;1;1;1;2062;1;1;1;1;1;CNES 9007792 (Luís Eduardo Magalhães - BA);-12.198388784671925;-46.020357537046415;ibge_malha;synthetic_municipality
9153535;2101;2919553;291955;Luís Eduardo Magalhães;BA;1;1;1;3;1244;1;1;1;1;1;CNES 9153535 (Luís Eduardo Magalhães - BA);-12.198388784671925;-46.020357537046415;ibge_malha;synthetic_municipality
2492881;2101;2919603;291960;Macajuba;BA;1;1;1;3;1244;1;1;1;1;1;CNES 2492881 (Macajuba - BA);-12.12929194733648;-40.262267893755244;ibge_malha;synthetic_municipality
2492911;2101;2919702;291970;Macarani;BA;1;1;1;3;1244;1;1;1;1;1;CNES 2492911 (Macarani - BA);-15.545794957952006;-40.40096003145503;ibge_malha;synthetic_municipality
2533057;2101;2919801;291980;Macaúbas;BA;1;1;1;3;1244;1;1;1;1;1;CNES 2533057 (Macaúbas - BA);-13.108134574099868;-42.69292300625262;ibge_malha;synthetic_municipality
7175973;2101;2919801;291980;Macaúbas;BA;1;0;1;3;1244;1;0;1;1;1;CNES 7175973 (Macaúbas - BA);-13.108134574099868;-42.69292300625262;ibge_malha;synthetic_municipality
2493268;2101;2919900;291990;Macururé;BA;1;1;1;3;1244;1;1;1;1;1;CNES 2493268 (Macururé - BA);-9.291094700291444;-38.89672215921552;ibge_malha;synthetic_municipality
0457493;2101;2919926;291992;Madre de Deus;BA;1;0;1;3;1244;1;0;1;1;1;CNES 0457493 (Madre de Deus - BA);-12.741104473058208;-38.64270927128258;ibge_malha;synthetic_municipality
3289826;2101;2919926;291992;Madre de Deus;BA;1;1;1;3;1244;1;1;1;1;1;CNES 3289826 (Madre de Deus - BA);-12.741104473058208;-38.64270927128258;ibge_malha;synthetic_municipality
2493578;2101;2920007;292000;Maiquinique;BA;1;1;1;3;1244;1;1;1;1;1;CNES 2493578 (Maiquinique - BA);-15.673989410217159;-40.26910792116367;ibge_malha;synthetic_municipality
4028511;2101;2920106;292010;Mairi;BA;1;1;1;3;1023;1;1;1;1;1;CNES 4028511 (Mairi - BA);-11.731685057457142;-40.180645547165305;ibge_malha;synthetic_municipality
2493195;2101;2920205;292020;Malhada;BA;1;1;1;3;1244;1;1;1;1;1;CNES 2493195 (Malhada - BA);-14.216353858977868;-43.64599627691389;ibge_malha;synthetic_municipality
2493829;2101;2920502;292050;Maracás;BA;1;0;1;1;2062;1;0;1;1;1;CNES 2493829 (Maracás - BA);-13.495178158456396;-40.55523574480565;ibge_malha;synthetic_municipality
2600854;2101;2920502;292050;Maracás;BA;1;1;1;3;1244;1;1;1;1;1;CNES 2600854 (Maracás - BA);-13.495178158456396;-40.55523574480565;ibge_malha;synthetic_municipality
3761673;2101;2920601;292060;Maragogipe;BA;1;1;1;3;1244;1;1;1;1;1;CNES 3761673 (Maragogipe - BA);-12.823001629087756;-38.93826588214499;ibge_malha;synthetic_municipality
3016986;2101;2920809;292080;Marcionílio Souza;BA;1;1;1;3;1244;1;1;1;1;1;CNES 3016986 (Marcionílio Souza - BA);-13.140052056151458;-40.67532269125337;ibge_malha;synthetic_municipality
0190802;2101;2921005;292100;Mata de São João;BA;1;0;1;3;1244;1;0;1;1;1;CNES 0190802 (Mata de São João - BA);-12.48398174977967;-38.14886998954166;ibge_malha;synthetic_municipality
2627418;2101;2921005;292100;Mata de São João;BA;1;1;1;3;1244;1;1;1;1;1;CNES 2627418 (Mata de São João - BA);-12.48398174977967;-38.14886998954166;ibge_malha;synthetic_municipality
2498227;2101;2921054;292105;Matina;BA;1;1;1;3;1244;1;1;1;1;1;CNES 2498227 (Matina - BA);-13.848855353447572;-42.94006455940671;ibge_malha;synthetic_municipality
4028740;2101;2921104;292110;Medeiros Neto;BA;1;1;1;3;1244;1;1;1;1;1;CNES 4028740 (Medeiros Neto - BA);-17.36130059650682;-40.28563445271608;ibge_malha;synthetic_municipality
2498421;2101;2921203;292120;Miguel Calmon;BA;1;1;1;1;3999;1;1;1;1;1;CNES 2498421 (Miguel Calmon - BA);-11.42063193322303;-40.62420416650015;ibge_malha;synthetic_municipality
2498456;2101;2921302;292130;Milagres;BA;1;1;1;3;1244;1;1;1;1;1;CNES 2498456 (Milagres - BA);-12.89995102672785;-39.79756694059717;ibge_malha;synthetic_municipality
