ibge_id;municipality_code;municipality_name;uf;latitude;longitude;coordinate_source
1100015;110001;Alta Floresta D'Oeste;RO;-12.47014368531373;-62.27465408245348;ibge_malha
1100023;110002;Ariquemes;RO;-9.951896428276132;-62.95723231865808;ibge_malha
1100031;110003;Cabixi;RO;-13.474876845863225;-60.63980966263928;ibge_malha
1100049;110004;Cacoal;RO;-11.301290378188684;-61.324724574322055;ibge_malha
1100056;110005;Cerejeiras;RO;-13.203557612495452;-61.260965603853606;ibge_malha
1100064;110006;Colorado do Oeste;RO;-13.15916103825189;-60.55023309863084;ibge_malha
1100072;110007;Corumbiara;RO;-12.9266393597588;-61.091637396724046;ibge_malha
1100080;110008;Costa Marques;RO;-12.147253154399747;-64.05878672789686;ibge_malha
1100098;110009;Espigão D'Oeste;RO;-11.351335464906661;-60.78482721093624;ibge_malha
1100106;110010;Guajará-Mirim;RO;-11.305630593818426;-64.53755683723685;ibge_malha
1100114;110011;Jaru;RO;-10.592460137463704;-62.58488116891367;ibge_malha
1100122;110012;Ji-Paraná;RO;-10.462222605699708;-61.75725079845587;ibge_malha
1100130;110013;Machadinho D'Oeste;RO;-9.204098808806991;-62.010378549810945;ibge_malha
1100148;110014;Nova Brasilândia D'Oeste;RO;-11.6431146370112;-62.28023613926105;ibge_malha
1100155;110015;Ouro Preto do Oeste;RO;-10.610552491070658;-62.172530342984324;ibge_malha
1100189;110018;Pimenta Bueno;RO;-11.894471827315321;-60.83039312248625;ibge_malha
1100205;110020;Porto Velho;RO;-9.153582029071595;-64.30679728499692;ibge_malha
1100254;110025;Presidente Médici;RO;-11.166277420702084;-61.87795231472838;ibge_malha
1100262;110026;Rio Crespo;RO;-9.645210077048704;-62.79007626417293;ibge_malha
1100288;110028;Rolim de Moura;RO;-11.732554414967586;-61.7715500179972;ibge_malha
1100296;110029;Santa Luzia D'Oeste;RO;-12.026968596109848;-61.70109775054519;ibge_malha
1100304;110030;Vilhena;RO;-12.095619920883998;-60.248424697352945;ibge_malha
1100320;110032;São Miguel do Guaporé;RO;-11.614983599778059;-62.98323455209439;ibge_malha
1100338;110033;Nova Mamoré;RO;-10.382156532778131;-64.62911576568528;ibge_malha
1100346;110034;Alvorada D'Oeste;RO;-11.311418556329599;-62.54500153402202;ibge_malha
1100379;110037;Alto Alegre dos Parecis;RO;-12.593729287870485;-61.88080530809895;ibge_malha
1100403;110040;Alto Paraíso;RO;-9.649317221626225;-63.394318282629094;ibge_malha
1100452;110045;Buritis;RO;-10.052108298328683;-63.94116070066155;ibge_malha
1100502;110050;Novo Horizonte do Oeste;RO;-11.681082297544068;-62.083202388303086;ibge_malha
1100601;110060;Cacaulândia;RO;-10.331601925625403;-62.98724914352588;ibge_malha
1100700;110070;Campo Novo de Rondônia;RO;-10.484933400749211;-63.79971720805914;ibge_malha
1100809;110080;Candeias do Jamari;RO;-8.887001905657316;-63.32561829701239;ibge_malha
1100908;110090;Castanheiras;RO;-11.470803117996295;-61.88006496775121;ibge_malha
1100924;110092;Chupinguaia;RO;-12.537343818496806;-60.89839058992591;ibge_malha
1100940;110094;Cujubim;RO;-9.171072080101066;-62.56533043310603;ibge_malha
1101005;110100;Governador Jorge Teixeira;RO;-10.748029748176751;-63.184010536717835;ibge_malha
1101104;110110;Itapuã do Oeste;RO;-9.170222105837812;-63.04495045294163;ibge_malha
1101203;110120;Ministro Andreazza;RO;-11.160295063304758;-61.56897068243121;ibge_malha
1101302;110130;Mirante da Serra;RO;-11.076829508983419;-62.84795457364534;ibge_malha
1101401;110140;Monte Negro;RO;-10.210826165829038;-63.372382523118574;ibge_malha
1101435;110143;Nova União;RO;-10.889344691103183;-62.53232770273223;ibge_malha
1101450;110145;Parecis;RO;-12.26232698591131;-61.41537800388732;ibge_malha
1101468;110146;Pimenteiras do Oeste;RO;-13.173881345897986;-61.5452964482075;ibge_malha
1101476;110147;Primavera de Rondônia;RO;-11.87866712203235;-61.31533457457644;ibge_malha
1101484;110148;São Felipe D'Oeste;RO;-11.904990822213554;-61.46707946043683;ibge_malha
1101492;110149;São Francisco do Guaporé;RO;-12.368398188757178;-63.1221566582903;ibge_malha
1101500;110150;Seringueiras;RO;-11.807216878679258;-63.23069277625259;ibge_malha
1101559;110155;Teixeirópolis;RO;-10.943448591105241;-62.27976956545769;ibge_malha
1101609;110160;Theobroma;RO;-10.121767259314531;-62.34250473675392;ibge_malha
1101708;110170;Urupá;RO;-11.103953857841589;-62.42441469996684;ibge_malha
1101757;110175;Vale do Anari;RO;-9.732446148664613;-61.939104835524134;ibge_malha
1101807;110180;Vale do Paraíso;RO;-10.384269879138229;-62.09405969030939;ibge_malha
1200013;120001;Acrelândia;AC;-9.933928269211487;-66.95015195086144;ibge_malha
1200054;120005;Assis Brasil;AC;-10.779758304359087;-70.00567182389328;ibge_malha
1200104;120010;Brasiléia;AC;-10.747368180166763;-69.20747092330322;ibge_malha
1200138;120013;Bujari;AC;-9.614100933609974;-68.17371955683889;ibge_malha
1200179;120017;Capixaba;AC;-10.474204561697924;-67.83583651595211;ibge_malha
1200203;120020;Cruzeiro do Sul;AC;-7.971865907484339;-72.75480801397109;ibge_malha
1200252;120025;Epitaciolândia;AC;-10.889224607967513;-68.61821469360044;ibge_malha
1200302;120030;Feijó;AC;-8.92441953086217;-70.74476349462839;ibge_malha
1200328;120032;Jordão;AC;-9.242648663110273;-71.9061065810261;ibge_malha
1200336;120033;Mâncio Lima;AC;-7.504426008096305;-73.43908274209865;ibge_malha
1200344;120034;Manoel Urbano;AC;-9.381121415294164;-69.85378482703491;ibge_malha
1200351;120035;Marechal Thaumaturgo;AC;-9.096289522504389;-72.55923900774451;ibge_malha
1200385;120038;Plácido de Castro;AC;-10.249084663234742;-67.34031867614065;ibge_malha
1200393;120039;Porto Walter;AC;-8.491902917557796;-72.73356008077668;ibge_malha
1200401;120040;Rio Branco;AC;-10.066131205913743;-68.37106790920028;ibge_malha
1200427;120042;Rodrigues Alves;AC;-7.8438394119060755;-73.22345530295745;ibge_malha
1200435;120043;Santa Rosa do Purus;AC;-9.410647767619471;-70.39579446395867;ibge_malha
1200450;120045;Senador Guiomard;AC;-9.997214534056965;-67.42758732557158;ibge_malha
1200500;120050;Sena Madureira;AC;-9.771419758794265;-69.38180101184211;ibge_malha
1200609;120060;Tarauacá;AC;-8.2394692022058;-71.44498879805617;ibge_malha
1200708;120070;Xapuri;AC;-10.575601049556859;-68.50474679195194;ibge_malha
1200807;120080;Porto Acre;AC;-9.629461515790423;-67.69849134121385;ibge_malha
1300029;130002;Alvarães;AM;-3.6946863343458363;-65.32444782055323;ibge_malha
1300060;130006;Amaturá;AM;-3.418439340029836;-68.2864936871355;ibge_malha
1300086;130008;Anamã;AM;-3.5018688631509938;-61.717977684409185;ibge_malha
1300102;130010;Anori;AM;-4.198680746855392;-62.095401588215196;ibge_malha
1300144;130014;Apuí;AM;-7.759945769263405;-59.43210282372341;ibge_malha
1300201;130020;Atalaia do Norte;AM;-5.710782203843308;-71.74091105988781;ibge_malha
1300300;130030;Autazes;AM;-3.787227071471917;-59.525523055440786;ibge_malha
1300409;130040;Barcelos;AM;-0.46509667751170597;-63.43471492090846;ibge_malha
1300508;130050;Barreirinha;AM;-3.129024211395767;-57.17238408034842;ibge_malha
1300607;130060;Benjamin Constant;AM;-5.425357119708385;-70.27594999212202;ibge_malha
1300631;130063;Beruri;AM;-4.606236463394885;-61.804359712540595;ibge_malha
1300680;130068;Boa Vista do Ramos;AM;-3.1378190733642826;-57.670116056814315;ibge_malha
1300706;130070;Boca do Acre;AM;-8.773147501681006;-68.04764090657362;ibge_malha
1300805;130080;Borba;AM;-4.957614596406921;-59.53469223387587;ibge_malha
1300839;130083;Caapiranga;AM;-3.082020195540638;-61.87774870432048;ibge_malha
1300904;130090;Canutama;AM;-7.300759125960522;-64.06190711056328;ibge_malha
1301001;130100;Carauari;AM;-5.118527139091382;-67.33747506089618;ibge_malha
1301100;130110;Careiro;AM;-3.770488071446851;-60.18327583005434;ibge_malha
1301159;130115;Careiro da Várzea;AM;-3.2859994379412316;-59.598687619073104;ibge_malha
1301209;130120;Coari;AM;-4.436353817003345;-64.12531216237272;ibge_malha
1301308;130130;Codajás;AM;-3.288981667059345;-62.97330685230495;ibge_malha
1301407;130140;Eirunepé;AM;-7.0220035191262;-70.2182539363535;ibge_malha
1301506;130150;Envira;AM;-7.573287783322982;-70.05506491402014;ibge_malha
1301605;130160;Fonte Boa;AM;-2.490992367339539;-66.35791228200114;ibge_malha
1301654;130165;Guajará;AM;-7.229782161848933;-72.84458758180493;ibge_malha
1301704;130170;Humaitá;AM;-7.3612135458146595;-62.48643782891811;ibge_malha
1301803;130180;Ipixuna;AM;-7.180520805107572;-71.41287209426432;ibge_malha
1301852;130185;Iranduba;AM;-3.095219401099708;-60.47969868398399;ibge_malha
1301902;130190;Itacoatiara;AM;-3.174116833665352;-58.77534063802684;ibge_malha
1301951;130195;Itamarati;AM;-6.682817926344909;-68.11283501620126;ibge_malha
1302009;130200;Itapiranga;AM;-2.4972360128444997;-58.61327254690987;ibge_malha
1302108;130210;Japurá;AM;-1.6970763022426971;-68.32111697312799;ibge_malha
1302207;130220;Juruá;AM;-3.5244766117470774;-66.30781180371045;ibge_malha
1302306;130230;Jutaí;AM;-4.715291416792586;-68.40630319140531;ibge_malha
1302405;130240;Lábrea;AM;-8.375601651822185;-65.81165847733696;ibge_malha
1302504;130250;Manacapuru;AM;-3.291541013288628;-60.95874404882891;ibge_malha
1302553;130255;Manaquiri;AM;-3.7790631029193564;-60.69727454449695;ibge_malha
1302603;130260;Manaus;AM;-2.6259215412459946;-60.259625348748166;ibge_malha
1302702;130270;Manicoré;AM;-6.4599540355509335;-61.44677707883231;ibge_malha
1302801;130280;Maraã;AM;-2.4268303716251514;-65.03954600603562;ibge_malha
1302900;130290;Maués;AM;-4.984775480626198;-58.06092871992256;ibge_malha
1303007;130300;Nhamundá;AM;-1.6805968743760162;-57.656237961425916;ibge_malha
1303106;130310;Nova Olinda do Norte;AM;-3.9895039293146284;-58.59976174714213;ibge_malha
1303205;130320;Novo Airão;AM;-2.048249365714648;-61.70342889692951;ibge_malha
1303304;130330;Novo Aripuanã;AM;-6.824022915683538;-60.47715792726059;ibge_malha
1303403;130340;Parintins;AM;-2.6881021493162374;-56.85464628245094;ibge_malha
1303502;130350;Pauini;AM;-7.757802952979325;-68.19712817496476;ibge_malha
1303536;130353;Presidente Figueiredo;AM;-1.3709170843895615;-59.98955461402532;ibge_malha
1303569;130356;Rio Preto da Eva;AM;-2.529822756673111;-59.63838248610667;ibge_malha
1303601;130360;Santa Isabel do Rio Negro;AM;-0.3183681361381749;-65.52132920731893;ibge_malha
1303700;130370;Santo Antônio do Içá;AM;-3.05290294907029;-69.08932698799939;ibge_malha
1303809;130380;São Gabriel da Cachoeira;AM;0.374477616580368;-67.99705931992042;ibge_malha
1303908;130390;São Paulo de Olivença;AM;-4.501425019953467;-69.45111108414034;ibge_malha
1303957;130395;São Sebastião do Uatumã;AM;-1.9417684401713793;-58.70525153699642;ibge_malha
1304005;130400;Silves;AM;-2.8205488910661334;-58.53708959498277;ibge_malha
1304062;130406;Tabatinga;AM;-4.028233306258846;-69.6776222057608;ibge_malha
1304104;130410;Tapauá;AM;-6.093701379340699;-64.95579179137738;ibge_malha
1304203;130420;Tefé;AM;-4.470118169528795;-65.53154264363938;ibge_malha
1304237;130423;Tonantins;AM;-2.69180070566827;-67.8260419144874;ibge_malha
1304260;130426;Uarini;AM;-3.1656520596719315;-65.41079305520415;ibge_malha
1304302;130430;Urucará;AM;-0.8944106080831752;-59.029575807528595;ibge_malha
1304401;130440;Urucurituba;AM;-2.813764407537207;-57.77131523665416;ibge_malha
1400027;140002;Amajari;RR;3.732902760111444;-62.43703033549939;ibge_malha
1400050;140005;Alto Alegre;RR;3.072101786100707;-62.74237306866673;ibge_malha
1400100;140010;Boa Vista;RR;3.1179138644986506;-60.717958117034776;ibge_malha
1400159;140015;Bonfim;RR;2.7876761253342957;-60.10061726951444;ibge_malha
1400175;140017;Cantá;RR;2.272843693756848;-60.54228405635732;ibge_malha
1400209;140020;Caracaraí;RR;0.9907367560422708;-61.471558123085856;ibge_malha
1400233;140023;Caroebe;RR;0.9146862650092221;-59.338152279249606;ibge_malha
1400282;140028;Iracema;RR;2.1818102214115545;-62.40165230359849;ibge_malha
1400308;140030;Mucajaí;RR;2.510971858482364;-61.996788270337305;ibge_malha
1400407;140040;Normandia;RR;3.8788762240833794;-60.065432649052056;ibge_malha
1400456;140045;Pacaraima;RR;4.168528926800933;-60.83938904904841;ibge_malha
1400472;140047;Rorainópolis;RR;0.03804441269356657;-61.011170074913345;ibge_malha
1400506;140050;São João da Baliza;RR;0.6357541573587966;-59.845014462668246;ibge_malha
1400605;140060;São Luiz do Anauá;RR;0.8844330729088542;-60.15183855709105;ibge_malha
1400704;140070;Uiramutã;RR;4.685424693264162;-60.27933498539075;ibge_malha
1500107;150010;Abaetetuba;PA;-1.7302638795333316;-48.88307006278931;ibge_malha
1500131;150013;Abel Figueiredo;PA;-4.95733448068299;-48.424582404847776;ibge_malha
1500206;150020;Acará;PA;-2.0353946768055162;-48.41144904421746;ibge_malha
1500305;150030;Afuá;PA;-0.2628432359593673;-50.72591458767804;ibge_malha
1500347;150034;Água Azul do Norte;PA;-6.772985426171812;-50.43013985539495;ibge_malha
1500404;150040;Alenquer;PA;-0.6046666889235842;-55.03915721665466;ibge_malha
1500503;150050;Almeirim;PA;0.2844786649912501;-53.893583853700655;ibge_malha
1500602;150060;Altamira;PA;-6.486176716653461;-53.88668267930181;ibge_malha
1500701;150070;Anajás;PA;-0.8271296981792097;-49.96139507505898;ibge_malha
1500800;150080;Ananindeua;PA;-1.3340922982867158;-48.38353823060749;ibge_malha
1500859;150085;Anapu;PA;-3.997164386912121;-51.30127838320755;ibge_malha
1500909;150090;Augusto Corrêa;PA;-1.1047401741560543;-46.50742134349083;ibge_malha
1500958;150095;Aurora do Pará;PA;-2.2311884729942237;-47.72636524020345;ibge_malha
1501006;150100;Aveiro;PA;-3.667222884321898;-56.016302077816846;ibge_malha
1501105;150110;Bagre;PA;-2.3731318476448866;-50.18176769470656;ibge_malha
1501204;150120;Baião;PA;-3.129821310923482;-49.69898092167171;ibge_malha
1501253;150125;Bannach;PA;-7.4863828548338285;-50.63442095348828;ibge_malha
1501303;150130;Barcarena;PA;-1.498619419801254;-48.63423139418559;ibge_malha
1501402;150140;Belém;PA;-1.2407149805643316;-48.45991310468501;ibge_malha
1501451;150145;Belterra;PA;-3.1911206066307467;-54.9928543881007;ibge_malha
1501501;150150;Benevides;PA;-1.3396184548138774;-48.275616366067275;ibge_malha
1501576;150157;Bom Jesus do Tocantins;PA;-5.054256115873898;-48.76351018763518;ibge_malha
1501600;150160;Bonito;PA;-1.3873354314096147;-47.30227177462098;ibge_malha
1501709;150170;Bragança;PA;-1.1930793681657879;-46.763585867830365;ibge_malha
1501725;150172;Brasil Novo;PA;-3.2921108895723767;-52.685405520362785;ibge_malha
1501758;150175;Brejo Grande do Araguaia;PA;-5.735488457624957;-48.4318801769927;ibge_malha
1501782;150178;Breu Branco;PA;-3.733490314515681;-49.371219644763876;ibge_malha
1501808;150180;Breves;PA;-1.1209060268752595;-50.62814782913533;ibge_malha
1501907;150190;Bujaru;PA;-1.6329663545778255;-48.0898913265519;ibge_malha
1501956;150195;Cachoeira do Piriá;PA;-1.9886732688037738;-46.44321435760308;ibge_malha
1502004;150200;Cachoeira do Arari;PA;-0.8694300497623566;-48.877244095767715;ibge_malha
1502103;150210;Cametá;PA;-2.253063644744452;-49.51357585751367;ibge_malha
1502152;150215;Canaã dos Carajás;PA;-6.424205489088151;-50.08567393932729;ibge_malha
1502202;150220;Capanema;PA;-1.1420791128429038;-47.11790427640324;ibge_malha
1502301;150230;Capitão Poço;PA;-2.0421722639697015;-47.23340140057571;ibge_malha
1502400;150240;Castanhal;PA;-1.268515026828647;-47.87698646685054;ibge_malha
1502509;150250;Chaves;PA;-0.032397799234075285;-49.83790343026041;ibge_malha
1502608;150260;Colares;PA;-0.9358312327458447;-48.273715631084826;ibge_malha
1502707;150270;Conceição do Araguaia;PA;-8.18248394300927;-49.51270914629581;ibge_malha
1502756;150275;Concórdia do Pará;PA;-1.8817103767486045;-47.97465466760735;ibge_malha
1502764;150276;Cumaru do Norte;PA;-8.458172054427907;-51.22103667705526;ibge_malha
1502772;150277;Curionópolis;PA;-6.228931933537437;-49.62461314810436;ibge_malha
1502806;150280;Curralinho;PA;-1.5834576841907535;-49.98803712541247;ibge_malha
1502855;150285;Curuá;PA;-1.8457144514363637;-55.1134965309048;ibge_malha
1502905;150290;Curuçá;PA;-0.7427624816283911;-47.86387798649481;ibge_malha
1502939;150293;Dom Eliseu;PA;-4.186577071707566;-47.89810322853933;ibge_malha
1502954;150295;Eldorado do Carajás;PA;-6.069650033962175;-49.24544368876838;ibge_malha
1503002;150300;Faro;PA;-1.1591522583307061;-57.80590320507983;ibge_malha
1503044;150304;Floresta do Araguaia;PA;-7.54831220280824;-49.576036157921216;ibge_malha
1503077;150307;Garrafão do Norte;PA;-2.1683102152898175;-47.0759860869573;ibge_malha
1503093;150309;Goianésia do Pará;PA;-4.027188129022397;-49.005720006098585;ibge_malha
1503101;150310;Gurupá;PA;-1.149440490499801;-51.553915533567114;ibge_malha
1503200;150320;Igarapé-Açu;PA;-1.1450111638453202;-47.56599872656932;ibge_malha
1503309;150330;Igarapé-Miri;PA;-2.0627099753921554;-49.13074166922452;ibge_malha
1503408;150340;Inhangapi;PA;-1.4646860851364647;-47.92266049303194;ibge_malha
1503457;150345;Ipixuna do Pará;PA;-2.805776565614354;-47.92154059725144;ibge_malha
1503507;150350;Irituia;PA;-1.8115353041097189;-47.399861455059025;ibge_malha
1503606;150360;Itaituba;PA;-5.871132568778085;-56.49671810237083;ibge_malha
1503705;150370;Itupiranga;PA;-5.114819180821367;-49.86970878784518;ibge_malha
1503754;150375;Jacareacanga;PA;-7.445282577727873;-57.302708142573316;ibge_malha
1503804;150380;Jacundá;PA;-4.598528228352157;-49.18120970728982;ibge_malha
1503903;150390;Juruti;PA;-2.622891929899867;-56.221389601698434;ibge_malha
1504000;150400;Limoeiro do Ajuru;PA;-1.8642680207026112;-49.469126599857574;ibge_malha
1504059;150405;Mãe do Rio;PA;-1.9910267854336965;-47.51277765756562;ibge_malha
1504109;150410;Magalhães Barata;PA;-0.8098329811116749;-47.6352066569343;ibge_malha
1504208;150420;Marabá;PA;-5.629800330463251;-50.01696410815814;ibge_malha
1504307;150430;Maracanã;PA;-0.8101302076608455;-47.497441305055084;ibge_malha
1504406;150440;Marapanim;PA;-0.8374361854615617;-47.70981313260801;ibge_malha
1504422;150442;Marituba;PA;-1.3974528890617903;-48.31978308174798;ibge_malha
1504455;150445;Medicilândia;PA;-3.160217566422228;-53.194985141841904;ibge_malha
1504505;150450;Melgaço;PA;-1.60764072934887;-51.103869042436756;ibge_malha
1504604;150460;Mocajuba;PA;-2.576688692336597;-49.46636492084427;ibge_malha
1504703;150470;Moju;PA;-2.683915548212977;-49.07403930514923;ibge_malha
1504752;150475;Mojuí dos Campos;PA;-3.07042288009061;-54.57515551495562;ibge_malha
1504802;150480;Monte Alegre;PA;-1.0744010140357025;-54.35304723985752;ibge_malha
1504901;150490;Muaná;PA;-1.3556779518351707;-49.309247722480784;ibge_malha
1504950;150495;Nova Esperança do Piriá;PA;-2.3926523121163985;-46.90005519679077;ibge_malha
1504976;150497;Nova Ipixuna;PA;-4.9810753237096925;-49.23076604451302;ibge_malha
1505007;150500;Nova Timboteua;PA;-1.1564557125731794;-47.39214742675413;ibge_malha
1505031;150503;Novo Progresso;PA;-8.062276615689134;-55.61202720449434;ibge_malha
1505064;150506;Novo Repartimento;PA;-4.502840523045914;-50.271610300596386;ibge_malha
1505106;150510;Óbidos;PA;-0.16966171384060494;-55.674864443269286;ibge_malha
1505205;150520;Oeiras do Pará;PA;-2.2789146131937414;-49.90233198403793;ibge_malha
1505304;150530;Oriximiná;PA;0.25498053312945035;-57.14982974720297;ibge_malha
1505403;150540;Ourém;PA;-1.49592308078205;-47.13919826791531;ibge_malha
1505437;150543;Ourilândia do Norte;PA;-7.5205430819033525;-51.43093731034224;ibge_malha
1505486;150548;Pacajá;PA;-3.684121264748842;-50.63168220686078;ibge_malha
1505494;150549;Palestina do Pará;PA;-5.9272683593945095;-48.37018919178125;ibge_malha
1505502;150550;Paragominas;PA;-3.203447204423973;-47.60315227170847;ibge_malha
1505536;150553;Parauapebas;PA;-6.151736850546234;-50.48976857294857;ibge_malha
1505551;150555;Pau D'Arco;PA;-7.7369676436869455;-50.12362577601743;ibge_malha
1505601;150560;Peixe-Boi;PA;-1.130722478101122;-47.27197778134703;ibge_malha
1505635;150563;Piçarra;PA;-6.541041976403375;-49.01177153407209;ibge_malha
1505650;150565;Placas;PA;-3.8898262312764325;-54.5006582431428;ibge_malha
1505700;150570;Ponta de Pedras;PA;-1.117501543422431;-49.07728962192237;ibge_malha
1505809;150580;Portel;PA;-2.56543291624028;-50.95561727503787;ibge_malha
1505908;150590;Porto de Moz;PA;-2.1845902758381026;-52.547747283700915;ibge_malha
1506005;150600;Prainha;PA;-2.1202536470887825;-53.66017018974868;ibge_malha
1506104;150610;Primavera;PA;-0.9526961332159563;-47.13147807804127;ibge_malha
1506112;150611;Quatipuru;PA;-0.8600812638758494;-47.01553748728375;ibge_malha
1506138;150613;Redenção;PA;-8.06932784562684;-50.19812044973784;ibge_malha
1506161;150616;Rio Maria;PA;-7.34062858615619;-49.895141609342005;ibge_malha
1506187;150618;Rondon do Pará;PA;-4.516927557914921;-48.46004187501964;ibge_malha
1506195;150619;Rurópolis;PA;-4.241042524562599;-55.2107394739968;ibge_malha
1506203;150620;Salinópolis;PA;-0.6839753853735773;-47.351696648687536;ibge_malha
1506302;150630;Salvaterra;PA;-0.7966101784553138;-48.63002129170302;ibge_malha
1506351;150635;Santa Bárbara do Pará;PA;-1.194336138126087;-48.25052253618857;ibge_malha
1506401;150640;Santa Cruz do Arari;PA;-0.5833521634899115;-49.31385726298793;ibge_malha
1506500;150650;Santa Izabel do Pará;PA;-1.3651944737091934;-48.12929679995981;ibge_malha
1506559;150655;Santa Luzia do Pará;PA;-1.6566185654297214;-46.92691796062051;ibge_malha
1506583;150658;Santa Maria das Barreiras;PA;-8.633790099496418;-50.314369241101026;ibge_malha
1506609;150660;Santa Maria do Pará;PA;-1.374485096521998;-47.52163342599952;ibge_malha
1506708;150670;Santana do Araguaia;PA;-9.364057918117638;-50.61128410058127;ibge_malha
1506807;150680;Santarém;PA;-2.6793413356777793;-55.23846633533838;ibge_malha
1506906;150690;Santarém Novo;PA;-0.9133561678720004;-47.332940565244854;ibge_malha
1507003;150700;Santo Antônio do Tauá;PA;-1.093245287540149;-48.1827599132818;ibge_malha
1507102;150710;São Caetano de Odivelas;PA;-0.8649446334457873;-48.02572226177051;ibge_malha
1507151;150715;São Domingos do Araguaia;PA;-5.657593860436407;-48.73058961521731;ibge_malha
1507201;150720;São Domingos do Capim;PA;-1.8825683048528021;-47.771481369166644;ibge_malha
1507300;150730;São Félix do Xingu;PA;-7.233371394527271;-52.252695807990506;ibge_malha
1507409;150740;São Francisco do Pará;PA;-1.206021411135687;-47.74684573174599;ibge_malha
1507458;150745;São Geraldo do Araguaia;PA;-6.189246197523836;-48.748227313274434;ibge_malha
1507466;150746;São João da Ponta;PA;-0.8704842350115102;-47.964460958850644;ibge_malha
1507474;150747;São João de Pirabas;PA;-0.7838076543465801;-47.21786270120579;ibge_malha
1507508;150750;São João do Araguaia;PA;-5.447319149966355;-48.69679125977144;ibge_malha
1507607;150760;São Miguel do Guamá;PA;-1.5515308340583118;-47.61078027417182;ibge_malha
1507706;150770;São Sebastião da Boa Vista;PA;-1.4341332474860642;-49.68026991658367;ibge_malha
1507755;150775;Sapucaia;PA;-6.838891055350949;-49.569759130818674;ibge_malha
1507805;150780;Senador José Porfírio;PA;-4.169723719848729;-51.77384447219709;ibge_malha
1507904;150790;Soure;PA;-0.4479128448406992;-48.6977536673209;ibge_malha
1507953;150795;Tailândia;PA;-2.907819338338748;-48.7366996986053;ibge_malha
1507961;150796;Terra Alta;PA;-1.0026001383546324;-47.84830495800217;ibge_malha
1507979;150797;Terra Santa;PA;-1.9514981217946838;-56.45843241147797;ibge_malha
1508001;150800;Tomé-Açu;PA;-2.6361299920508867;-48.267627588501206;ibge_malha
1508035;150803;Tracuateua;PA;-1.0409693186101159;-46.93898986887897;ibge_malha
1508050;150805;Trairão;PA;-5.13022774290498;-56.003464095214525;ibge_malha
1508084;150808;Tucumã;PA;-6.820195464137706;-51.39139002477645;ibge_malha
1508100;150810;Tucuruí;PA;-3.8562822135345707;-49.821134272347905;ibge_malha
1508126;150812;Ulianópolis;PA;-3.809840800506771;-47.49360342917362;ibge_malha
1508159;150815;Uruará;PA;-3.583610576894664;-53.807335686234836;ibge_malha
1508209;150820;Vigia;PA;-0.9333991338730722;-48.104931508145256;ibge_malha
1508308;150830;Viseu;PA;-1.5231751567245528;-46.453042540935336;ibge_malha
1508357;150835;Vitória do Xingu;PA;-3.1352628070730115;-51.97396676372169;ibge_malha
1508407;150840;Xinguara;PA;-6.917772732189104;-49.63526221703541;ibge_malha
1600055;160005;Serra do Navio;AP;1.651742842165938;-52.268135879623266;ibge_malha
1600105;160010;Amapá;AP;1.7467585114225994;-50.59259343542623;ibge_malha
1600154;160015;Pedra Branca do Amapari;AP;1.1576018853896066;-52.51955569312976;ibge_malha
1600204;160020;Calçoene;AP;2.423839869821893;-51.40664650552991;ibge_malha
1600212;160021;Cutias;AP;1.035581928064682;-50.48706728678847;ibge_malha
1600238;160023;Ferreira Gomes;AP;0.9570860770625078;-51.417326944923126;ibge_malha
1600253;160025;Itaubal;AP;0.5383878439230956;-50.64026374962768;ibge_malha
1600279;160027;Laranjal do Jari;AP;1.101369774211346;-53.31054767209246;ibge_malha
1600303;160030;Macapá;AP;0.5627552308237873;-50.69177741526286;ibge_malha
1600402;160040;Mazagão;AP;-0.06683410071342424;-51.95120057954042;ibge_malha
1600501;160050;Oiapoque;AP;3.1118093422804494;-51.898684653306105;ibge_malha
1600535;160053;Porto Grande;AP;0.5856274509678399;-51.66996765962999;ibge_malha
1600550;160055;Pracuúba;AP;1.6258007456846233;-51.27855023160676;ibge_malha
1600600;160060;Santana;AP;0.12980348483378734;-51.37836415459109;ibge_malha
1600709;160070;Tartarugalzinho;AP;1.2975751958224098;-50.992609669265455;ibge_malha
1600808;160080;Vitória do Jari;AP;-0.9964438346944632;-52.06117908744139;ibge_malha
1700251;170025;Abreulândia;TO;-9.478803440727637;-49.311279136069764;ibge_malha
1700301;170030;Aguiarnópolis;TO;-6.488591692995002;-47.51335682087796;ibge_malha
1700350;170035;Aliança do Tocantins;TO;-11.331188641981566;-48.908262114235434;ibge_malha
1700400;170040;Almas;TO;-11.429500961876604;-47.21101931109959;ibge_malha
1700707;170070;Alvorada;TO;-12.407498609492471;-49.11180940916976;ibge_malha
1701002;170100;Ananás;TO;-6.232656609052365;-48.18664221218664;ibge_malha
1701051;170105;Angico;TO;-6.435789884724896;-47.913173097451825;ibge_malha
1701101;170110;Aparecida do Rio Negro;TO;-9.986592012191231;-48.000036617369815;ibge_malha
1701309;170130;Aragominas;TO;-6.945520386576214;-48.63232635070902;ibge_malha
1701903;170190;Araguacema;TO;-8.939088315309197;-49.505548052718666;ibge_malha
1702000;170200;Araguaçu;TO;-12.839857169640382;-49.696355686137245;ibge_malha
1702109;170210;Araguaína;TO;-7.33129922968485;-48.58779378733682;ibge_malha
1702158;170215;Araguanã;TO;-6.790974727606414;-48.52454747411037;ibge_malha
1702208;170220;Araguatins;TO;-5.665850321966569;-48.1048140644771;ibge_malha
1702307;170230;Arapoema;TO;-7.723408434177363;-48.99981825907339;ibge_malha
1702406;170240;Arraias;TO;-12.817196232676572;-47.047779535845365;ibge_malha
1702554;170255;Augustinópolis;TO;-5.497805983520902;-47.92815291194265;ibge_malha
1702703;170270;Aurora do Tocantins;TO;-12.646625800771066;-46.43284553508689;ibge_malha
1702901;170290;Axixá do Tocantins;TO;-5.649393365983354;-47.76610357886979;ibge_malha
1703008;170300;Babaçulândia;TO;-7.174534301307133;-47.85683919488403;ibge_malha
1703057;170305;Bandeirantes do Tocantins;TO;-7.903026163546336;-48.67553749476154;ibge_malha
1703073;170307;Barra do Ouro;TO;-7.71777965294059;-47.57861310703534;ibge_malha
1703107;170310;Barrolândia;TO;-9.865782667372864;-48.79119492808558;ibge_malha
1703206;170320;Bernardo Sayão;TO;-7.983456586648204;-48.96909338196809;ibge_malha
1703305;170330;Bom Jesus do Tocantins;TO;-9.01240793816846;-47.87922207105376;ibge_malha
1703602;170360;Brasilândia do Tocantins;TO;-8.289906721987359;-48.44279163747844;ibge_malha
1703701;170370;Brejinho de Nazaré;TO;-11.02927170083772;-48.62411603055724;ibge_malha
1703800;170380;Buriti do Tocantins;TO;-5.337675076989046;-48.13630893980667;ibge_malha
1703826;170382;Cachoeirinha;TO;-6.090006998506475;-47.84132421814358;ibge_malha
1703842;170384;Campos Lindos;TO;-8.20379722660831;-46.80457635582478;ibge_malha
1703867;170386;Cariri do Tocantins;TO;-11.933038182617503;-49.20277787768295;ibge_malha
1703883;170388;Carmolândia;TO;-7.0451296770676235;-48.374556019302354;ibge_malha
1703891;170389;Carrasco Bonito;TO;-5.33717407737028;-48.00989329589732;ibge_malha
1703909;170390;Caseara;TO;-9.401664348811973;-49.84856833085489;ibge_malha
1704105;170410;Centenário;TO;-9.073785790976663;-47.44478084800037;ibge_malha
1704600;170460;Chapada de Areia;TO;-10.165712951998051;-49.195683057797595;ibge_malha
1705102;170510;Chapada da Natividade;TO;-11.54106663357926;-47.84642902965794;ibge_malha
1705508;170550;Colinas do Tocantins;TO;-8.07644280069304;-48.53011224310463;ibge_malha
1705557;170555;Combinado;TO;-12.846259456568394;-46.50378688649469;ibge_malha
1705607;170560;Conceição do Tocantins;TO;-12.171031914422436;-47.30365819852151;ibge_malha
1706001;170600;Couto Magalhães;TO;-8.436715534568593;-49.1624470289519;ibge_malha
1706100;170610;Cristalândia;TO;-10.636385551465544;-49.312393981179504;ibge_malha
1706258;170625;Crixás do Tocantins;TO;-11.171861151427066;-49.07275571506546;ibge_malha
1706506;170650;Darcinópolis;TO;-6.763401164566443;-47.76790183951028;ibge_malha
1707009;170700;Dianópolis;TO;-11.694790889137062;-46.795728462086345;ibge_malha
1707108;170710;Divinópolis do Tocantins;TO;-9.695157547556036;-49.35476342799051;ibge_malha
1707207;170720;Dois Irmãos do Tocantins;TO;-9.270938073230878;-49.066935029997175;ibge_malha
1707306;170730;Dueré;TO;-11.42722504720203;-49.39128231429313;ibge_malha
1707405;170740;Esperantina;TO;-5.326289117199428;-48.54033372713686;ibge_malha
1707553;170755;Fátima;TO;-10.809774634775389;-48.87232169068385;ibge_malha
1707652;170765;Figueirópolis;TO;-12.26345954058932;-49.28277332374587;ibge_malha
1707702;170770;Filadélfia;TO;-7.4966755754134615;-47.793747661918424;ibge_malha
1708205;170820;Formoso do Araguaia;TO;-11.958277146810353;-50.09809628476079;ibge_malha
1708254;170825;Tabocão;TO;-9.071429795495195;-48.54601289556918;ibge_malha
1708304;170830;Goianorte;TO;-8.873187009156839;-49.01122358424044;ibge_malha
1709005;170900;Goiatins;TO;-8.094159141554721;-47.48152634918635;ibge_malha
1709302;170930;Guaraí;TO;-8.73012198117251;-48.42504575893957;ibge_malha
1709500;170950;Gurupi;TO;-11.651599023399346;-48.887360266843096;ibge_malha
1709807;170980;Ipueiras;TO;-11.135077628279104;-48.403526832943335;ibge_malha
1710508;171050;Itacajá;TO;-8.571528959545883;-47.66932153817421;ibge_malha
1710706;171070;Itaguatins;TO;-5.80273873389185;-47.595069110390995;ibge_malha
1710904;171090;Itapiratins;TO;-8.316316472987173;-48.03331431223204;ibge_malha
1711100;171110;Itaporã do Tocantins;TO;-8.451213898412535;-48.75260590372799;ibge_malha
1711506;171150;Jaú do Tocantins;TO;-12.747750567491924;-48.64548267413639;ibge_malha
1711803;171180;Juarina;TO;-8.140784253507173;-49.11033624888576;ibge_malha
1711902;171190;Lagoa da Confusão;TO;-11.035007511914;-50.16071842617467;ibge_malha
1711951;171195;Lagoa do Tocantins;TO;-10.341868130901295;-47.48115331244464;ibge_malha
1712009;171200;Lajeado;TO;-9.850564846874356;-48.290943157436985;ibge_malha
1712157;171215;Lavandeira;TO;-12.812616075856157;-46.4104659863863;ibge_malha
1712405;171240;Lizarda;TO;-9.524810282123472;-46.938952960106015;ibge_malha
1712454;171245;Luzinópolis;TO;-6.206021426988043;-47.830743369678814;ibge_malha
1712504;171250;Marianópolis do Tocantins;TO;-9.787571544334652;-49.700045998078025;ibge_malha
1712702;171270;Mateiros;TO;-10.583007586870577;-46.50260837072044;ibge_malha
1712801;171280;Maurilândia do Tocantins;TO;-6.023187759879997;-47.589952502569;ibge_malha
1713205;171320;Miracema do Tocantins;TO;-9.754141430791297;-48.55147553544809;ibge_malha
1713304;171330;Miranorte;TO;-9.416322776269737;-48.6837609613414;ibge_malha
1713601;171360;Monte do Carmo;TO;-10.747622865347989;-48.017211783629406;ibge_malha
1713700;171370;Monte Santo do Tocantins;TO;-9.999481759981332;-49.067270881580654;ibge_malha
1713809;171380;Palmeiras do Tocantins;TO;-6.600236800611029;-47.642670318981956;ibge_malha
1713957;171395;Muricilândia;TO;-7.003365156156654;-48.78647546804286;ibge_malha
1714203;171420;Natividade;TO;-11.79833321032451;-47.64884537211756;ibge_malha
1714302;171430;Nazaré;TO;-6.330334379053944;-47.781473981594644;ibge_malha
1714880;171488;Nova Olinda;TO;-7.637886364166189;-48.36073895804788;ibge_malha
1715002;171500;Nova Rosalândia;TO;-10.5500082212148;-48.97329221785273;ibge_malha
1715101;171510;Novo Acordo;TO;-10.154984032550827;-47.38301783832923;ibge_malha
1715150;171515;Novo Alegre;TO;-12.914302058241455;-46.55959874281535;ibge_malha
1715259;171525;Novo Jardim;TO;-11.779011773156281;-46.57035977472875;ibge_malha
1715507;171550;Oliveira de Fátima;TO;-10.674504097314225;-48.87579103353467;ibge_malha
1715705;171570;Palmeirante;TO;-7.885960195690174;-48.15628929319809;ibge_malha
1715754;171575;Palmeirópolis;TO;-13.019781235012802;-48.34877724149307;ibge_malha
1716109;171610;Paraíso do Tocantins;TO;-10.218214671369887;-48.827268210454605;ibge_malha
1716208;171620;Paranã;TO;-12.696493629660765;-47.813479025569876;ibge_malha
1716307;171630;Pau D'Arco;TO;-7.544925540238743;-48.98837695629254;ibge_malha
1716505;171650;Pedro Afonso;TO;-9.226898794820642;-48.03421269636317;ibge_malha
1716604;171660;Peixe;TO;-11.996736996197091;-48.55521606917664;ibge_malha
1716653;171665;Pequizeiro;TO;-8.379827294283743;-48.917168142326815;ibge_malha
1716703;171670;Colméia;TO;-8.837409074080242;-48.74863649222898;ibge_malha
1717008;171700;Pindorama do Tocantins;TO;-11.159720140528686;-47.55883503014187;ibge_malha
1717206;171720;Piraquê;TO;-6.73863459939598;-48.23944967739019;ibge_malha
1717503;171750;Pium;TO;-10.209542198483794;-49.87189638199684;ibge_malha
1717800;171780;Ponte Alta do Bom Jesus;TO;-12.057561418975268;-46.593245139075364;ibge_malha
1717909;171790;Ponte Alta do Tocantins;TO;-10.749502657629407;-47.324556950442705;ibge_malha
1718006;171800;Porto Alegre do Tocantins;TO;-11.510848791225005;-47.046716581999306;ibge_malha
1718204;171820;Porto Nacional;TO;-10.543711138256587;-48.4964809110408;ibge_malha
1718303;171830;Praia Norte;TO;-5.4748360861681675;-47.781919786287844;ibge_malha
1718402;171840;Presidente Kennedy;TO;-8.46188101603545;-48.46157496881086;ibge_malha
1718451;171845;Pugmil;TO;-10.422513687579636;-48.88236745897341;ibge_malha
1718501;171850;Recursolândia;TO;-8.697368941804276;-47.11311476830192;ibge_malha
1718550;171855;Riachinho;TO;-6.459916288980078;-48.13621484686801;ibge_malha
1718659;171865;Rio da Conceição;TO;-11.336976532519618;-46.73764570668453;ibge_malha
1718709;171870;Rio dos Bois;TO;-9.235891901390104;-48.45250601235539;ibge_malha
1718758;171875;Rio Sono;TO;-9.64738290757259;-47.49599109591276;ibge_malha
1718808;171880;Sampaio;TO;-5.329627238416209;-47.91879944188611;ibge_malha
1718840;171884;Sandolândia;TO;-12.400993385340893;-49.87614638117184;ibge_malha
1718865;171886;Santa Fé do Araguaia;TO;-7.093102798070218;-48.97498670058713;ibge_malha
1718881;171888;Santa Maria do Tocantins;TO;-8.824676918243682;-47.84832210709532;ibge_malha
1718899;171889;Santa Rita do Tocantins;TO;-10.969968045439417;-49.29501583097836;ibge_malha
1718907;171890;Santa Rosa do Tocantins;TO;-11.397312106921268;-48.10837218511184;ibge_malha
1719004;171900;Santa Tereza do Tocantins;TO;-10.298962298646405;-47.741543843737915;ibge_malha
1720002;172000;Santa Terezinha do Tocantins;TO;-6.472679046585419;-47.751133924797344;ibge_malha
1720101;172010;São Bento do Tocantins;TO;-5.976012166935122;-47.93983490859167;ibge_malha
1720150;172015;São Félix do Tocantins;TO;-10.068592868967212;-46.677943548595486;ibge_malha
1720200;172020;São Miguel do Tocantins;TO;-5.543436775769284;-47.597762344819124;ibge_malha
1720259;172025;São Salvador do Tocantins;TO;-12.577560153865553;-48.3641472945386;ibge_malha
1720309;172030;São Sebastião do Tocantins;TO;-5.2410078275112;-48.331740352812176;ibge_malha
1720499;172049;São Valério;TO;-11.804068892902608;-48.16964579549729;ibge_malha
1720655;172065;Silvanópolis;TO;-11.130741690347163;-48.004933766472014;ibge_malha
1720804;172080;Sítio Novo do Tocantins;TO;-5.6351375693416905;-47.684096227233944;ibge_malha
1720853;172085;Sucupira;TO;-12.113291958524654;-48.83434319713629;ibge_malha
1720903;172090;Taguatinga;TO;-12.387298310394659;-46.56566719053154;ibge_malha
1720937;172093;Taipas do Tocantins;TO;-12.139716958050593;-46.99371996028143;ibge_malha
1720978;172097;Talismã;TO;-12.682163858463637;-49.04845308202656;ibge_malha
1721000;172100;Palmas;TO;-10.220187469177906;-48.152085141749644;ibge_malha
1721109;172110;Tocantínia;TO;-9.603357898277642;-48.14091076383729;ibge_malha
1721208;172120;Tocantinópolis;TO;-6.256851803636256;-47.53805974374307;ibge_malha
1721257;172125;Tupirama;TO;-8.938589303359787;-48.25959595584746;ibge_malha
1721307;172130;Tupiratins;TO;-8.356575994987692;-48.21068088299994;ibge_malha
1722081;172208;Wanderlândia;TO;-6.910060317575034;-48.00198027983624;ibge_malha
1722107;172210;Xambioá;TO;-6.545437799227675;-48.451030159825265;ibge_malha
2100055;210005;Açailândia;MA;-4.785818643661267;-47.332426349413325;ibge_malha
2100105;210010;Afonso Cunha;MA;-4.214779200879101;-43.29742302381575;ibge_malha
2100154;210015;Água Doce do Maranhão;MA;-2.9464336493172976;-42.16621343682661;ibge_malha
2100204;210020;Alcântara;MA;-2.3792836637939545;-44.53987504817721;ibge_malha
2100303;210030;Aldeias Altas;MA;-4.502734455521948;-43.38346711981941;ibge_malha
2100402;210040;Altamira do Maranhão;MA;-4.1670239088875745;-45.502816656588976;ibge_malha
2100436;210043;Alto Alegre do Maranhão;MA;-4.21063642746584;-44.39585055080465;ibge_malha
2100477;210047;Alto Alegre do Pindaré;MA;-3.8702660161654814;-46.00169036508036;ibge_malha
2100501;210050;Alto Parnaíba;MA;-9.508473346189572;-46.213301717240036;ibge_malha
2100550;210055;Amapá do Maranhão;MA;-1.6730659808464161;-45.948033594227624;ibge_malha
2100600;210060;Amarante do Maranhão;MA;-5.278402578211327;-46.58201554114854;ibge_malha
2100709;210070;Anajatuba;MA;-3.255638425429574;-44.59921955910849;ibge_malha
2100808;210080;Anapurus;MA;-3.5438716547309372;-43.10775836269455;ibge_malha
2100832;210083;Apicum-Açu;MA;-1.5353546035328025;-45.08738208508926;ibge_malha
2100873;210087;Araguanã;MA;-3.0790990915006415;-45.78734065080794;ibge_malha
2100907;210090;Araioses;MA;-2.9722554428790615;-42.016977162446516;ibge_malha
2100956;210095;Arame;MA;-5.027700548826231;-45.94596576685536;ibge_malha
2101004;210100;Arari;MA;-3.533374341704029;-44.72736850966023;ibge_malha
2101103;210110;Axixá;MA;-2.843892794284713;-44.09865025871436;ibge_malha
2101202;210120;Bacabal;MA;-4.17109990163151;-44.76186687601489;ibge_malha
2101251;210125;Bacabeira;MA;-2.9363355862621376;-44.35796936435836;ibge_malha
2101301;210130;Bacuri;MA;-1.6832678446795148;-45.162551720105405;ibge_malha
2101350;210135;Bacurituba;MA;-2.699603383187841;-44.695164666896936;ibge_malha
2101400;210140;Balsas;MA;-8.23764448411841;-46.34275911314056;ibge_malha
2101509;210150;Barão de Grajaú;MA;-6.592878803559902;-43.18804972735651;ibge_malha
2101608;210160;Barra do Corda;MA;-5.50412843078729;-45.18308159031845;ibge_malha
2101707;210170;Barreirinhas;MA;-2.8397504217489056;-42.91010969369424;ibge_malha
2101731;210173;Belágua;MA;-3.1012975426660456;-43.46233921204989;ibge_malha
2101772;210177;Bela Vista do Maranhão;MA;-3.7578308301293886;-45.26595807047107;ibge_malha
2101806;210180;Benedito Leite;MA;-7.120546716431372;-44.568312183533784;ibge_malha
2101905;210190;Bequimão;MA;-2.4309308334340822;-44.78565003607452;ibge_malha
2101939;210193;Bernardo do Mearim;MA;-4.680138471462616;-44.68783645586427;ibge_malha
2101970;210197;Boa Vista do Gurupi;MA;-1.762068067247384;-46.178914711973384;ibge_malha
2102002;210200;Bom Jardim;MA;-3.90040664330424;-46.41827329688975;ibge_malha
2102036;210203;Bom Jesus das Selvas;MA;-4.600797938332626;-46.68863778537272;ibge_malha
2102077;210207;Bom Lugar;MA;-4.346621905431354;-45.02095521152265;ibge_malha
2102101;210210;Brejo;MA;-3.6870095817327027;-42.82851473743274;ibge_malha
2102150;210215;Brejo de Areia;MA;-4.365109738043837;-45.65006682901788;ibge_malha
2102200;210220;Buriti;MA;-3.900468282766077;-43.00151307849311;ibge_malha
2102309;210230;Buriti Bravo;MA;-5.789175018722916;-43.83051111994343;ibge_malha
2102325;210232;Buriticupu;MA;-4.493807357018761;-46.342419277799515;ibge_malha
2102358;210235;Buritirana;MA;-5.518160273439916;-47.06181929355128;ibge_malha
2102374;210237;Cachoeira Grande;MA;-3.1200909551133167;-43.930933101312256;ibge_malha
2102408;210240;Cajapió;MA;-2.8744487882633574;-44.598771886367636;ibge_malha
2102507;210250;Cajari;MA;-3.390630002664038;-45.05271525865872;ibge_malha
2102556;210255;Campestre do Maranhão;MA;-6.17619730807064;-47.263853570078396;ibge_malha
2102606;210260;Cândido Mendes;MA;-1.6172009884996887;-45.6766874041573;ibge_malha
2102705;210270;Cantanhede;MA;-3.6216102279077997;-44.262692293031286;ibge_malha
2102754;210275;Capinzal do Norte;MA;-4.682119362164363;-44.306241059852326;ibge_malha
2102804;210280;Carolina;MA;-7.376403709482656;-47.211251559056436;ibge_malha
2102903;210290;Carutapera;MA;-1.3500833513926214;-46.02940713828199;ibge_malha
2103000;210300;Caxias;MA;-4.866413959389506;-43.29919249219873;ibge_malha
2103109;210310;Cedral;MA;-1.9774633390938774;-44.59375957741712;ibge_malha
2103125;210312;Central do Maranhão;MA;-2.2548903471689465;-44.85793090686117;ibge_malha
2103158;210315;Centro do Guilherme;MA;-2.4287225187713712;-46.11700251210658;ibge_malha
2103174;210317;Centro Novo do Maranhão;MA;-3.0707256533372687;-46.53364471218431;ibge_malha
2103208;210320;Chapadinha;MA;-3.8487642871357965;-43.45383426401153;ibge_malha
2103257;210325;Cidelândia;MA;-5.0571599323838194;-47.829776324535025;ibge_malha
2103307;210330;Codó;MA;-4.607247159477715;-43.886008846545195;ibge_malha
2103406;210340;Coelho Neto;MA;-4.248059595724893;-43.111931474767324;ibge_malha
2103505;210350;Colinas;MA;-6.055717378561883;-44.18142544026215;ibge_malha
2103554;210355;Conceição do Lago-Açu;MA;-3.7970351516659715;-44.8385182098585;ibge_malha
2103604;210360;Coroatá;MA;-4.102194654485154;-44.14530629813815;ibge_malha
2103703;210370;Cururupu;MA;-1.6728698594707896;-44.82059523599278;ibge_malha
2103752;210375;Davinópolis;MA;-5.598717759994983;-47.300432794374935;ibge_malha
2103802;210380;Dom Pedro;MA;-5.0212810134919605;-44.3971035054265;ibge_malha
2103901;210390;Duque Bacelar;MA;-4.099146162221059;-43.00987363809209;ibge_malha
2104008;210400;Esperantinópolis;MA;-4.899059122005974;-44.89052131311152;ibge_malha
2104057;210405;Estreito;MA;-6.782436351706027;-47.20116294767135;ibge_malha
2104073;210407;Feira Nova do Maranhão;MA;-7.018608083731515;-46.62674705562407;ibge_malha
2104081;210408;Fernando Falcão;MA;-6.173797344311202;-45.30616711738071;ibge_malha
2104099;210409;Formosa da Serra Negra;MA;-6.5142085914225;-46.18626960286872;ibge_malha
2104107;210410;Fortaleza dos Nogueiras;MA;-6.941954293528634;-46.0819267263326;ibge_malha
2104206;210420;Fortuna;MA;-5.6342971717448815;-44.014667225781196;ibge_malha
2104305;210430;Godofredo Viana;MA;-1.3697183823378665;-45.76264510893723;ibge_malha
2104404;210440;Gonçalves Dias;MA;-5.152256048680476;-44.17200546007554;ibge_malha
2104503;210450;Governador Archer;MA;-4.9994900506233595;-44.22151937202164;ibge_malha
2104552;210455;Governador Edison Lobão;MA;-5.718473837008041;-47.32478470614661;ibge_malha
2104602;210460;Governador Eugênio Barros;MA;-5.366808034518042;-44.0955977748973;ibge_malha
2104628;210462;Governador Luiz Rocha;MA;-5.528309703052171;-44.090227551363945;ibge_malha
2104651;210465;Governador Newton Bello;MA;-3.4191016725687957;-45.92589894563185;ibge_malha
2104677;210467;Governador Nunes Freire;MA;-2.0617473545527694;-45.81820841193583;ibge_malha
2104701;210470;Graça Aranha;MA;-5.414810124973774;-44.3181179011445;ibge_malha
2104800;210480;Grajaú;MA;-5.840232826346225;-46.014947307574204;ibge_malha
2104909;210490;Guimarães;MA;-2.1462235687979123;-44.66224897236152;ibge_malha
2105005;210500;Humberto de Campos;MA;-2.668555847365162;-43.575457587207836;ibge_malha
2105104;210510;Icatu;MA;-2.6506543432923553;-43.862287792405944;ibge_malha
2105153;210515;Igarapé do Meio;MA;-3.6564820569159;-45.123837075292656;ibge_malha
2105203;210520;Igarapé Grande;MA;-4.592096897964138;-44.82624561265077;ibge_malha
2105302;210530;Imperatriz;MA;-5.339779359712396;-47.57523269440035;ibge_malha
2105351;210535;Itaipava do Grajaú;MA;-5.1851344602720015;-45.67815202513127;ibge_malha
2105401;210540;Itapecuru Mirim;MA;-3.3873175606765082;-44.27763993762791;ibge_malha
2105427;210542;Itinga do Maranhão;MA;-4.271330985334327;-47.26053970092956;ibge_malha
2105450;210545;Jatobá;MA;-5.85225738751794;-44.294003493642066;ibge_malha
2105476;210547;Jenipapo dos Vieiras;MA;-5.3924080799137;-45.575836213143816;ibge_malha
2105500;210550;João Lisboa;MA;-5.229322965530091;-47.1263768099079;ibge_malha
2105609;210560;Joselândia;MA;-5.016027847910457;-44.75557895245398;ibge_malha
2105658;210565;Junco do Maranhão;MA;-1.918469640669804;-46.117871724336815;ibge_malha
2105708;210570;Lago da Pedra;MA;-4.738975440906378;-45.20530038194954;ibge_malha
2105807;210580;Lago do Junco;MA;-4.522535390409603;-44.976543059952654;ibge_malha
2105906;210590;Lago Verde;MA;-3.989465683559762;-44.882063095383266;ibge_malha
2105922;210592;Lagoa do Mato;MA;-6.032201758220127;-43.495633697150865;ibge_malha
2105948;210594;Lago dos Rodrigues;MA;-4.588638405766642;-44.93094307758194;ibge_malha
2105963;210596;Lagoa Grande do Maranhão;MA;-4.929712314657695;-45.40303011807337;ibge_malha
2105989;210598;Lajeado Novo;MA;-6.103483240371995;-46.929487903829525;ibge_malha
2106003;210600;Lima Campos;MA;-4.5568850361397795;-44.46474656461191;ibge_malha
2106102;210610;Loreto;MA;-7.220718847257163;-45.2198289714964;ibge_malha
2106201;210620;Luís Domingues;MA;-1.3870054984823854;-45.889822953467124;ibge_malha
2106300;210630;Magalhães de Almeida;MA;-3.2993706376776912;-42.18350102487074;ibge_malha
2106326;210632;Maracaçumé;MA;-1.9842640534857425;-45.99394819116826;ibge_malha
2106359;210635;Marajá do Sena;MA;-4.705007066490068;-45.62849646851016;ibge_malha
2106375;210637;Maranhãozinho;MA;-2.4125584091661336;-45.94690898862841;ibge_malha
2106409;210640;Mata Roma;MA;-3.62590736568722;-43.22735765942299;ibge_malha
2106508;210650;Matinha;MA;-3.0714439112330103;-45.001796866554564;ibge_malha
2106607;210660;Matões;MA;-5.38866528202151;-43.307246947709515;ibge_malha
2106631;210663;Matões do Norte;MA;-3.756634673784563;-44.477705940558906;ibge_malha
2106672;210667;Milagres do Maranhão;MA;-3.4965374586431586;-42.79490899625138;ibge_malha
2106706;210670;Mirador;MA;-6.453883906787058;-44.95099908875655;ibge_malha
2106755;210675;Miranda do Norte;MA;-3.531399735348277;-44.52684111017506;ibge_malha
2106805;210680;Mirinzal;MA;-2.0586922444920277;-44.84326300775197;ibge_malha
2106904;210690;Monção;MA;-3.4906417066310236;-45.321047035247446;ibge_malha
2107001;210700;Montes Altos;MA;-5.8579871829677845;-47.041553698342014;ibge_malha
2107100;210710;Morros;MA;-2.974070213610039;-43.77673054172132;ibge_malha
2107209;210720;Nina Rodrigues;MA;-3.428831092593891;-43.812932740500585;ibge_malha
2107258;210725;Nova Colinas;MA;-7.144307202599834;-46.26452106749842;ibge_malha
2107308;210730;Nova Iorque;MA;-6.749966164790066;-44.04005928937519;ibge_malha
2107357;210735;Nova Olinda do Maranhão;MA;-2.896035501680589;-45.95527624997973;ibge_malha
2107407;210740;Olho d'Água das Cunhãs;MA;-4.094616509282253;-45.12034924015144;ibge_malha
2107456;210745;Olinda Nova do Maranhão;MA;-2.975549656416665;-45.00886441986924;ibge_malha
2107506;210750;Paço do Lumiar;MA;-2.5052443794920567;-44.12409358559698;ibge_malha
2107605;210760;Palmeirândia;MA;-2.691981185929301;-45.02339577170126;ibge_malha
2107704;210770;Paraibano;MA;-6.403783327072982;-43.92399565396723;ibge_malha
2107803;210780;Parnarama;MA;-5.637850150978733;-43.46283880025212;ibge_malha
2107902;210790;Passagem Franca;MA;-6.152671096641538;-43.758366227063846;ibge_malha
2108009;210800;Pastos Bons;MA;-6.6322189851663405;-44.180642384796144;ibge_malha
2108058;210805;Paulino Neves;MA;-2.8546606792230116;-42.61093396414943;ibge_malha
2108108;210810;Paulo Ramos;MA;-4.521933099114983;-45.39438308346533;ibge_malha
2108207;210820;Pedreiras;MA;-4.6180708070977525;-44.581393374434256;ibge_malha
2108256;210825;Pedro do Rosário;MA;-2.989011062050882;-45.43076558221547;ibge_malha
2108306;210830;Penalva;MA;-3.2515691101996653;-45.297781677236124;ibge_malha
2108405;210840;Peri Mirim;MA;-2.570553833919314;-44.89580695632779;ibge_malha
2108454;210845;Peritoró;MA;-4.419830714201745;-44.28117831905569;ibge_malha
2108504;210850;Pindaré-Mirim;MA;-3.693283198784017;-45.44016247623696;ibge_malha
2108603;210860;Pinheiro;MA;-2.4981097423414695;-45.12689926048424;ibge_malha
2108702;210870;Pio XII;MA;-3.851523264292189;-45.093163209503736;ibge_malha
2108801;210880;Pirapemas;MA;-3.7828383723912444;-44.17258974568612;ibge_malha
2108900;210890;Poção de Pedras;MA;-4.786825929841485;-44.91183170663979;ibge_malha
2109007;210900;Porto Franco;MA;-6.368743571826897;-47.17993029803443;ibge_malha
2109056;210905;Porto Rico do Maranhão;MA;-1.8838834983695962;-44.633145693278564;ibge_malha
2109106;210910;Presidente Dutra;MA;-5.283072442912606;-44.457095826688885;ibge_malha
2109205;210920;Presidente Juscelino;MA;-3.089633420152343;-44.07789762788207;ibge_malha
2109239;210923;Presidente Médici;MA;-2.318955793106173;-45.7733770444345;ibge_malha
2109270;210927;Presidente Sarney;MA;-2.5866562603083176;-45.36151976950525;ibge_malha
2109304;210930;Presidente Vargas;MA;-3.3460980044409814;-43.95590937722678;ibge_malha
2109403;210940;Primeira Cruz;MA;-2.709182674261171;-43.362797942455714;ibge_malha
2109452;210945;Raposa;MA;-2.43758688794468;-44.0896874739705;ibge_malha
2109502;210950;Riachão;MA;-7.597916747563648;-46.65940696159107;ibge_malha
2109551;210955;Ribamar Fiquene;MA;-5.958392632117507;-47.316112894765894;ibge_malha
2109601;210960;Rosário;MA;-2.956305782899147;-44.20188209540894;ibge_malha
2109700;210970;Sambaíba;MA;-7.43181115515174;-45.55626260420942;ibge_malha
2109759;210975;Santa Filomena do Maranhão;MA;-5.518980005748248;-44.618516804274236;ibge_malha
2109809;210980;Santa Helena;MA;-2.4189486776702265;-45.371082262070196;ibge_malha
2109908;210990;Santa Inês;MA;-3.873512236444681;-45.436749083804564;ibge_malha
2110005;211000;Santa Luzia;MA;-4.269901607673839;-45.93160381967888;ibge_malha
2110039;211003;Santa Luzia do Paruá;MA;-2.539929178770116;-45.77227358655829;ibge_malha
2110104;211010;Santa Quitéria do Maranhão;MA;-3.3451958432361635;-42.87998896479292;ibge_malha
2110203;211020;Santa Rita;MA;-3.1595315488115423;-44.328705045641115;ibge_malha
2110237;211023;Santana do Maranhão;MA;-3.197209063833931;-42.614683077348786;ibge_malha
2110278;211027;Santo Amaro do Maranhão;MA;-2.6232274215271967;-43.184092614041774;ibge_malha
2110302;211030;Santo Antônio dos Lopes;MA;-4.826395532087359;-44.48115612497508;ibge_malha
2110401;211040;São Benedito do Rio Preto;MA;-3.3753387232679675;-43.61845034865505;ibge_malha
2110500;211050;São Bento;MA;-2.7980635547141124;-44.9992784851231;ibge_malha
2110609;211060;São Bernardo;MA;-3.31199302262113;-42.406056228526964;ibge_malha
2110658;211065;São Domingos do Azeitão;MA;-6.8332115437168515;-44.617369403670615;ibge_malha
2110708;211070;São Domingos do Maranhão;MA;-5.63822473317896;-44.33656493773915;ibge_malha
2110807;211080;São Félix de Balsas;MA;-7.091894581218637;-44.88346688565582;ibge_malha
2110856;211085;São Francisco do Brejão;MA;-5.158495794702074;-47.35370628396558;ibge_malha
2110906;211090;São Francisco do Maranhão;MA;-6.208665151404183;-43.1139126969663;ibge_malha
2111003;211100;São João Batista;MA;-3.006029571200615;-44.76458576086205;ibge_malha
2111029;211102;São João do Carú;MA;-3.5108466710704427;-46.37906162014668;ibge_malha
2111052;211105;São João do Paraíso;MA;-6.463382173120993;-46.90043495579683;ibge_malha
2111078;211107;São João do Soter;MA;-5.0401770025629355;-43.766642374507725;ibge_malha
2111102;211110;São João dos Patos;MA;-6.559405079671951;-43.63807391715143;ibge_malha
2111201;211120;São José de Ribamar;MA;-2.5742675957685526;-44.13052053036586;ibge_malha
2111250;211125;São José dos Basílios;MA;-5.03980622458483;-44.56835099869484;ibge_malha
2111300;211130;São Luís;MA;-2.633681950647707;-44.28089462646947;ibge_malha
2111409;211140;São Luís Gonzaga do Maranhão;MA;-4.377382302801017;-44.623131487116126;ibge_malha
2111508;211150;São Mateus do Maranhão;MA;-3.9902005042235187;-44.527652399148806;ibge_malha
2111532;211153;São Pedro da Água Branca;MA;-5.13351204915374;-48.368971233567365;ibge_malha
2111573;211157;São Pedro dos Crentes;MA;-6.819529875407331;-46.707404258982685;ibge_malha
2111607;211160;São Raimundo das Mangabeiras;MA;-7.013839988088934;-45.69095375535883;ibge_malha
2111631;211163;São Raimundo do Doca Bezerra;MA;-5.0896753149235705;-45.14620493927025;ibge_malha
2111672;211167;São Roberto;MA;-5.018799118181647;-45.03475123478382;ibge_malha
2111706;211170;São Vicente Ferrer;MA;-2.8772139771201233;-44.94155775891748;ibge_malha
2111722;211172;Satubinha;MA;-3.938616800758191;-45.259224765797086;ibge_malha
2111748;211174;Senador Alexandre Costa;MA;-5.261041184404612;-43.98463276384124;ibge_malha
2111763;211176;Senador La Rocque;MA;-5.38853359240573;-47.14434800804857;ibge_malha
2111789;211178;Serrano do Maranhão;MA;-1.8733409427663943;-45.01732844471312;ibge_malha
2111805;211180;Sítio Novo;MA;-6.227861327862944;-46.59558162645198;ibge_malha
2111904;211190;Sucupira do Norte;MA;-6.509847368480827;-44.33900740488674;ibge_malha
2111953;211195;Sucupira do Riachão;MA;-6.406769539466119;-43.48519883296731;ibge_malha
2112001;211200;Tasso Fragoso;MA;-8.33201029756459;-45.88629970272241;ibge_malha
2112100;211210;Timbiras;MA;-4.1530392317979326;-43.813488954055295;ibge_malha
2112209;211220;Timon;MA;-5.185592405669645;-42.98107035412624;ibge_malha
2112233;211223;Trizidela do Vale;MA;-4.539298877332965;-44.681776637802166;ibge_malha
2112274;211227;Tufilândia;MA;-3.7580837036196644;-45.58129062907987;ibge_malha
2112308;211230;Tuntum;MA;-5.6104102254571515;-44.730623202565525;ibge_malha
2112407;211240;Turiaçu;MA;-1.765265676918634;-45.46308410830391;ibge_malha
2112456;211245;Turilândia;MA;-2.1589701916767434;-45.43759073045855;ibge_malha
2112506;211250;Tutóia;MA;-2.9231273295859803;-42.39063238933561;ibge_malha
2112605;211260;Urbano Santos;MA;-3.260250967288975;-43.2809531475898;ibge_malha
2112704;211270;Vargem Grande;MA;-3.7108805322370233;-43.85380823655815;ibge_malha
2112803;211280;Viana;MA;-3.156299638230416;-45.00251564259978;ibge_malha
2112852;211285;Vila Nova dos Martírios;MA;-5.074803855876715;-48.080498469610006;ibge_malha
2112902;211290;Vitória do Mearim;MA;-3.5680850124239303;-44.92213801392979;ibge_malha
2113009;211300;Vitorino Freire;MA;-4.243718556826372;-45.31249216875829;ibge_malha
2114007;211400;Zé Doca;MA;-3.2598807595711374;-45.912607245560146;ibge_malha
2200053;220005;Acauã;PI;-8.305964044016244;-41.00167323009781;ibge_malha
2200103;220010;Agricolândia;PI;-5.768163138588838;-42.68236382248099;ibge_malha
2200202;220020;Água Branca;PI;-5.914074827678177;-42.628128971139525;ibge_malha
2200251;220025;Alagoinha do Piauí;PI;-6.929334087688347;-40.9197450522822;ibge_malha
2200277;220027;Alegrete do Piauí;PI;-7.200502098919271;-40.79749344072673;ibge_malha
2200301;220030;Alto Longá;PI;-5.379435493097338;-42.154698056950636;ibge_malha
2200400;220040;Altos;PI;-5.014791713660343;-42.46971429284933;ibge_malha
2200459;220045;Alvorada do Gurguéia;PI;-8.455980756821004;-43.96835491358638;ibge_malha
2200509;220050;Amarante;PI;-6.370319737836776;-42.78784357913069;ibge_malha
2200608;220060;Angical do Piauí;PI;-6.106951088140566;-42.75036882795937;ibge_malha
2200707;220070;Anísio de Abreu;PI;-9.214105600725746;-43.04197072338412;ibge_malha
2200806;220080;Antônio Almeida;PI;-7.2193933527216805;-44.20271116049477;ibge_malha
2200905;220090;Aroazes;PI;-6.12448183774809;-41.83028484183605;ibge_malha
2200954;220095;Aroeiras do Itaim;PI;-7.250354949901004;-41.53431653279485;ibge_malha
2201002;220100;Arraial;PI;-6.618084382987356;-42.520297246919746;ibge_malha
2201051;220105;Assunção do Piauí;PI;-5.879978832543681;-41.06876826810671;ibge_malha
2201101;220110;Avelino Lopes;PI;-10.17971645395318;-43.94236397481925;ibge_malha
2201150;220115;Baixa Grande do Ribeiro;PI;-8.50573719521176;-45.160975926518006;ibge_malha
2201176;220117;Barra D'Alcântara;PI;-6.529591350545245;-42.10651285564313;ibge_malha
2201200;220120;Barras;PI;-4.189916960595251;-42.36806245851676;ibge_malha
2201309;220130;Barreiras do Piauí;PI;-10.003460302344365;-45.71041288052252;ibge_malha
2201408;220140;Barro Duro;PI;-5.801874745568239;-42.502741481433155;ibge_malha
2201507;220150;Batalha;PI;-4.017588938845901;-42.05787249399939;ibge_malha
2201556;220155;Bela Vista do Piauí;PI;-7.9961500332575435;-41.85570278873353;ibge_malha
2201572;220157;Belém do Piauí;PI;-7.3900088811853655;-40.982424761415274;ibge_malha
2201606;220160;Beneditinos;PI;-5.499406974436039;-42.39992649850977;ibge_malha
2201705;220170;Bertolínia;PI;-7.744974834774514;-43.87720866042128;ibge_malha
2201739;220173;Betânia do Piauí;PI;-8.113515069040343;-40.75118979574771;ibge_malha
2201770;220177;Boa Hora;PI;-4.354185763971903;-42.10595896979075;ibge_malha
2201804;220180;Bocaina;PI;-6.905976295422218;-41.30419657065839;ibge_malha
2201903;220190;Bom Jesus;PI;-9.245735064592694;-44.540199028737405;ibge_malha
2201919;220191;Bom Princípio do Piauí;PI;-3.157414158455241;-41.63063323163313;ibge_malha
2201929;220192;Bonfim do Piauí;PI;-9.171359898858535;-42.87582671721016;ibge_malha
2201945;220194;Boqueirão do Piauí;PI;-4.540174936180959;-42.111524598047744;ibge_malha
2201960;220196;Brasileira;PI;-4.120839730392304;-41.63665944145877;ibge_malha
2201988;220198;Brejo do Piauí;PI;-8.382433096841549;-42.79094990906361;ibge_malha
2202000;220200;Buriti dos Lopes;PI;-3.239242331709842;-41.80417500798357;ibge_malha
2202026;220202;Buriti dos Montes;PI;-5.162301707104129;-41.199881236614935;ibge_malha
2202059;220205;Cabeceiras do Piauí;PI;-4.432012451370835;-42.33370049228939;ibge_malha
2202075;220207;Cajazeiras do Piauí;PI;-6.781857871351149;-42.45931316116366;ibge_malha
2202083;220208;Cajueiro da Praia;PI;-2.9926966701520206;-41.361590957632124;ibge_malha
2202091;220209;Caldeirão Grande do Piauí;PI;-7.308001122060739;-40.62280339880493;ibge_malha
2202109;220210;Campinas do Piauí;PI;-7.656543322732082;-41.87136974339306;ibge_malha
2202117;220211;Campo Alegre do Fidalgo;PI;-8.28281806220949;-41.821482785205255;ibge_malha
2202133;220213;Campo Grande do Piauí;PI;-7.183155041692571;-41.06534446021604;ibge_malha
2202174;220217;Campo Largo do Piauí;PI;-3.881041235648307;-42.54603688630998;ibge_malha
2202208;220220;Campo Maior;PI;-4.87699877512575;-42.144982384643725;ibge_malha
2202251;220225;Canavieira;PI;-7.557697966174316;-43.55860498726965;ibge_malha
2202307;220230;Canto do Buriti;PI;-8.342565660968141;-43.33759600234154;ibge_malha
2202406;220240;Capitão de Campos;PI;-4.522726311095698;-41.90106321182201;ibge_malha
2202455;220245;Capitão Gervásio Oliveira;PI;-8.52925110994659;-41.90125968443238;ibge_malha
2202505;220250;Caracol;PI;-9.089103606697874;-43.34673268063106;ibge_malha
2202539;220253;Caraúbas do Piauí;PI;-3.5648110860213924;-41.824266341837365;ibge_malha
2202554;220255;Caridade do Piauí;PI;-7.703615499174436;-40.95584845367071;ibge_malha
2202604;220260;Castelo do Piauí;PI;-5.326587528333369;-41.56699689021794;ibge_malha
2202653;220265;Caxingó;PI;-3.3918950320574113;-41.85058004748832;ibge_malha
2202703;220270;Cocal;PI;-3.4536692662760466;-41.542288328269954;ibge_malha
2202711;220271;Cocal de Telha;PI;-4.616822739321857;-41.95763359503758;ibge_malha
2202729;220272;Cocal dos Alves;PI;-3.6303256476151295;-41.42084979539429;ibge_malha
2202737;220273;Coivaras;PI;-5.099881055245355;-42.28427221251197;ibge_malha
2202752;220275;Colônia do Gurguéia;PI;-8.181311496424717;-43.69623640924897;ibge_malha
2202778;220277;Colônia do Piauí;PI;-7.293846079364262;-42.18701127989741;ibge_malha
2202802;220280;Conceição do Canindé;PI;-7.914575616953713;-41.58089266892864;ibge_malha
2202851;220285;Coronel José Dias;PI;-8.897338914225038;-42.33424425473129;ibge_malha
2202901;220290;Corrente;PI;-10.391606105679694;-45.139673700936626;ibge_malha
2203008;220300;Cristalândia do Piauí;PI;-10.74188539956193;-45.11362024898457;ibge_malha
2203107;220310;Cristino Castro;PI;-8.782197569412032;-43.96150157241633;ibge_malha
2203206;220320;Curimatá;PI;-9.940681434067672;-44.3064952673174;ibge_malha
2203230;220323;Currais;PI;-8.822490977099802;-44.67331321344737;ibge_malha
2203255;220325;Curralinhos;PI;-5.616100297547533;-42.846699812806996;ibge_malha
2203271;220327;Curral Novo do Piauí;PI;-7.8877118363684895;-40.77094114953104;ibge_malha
2203305;220330;Demerval Lobão;PI;-5.339274010713785;-42.67164057008058;ibge_malha
2203354;220335;Dirceu Arcoverde;PI;-9.329754743253234;-42.4601181938565;ibge_malha
2203404;220340;Dom Expedito Lopes;PI;-6.960040183592291;-41.69828471516593;ibge_malha
2203420;220342;Domingos Mourão;PI;-4.255222830971632;-41.309903381425606;ibge_malha
2203453;220345;Dom Inocêncio;PI;-8.91786779803197;-41.92250619206805;ibge_malha
2203503;220350;Elesbão Veloso;PI;-6.184838765035179;-42.19348700968643;ibge_malha
2203602;220360;Eliseu Martins;PI;-7.970224712475297;-43.65932802064197;ibge_malha
2203701;220370;Esperantina;PI;-3.8233711364074643;-42.18967406836658;ibge_malha
2203750;220375;Fartura do Piauí;PI;-9.475700466495717;-42.783976113631184;ibge_malha
2203800;220380;Flores do Piauí;PI;-7.672973985607213;-42.86088312487009;ibge_malha
2203859;220385;Floresta do Piauí;PI;-7.473111999903073;-41.80436684007686;ibge_malha
2203909;220390;Floriano;PI;-7.005808882307984;-43.0793842573213;ibge_malha
2204006;220400;Francinópolis;PI;-6.422997564909604;-42.23401169105767;ibge_malha
2204105;220410;Francisco Ayres;PI;-6.669164666483111;-42.72151496988103;ibge_malha
2204154;220415;Francisco Macedo;PI;-7.320815491635731;-40.78391105623236;ibge_malha
2204204;220420;Francisco Santos;PI;-7.012901369936552;-41.14712479690021;ibge_malha
2204303;220430;Fronteiras;PI;-7.07719440106648;-40.58374179782139;ibge_malha
2204352;220435;Geminiano;PI;-7.187703548317444;-41.33288228429786;ibge_malha
2204402;220440;Gilbués;PI;-9.621870651883016;-45.40778429205835;ibge_malha
2204501;220450;Guadalupe;PI;-6.842385273097328;-43.704699012358645;ibge_malha
2204550;220455;Guaribas;PI;-9.063335354201708;-43.67090127896282;ibge_malha
2204600;220460;Hugo Napoleão;PI;-6.035696131605414;-42.49809753712936;ibge_malha
2204659;220465;Ilha Grande;PI;-2.82886766669405;-41.81415832193952;ibge_malha
2204709;220470;Inhuma;PI;-6.6727400245986415;-41.686029634790934;ibge_malha
2204808;220480;Ipiranga do Piauí;PI;-6.818980143868786;-41.791025385729796;ibge_malha
2204907;220490;Isaías Coelho;PI;-7.650338818949732;-41.64978437202562;ibge_malha
2205003;220500;Itainópolis;PI;-7.410118214059097;-41.48149103285778;ibge_malha
2205102;220510;Itaueira;PI;-7.50499235452102;-43.133708223662744;ibge_malha
2205151;220515;Jacobina do Piauí;PI;-7.8967406578847665;-41.252525322352156;ibge_malha
2205201;220520;Jaicós;PI;-7.3914759791719815;-41.206672526040784;ibge_malha
2205250;220525;Jardim do Mulato;PI;-6.145856988901563;-42.52698562677287;ibge_malha
2205276;220527;Jatobá do Piauí;PI;-4.84151969128944;-41.9183554401605;ibge_malha
2205300;220530;Jerumenha;PI;-7.114971550510558;-43.501553155322064;ibge_malha
2205359;220535;João Costa;PI;-8.541701225421392;-42.48166235684597;ibge_malha
2205409;220540;Joaquim Pires;PI;-3.539616101146874;-42.08250366556373;ibge_malha
2205458;220545;Joca Marques;PI;-3.5457142350516024;-42.42613655873603;ibge_malha
2205508;220550;José de Freitas;PI;-4.71393121452617;-42.524932192423236;ibge_malha
2205516;220551;Juazeiro do Piauí;PI;-4.958320429278221;-41.5895648345465;ibge_malha
2205524;220552;Júlio Borges;PI;-10.425344457983424;-44.17457123071622;ibge_malha
2205532;220553;Jurema;PI;-9.014430505545993;-43.16564861333125;ibge_malha
2205540;220554;Lagoinha do Piauí;PI;-5.820076865873901;-42.62736128723846;ibge_malha
2205557;220555;Lagoa Alegre;PI;-4.489854247132227;-42.56485674970084;ibge_malha
2205565;220556;Lagoa do Barro do Piauí;PI;-8.56853716640098;-41.599806516231766;ibge_malha
2205573;220557;Lagoa de São Francisco;PI;-4.363960327265861;-41.581435020012314;ibge_malha
2205581;220558;Lagoa do Piauí;PI;-5.46129506951846;-42.6076112443874;ibge_malha
2205599;220559;Lagoa do Sítio;PI;-6.49006999692595;-41.48640924728283;ibge_malha
2205607;220560;Landri Sales;PI;-7.2957565572461505;-43.927833471142414;ibge_malha
2205706;220570;Luís Correia;PI;-3.0821537104702057;-41.48169402931863;ibge_malha
2205805;220580;Luzilândia;PI;-3.6067785127507803;-42.36392981293981;ibge_malha
2205854;220585;Madeiro;PI;-3.5649729216812927;-42.52923586269616;ibge_malha
2205904;220590;Manoel Emídio;PI;-8.206307802230869;-44.00763436024315;ibge_malha
2205953;220595;Marcolândia;PI;-7.429489535507555;-40.73613880188042;ibge_malha
2206001;220600;Marcos Parente;PI;-7.076340679869993;-43.89455623859441;ibge_malha
2206050;220605;Massapê do Piauí;PI;-7.535775220677932;-41.09543527434114;ibge_malha
2206100;220610;Matias Olímpio;PI;-3.7073921849577296;-42.58435925643415;ibge_malha
2206209;220620;Miguel Alves;PI;-4.2405176675878575;-42.77356130954129;ibge_malha
2206308;220630;Miguel Leão;PI;-5.7009430908022765;-42.701308109496914;ibge_malha
2206357;220635;Milton Brandão;PI;-4.69876356206475;-41.48998964852553;ibge_malha
2206407;220640;Monsenhor Gil;PI;-5.611003786718702;-42.60965281163235;ibge_malha
2206506;220650;Monsenhor Hipólito;PI;-6.9185283394590895;-41.03803474413471;ibge_malha
2206605;220660;Monte Alegre do Piauí;PI;-9.604228327356104;-45.03043654694258;ibge_malha
2206654;220665;Morro Cabeça no Tempo;PI;-9.8110704087773;-43.92212515169174;ibge_malha
2206670;220667;Morro do Chapéu do Piauí;PI;-3.7056302282181295;-42.26348571765364;ibge_malha
2206696;220669;Murici dos Portelas;PI;-3.3566860989757084;-42.0123851612951;ibge_malha
2206704;220670;Nazaré do Piauí;PI;-7.052254877976783;-42.74562056443678;ibge_malha
2206720;220672;Nazária;PI;-5.445551182576223;-42.86784029975342;ibge_malha
2206753;220675;Nossa Senhora de Nazaré;PI;-4.643596273262541;-42.18889757855748;ibge_malha
2206803;220680;Nossa Senhora dos Remédios;PI;-4.0261620451824305;-42.60614443928269;ibge_malha
2206902;220690;Novo Oriente do Piauí;PI;-6.50106934908784;-41.9768729054227;ibge_malha
2206951;220695;Novo Santo Antônio;PI;-5.278534692686666;-41.9227218908658;ibge_malha
2207009;220700;Oeiras;PI;-6.966338466576806;-42.164994537959736;ibge_malha
2207108;220710;Olho D'Água do Piauí;PI;-5.857698712270362;-42.55213071300252;ibge_malha
2207207;220720;Padre Marcos;PI;-7.377809742427372;-40.881019075770006;ibge_malha
2207306;220730;Paes Landim;PI;-7.812745043448795;-42.285168007507785;ibge_malha
2207355;220735;Pajeú do Piauí;PI;-7.903961257687158;-42.83350959160234;ibge_malha
2207405;220740;Palmeira do Piauí;PI;-8.556777034099118;-44.46453215253693;ibge_malha
2207504;220750;Palmeirais;PI;-5.883256843201382;-42.95578251479638;ibge_malha
2207553;220755;Paquetá;PI;-7.131538341790317;-41.685642238299806;ibge_malha
2207603;220760;Parnaguá;PI;-10.315721285754353;-44.56845012794963;ibge_malha
2207702;220770;Parnaíba;PI;-2.959176770562604;-41.75345234221984;ibge_malha
2207751;220775;Passagem Franca do Piauí;PI;-5.872963978079115;-42.41329752288708;ibge_malha
2207777;220777;Patos do Piauí;PI;-7.67383207680931;-41.29614521831254;ibge_malha
2207793;220779;Pau D'Arco do Piauí;PI;-5.245029094274935;-42.47093984521503;ibge_malha
2207801;220780;Paulistana;PI;-8.110398632642163;-41.145035435099715;ibge_malha
2207850;220785;Pavussu;PI;-7.925271456649912;-43.3372292720623;ibge_malha
2207900;220790;Pedro II;PI;-4.495410050348385;-41.39703064337424;ibge_malha
2207934;220793;Pedro Laurentino;PI;-8.073176698889478;-42.26533869573087;ibge_malha
2207959;220795;Nova Santa Rita;PI;-8.119466679311968;-42.023708385927584;ibge_malha
2208007;220800;Picos;PI;-7.0589150505722955;-41.52232389218417;ibge_malha
2208106;220810;Pimenteiras;PI;-6.344723076930249;-41.16638385873948;ibge_malha
2208205;220820;Pio IX;PI;-6.790285441482108;-40.71809557415448;ibge_malha
2208304;220830;Piracuruca;PI;-3.8535823295989338;-41.614514030108225;ibge_malha
2208403;220840;Piripiri;PI;-4.330951577202243;-41.771372114917206;ibge_malha
2208502;220850;Porto;PI;-3.949989529727061;-42.7076343412645;ibge_malha
2208551;220855;Porto Alegre do Piauí;PI;-6.956354485475685;-44.05721599889387;ibge_malha
2208601;220860;Prata do Piauí;PI;-5.7252619297610385;-42.16662067673365;ibge_malha
2208650;220865;Queimada Nova;PI;-8.516104488306281;-41.351018918560236;ibge_malha
2208700;220870;Redenção do Gurguéia;PI;-9.524373561498429;-44.45491489606968;ibge_malha
2208809;220880;Regeneração;PI;-6.352438310705326;-42.49048793799802;ibge_malha
2208858;220885;Riacho Frio;PI;-9.930555510422613;-44.812902691113905;ibge_malha
2208874;220887;Ribeira do Piauí;PI;-7.927783474663019;-42.61355258216131;ibge_malha
2208908;220890;Ribeiro Gonçalves;PI;-7.9741921094463235;-45.34559587501608;ibge_malha
2209005;220900;Rio Grande do Piauí;PI;-7.771066044085684;-43.15220170010677;ibge_malha
2209104;220910;Santa Cruz do Piauí;PI;-7.237059021638561;-41.774482042399434;ibge_malha
2209153;220915;Santa Cruz dos Milagres;PI;-5.907959660835286;-41.868591707045134;ibge_malha
2209203;220920;Santa Filomena;PI;-8.990546027126207;-45.675557794463884;ibge_malha
2209302;220930;Santa Luz;PI;-9.045194377079143;-44.10543820687887;ibge_malha
2209351;220935;Santana do Piauí;PI;-6.940745220901183;-41.49506925722941;ibge_malha
2209377;220937;Santa Rosa do Piauí;PI;-6.809348273632671;-42.227510869568626;ibge_malha
2209401;220940;Santo Antônio de Lisboa;PI;-6.90676323978989;-41.20739303643732;ibge_malha
2209450;220945;Santo Antônio dos Milagres;PI;-6.050093224497934;-42.70263019633451;ibge_malha
2209500;220950;Santo Inácio do Piauí;PI;-7.4582090073782945;-42.01433419046507;ibge_malha
2209559;220955;São Braz do Piauí;PI;-8.962845527616777;-43.00787557560985;ibge_malha
2209609;220960;São Félix do Piauí;PI;-5.935570466272453;-42.10293756491309;ibge_malha
2209658;220965;São Francisco de Assis do Piauí;PI;-8.193429226677141;-41.583481846570116;ibge_malha
2209708;220970;São Francisco do Piauí;PI;-7.19861626180901;-42.501002613947506;ibge_malha
2209757;220975;São Gonçalo do Gurguéia;PI;-10.088255477671872;-45.321675591912694;ibge_malha
2209807;220980;São Gonçalo do Piauí;PI;-6.002824628959612;-42.65222832309959;ibge_malha
2209856;220985;São João da Canabrava;PI;-6.691938057452798;-41.39159125528906;ibge_malha
2209872;220987;São João da Fronteira;PI;-3.992362609241594;-41.28380298894792;ibge_malha
2209906;220990;São João da Serra;PI;-5.542500422879418;-41.87785772201239;ibge_malha
2209955;220995;São João da Varjota;PI;-6.956542841655539;-41.882145645862984;ibge_malha
2209971;220997;São João do Arraial;PI;-3.8188645412853237;-42.44939867712634;ibge_malha
2210003;221000;São João do Piauí;PI;-8.320431928821352;-42.25738284875959;ibge_malha
2210052;221005;São José do Divino;PI;-3.774481755936397;-41.86101392903506;ibge_malha
2210102;221010;São José do Peixe;PI;-7.482433834097194;-42.58230041074919;ibge_malha
2210201;221020;São José do Piauí;PI;-6.814969178046682;-41.49103770553801;ibge_malha
2210300;221030;São Julião;PI;-7.081570911739728;-40.82057810734241;ibge_malha
2210359;221035;São Lourenço do Piauí;PI;-9.171663862383326;-42.53548883751319;ibge_malha
2210375;221037;São Luis do Piauí;PI;-6.764517005690943;-41.26342542268684;ibge_malha
2210383;221038;São Miguel da Baixa Grande;PI;-5.818829747276102;-42.272987579110875;ibge_malha
2210391;221039;São Miguel do Fidalgo;PI;-7.596756979998426;-42.332665968487845;ibge_malha
2210409;221040;São Miguel do Tapuio;PI;-5.741032513567972;-41.43978404732604;ibge_malha
2210508;221050;São Pedro do Piauí;PI;-5.818178969912519;-42.786595858811694;ibge_malha
2210607;221060;São Raimundo Nonato;PI;-8.965659081633186;-42.715633255709776;ibge_malha
2210623;221062;Sebastião Barros;PI;-10.65438031842186;-44.83335384803599;ibge_malha
2210631;221063;Sebastião Leal;PI;-7.745032184784896;-44.092564847098735;ibge_malha
2210656;221065;Sigefredo Pacheco;PI;-4.975533255169568;-41.80512677694603;ibge_malha
2210706;221070;Simões;PI;-7.670990825596304;-40.74172690246592;ibge_malha
2210805;221080;Simplício Mendes;PI;-7.798902115216419;-42.021381955888636;ibge_malha
2210904;221090;Socorro do Piauí;PI;-7.896673064872405;-42.47638866687356;ibge_malha
2210938;221093;Sussuapara;PI;-7.019047178216091;-41.3561877989501;ibge_malha
2210953;221095;Tamboril do Piauí;PI;-8.485805738398271;-43.08210611385473;ibge_malha
2210979;221097;Tanque do Piauí;PI;-6.662151535655896;-42.266224777995525;ibge_malha
2211001;221100;Teresina;PI;-5.1026516513853135;-42.74060466904587;ibge_malha
2211100;221110;União;PI;-4.595345047024458;-42.7950283435351;ibge_malha
2211209;221120;Uruçuí;PI;-7.791879797775078;-44.569475665486465;ibge_malha
2211308;221130;Valença do Piauí;PI;-6.367106684012857;-41.798957787844486;ibge_malha
2211357;221135;Várzea Branca;PI;-9.322697429552194;-42.92165327519745;ibge_malha
2211407;221140;Várzea Grande;PI;-6.55362508943717;-42.225445925449904;ibge_malha
2211506;221150;Vera Mendes;PI;-7.5976979332258505;-41.51856636721031;ibge_malha
2211605;221160;Vila Nova do Piauí;PI;-7.202132445974505;-40.93616828662798;ibge_malha
2211704;221170;Wall Ferraz;PI;-7.265642645969319;-41.877650211666825;ibge_malha
2300101;230010;Abaiara;CE;-7.360571428668931;-39.03682710588201;ibge_malha
2300150;230015;Acarape;CE;-4.216832941574437;-38.66212301297252;ibge_malha
2300200;230020;Acaraú;CE;-2.9678754130589797;-40.088142906046656;ibge_malha
2300309;230030;Acopiara;CE;-6.122030386770113;-39.49384337307866;ibge_malha
2300408;230040;Aiuaba;CE;-6.605147159702536;-40.29859354868031;ibge_malha
2300507;230050;Alcântaras;CE;-3.5922676167326153;-40.54298740852626;ibge_malha
2300606;230060;Altaneira;CE;-6.985605709560574;-39.69930102490087;ibge_malha
2300705;230070;Alto Santo;CE;-5.516157075354352;-38.24088002962994;ibge_malha
2300754;230075;Amontada;CE;-3.239594514730102;-39.785165893930426;ibge_malha
2300804;230080;Antonina do Norte;CE;-6.756498581715672;-39.981275695068916;ibge_malha
2300903;230090;Apuiarés;CE;-3.968314613999151;-39.330700475801954;ibge_malha
2301000;230100;Aquiraz;CE;-3.9765871536681505;-38.39410131024288;ibge_malha
2301109;230110;Aracati;CE;-4.680977237665802;-37.6854956838832;ibge_malha
2301208;230120;Aracoiaba;CE;-4.482977486173741;-38.713458942605264;ibge_malha
2301257;230125;Ararendá;CE;-4.772967391837667;-40.74626254299399;ibge_malha
2301307;230130;Araripe;CE;-7.239279228403539;-40.076552076523214;ibge_malha
2301406;230140;Aratuba;CE;-4.417356158114853;-39.024946554827004;ibge_malha
2301505;230150;Arneiroz;CE;-6.239373622938091;-40.15495791308949;ibge_malha
2301604;230160;Assaré;CE;-6.9096398973917275;-39.86923229282062;ibge_malha
2301703;230170;Aurora;CE;-6.988906296352979;-38.969124649741794;ibge_malha
2301802;230180;Baixio;CE;-6.711454020282737;-38.75301694701229;ibge_malha
2301851;230185;Banabuiú;CE;-5.262194130195312;-38.90362868016106;ibge_malha
2301901;230190;Barbalha;CE;-7.403759304570219;-39.34458241405455;ibge_malha
2301950;230195;Barreira;CE;-4.322147471465854;-38.62049200331321;ibge_malha
2302008;230200;Barro;CE;-7.125536611370138;-38.793910872882584;ibge_malha
2302057;230205;Barroquinha;CE;-2.970608799401013;-41.17365309395452;ibge_malha
2302107;230210;Baturité;CE;-4.38335826438907;-38.850983169956514;ibge_malha
2302206;230220;Beberibe;CE;-4.401730799633008;-38.11291190439281;ibge_malha
2302305;230230;Bela Cruz;CE;-3.053459465430824;-40.30800763407203;ibge_malha
2302404;230240;Boa Viagem;CE;-5.087821869923311;-39.80790177529925;ibge_malha
2302503;230250;Brejo Santo;CE;-7.555749045106765;-38.921258608920766;ibge_malha
2302602;230260;Camocim;CE;-2.949804354533754;-40.8008625978385;ibge_malha
2302701;230270;Campos Sales;CE;-6.936723639765405;-40.27131979248239;ibge_malha
2302800;230280;Canindé;CE;-4.402108437875256;-39.43036040631244;ibge_malha
2302909;230290;Capistrano;CE;-4.467809924101388;-38.9079484898934;ibge_malha
2303006;230300;Caridade;CE;-4.203809836982421;-39.10988070263608;ibge_malha
2303105;230310;Cariré;CE;-3.9518779823324297;-40.52169314818028;ibge_malha
2303204;230320;Caririaçu;CE;-7.021823803377296;-39.274880455057996;ibge_malha
2303303;230330;Cariús;CE;-6.6419926215072564;-39.46411035547883;ibge_malha
2303402;230340;Carnaubal;CE;-4.130113039041315;-41.010218314260484;ibge_malha
2303501;230350;Cascavel;CE;-4.239065689578646;-38.297084099508915;ibge_malha
2303600;230360;Catarina;CE;-6.252779542960148;-39.90966063558544;ibge_malha
2303659;230365;Catunda;CE;-4.6295869420520726;-40.17501547104675;ibge_malha
2303709;230370;Caucaia;CE;-3.78359824121868;-38.809689779069885;ibge_malha
2303808;230380;Cedro;CE;-6.569749033546847;-39.0931890580207;ibge_malha
2303907;230390;Chaval;CE;-3.092646933700043;-41.23256065622568;ibge_malha
2303931;230393;Choró;CE;-4.7723094116682425;-39.1911011345525;ibge_malha
2303956;230395;Chorozinho;CE;-4.3023260208541325;-38.4683306344748;ibge_malha
2304004;230400;Coreaú;CE;-3.6415020990975733;-40.72632578295145;ibge_malha
2304103;230410;Crateús;CE;-5.199313175732134;-40.71957223456586;ibge_malha
2304202;230420;Crato;CE;-7.235625882368352;-39.489940498516354;ibge_malha
2304236;230423;Croatá;CE;-4.38774113352582;-40.97511759263315;ibge_malha
2304251;230425;Cruz;CE;-2.896533161848456;-40.32328409087254;ibge_malha
2304269;230426;Deputado Irapuan Pinheiro;CE;-5.887035735007744;-39.266164750800584;ibge_malha
2304277;230427;Ereré;CE;-5.9850125773141185;-38.312026670076484;ibge_malha
2304285;230428;Eusébio;CE;-3.8759717926741697;-38.457589725003274;ibge_malha
2304301;230430;Farias Brito;CE;-6.909464807269338;-39.54907298360185;ibge_malha
2304350;230435;Forquilha;CE;-3.8223526109877906;-40.22547414894139;ibge_malha
2304400;230440;Fortaleza;CE;-3.7858685975325743;-38.5279982766017;ibge_malha
2304459;230445;Fortim;CE;-4.464401181779328;-37.87372207755719;ibge_malha
2304509;230450;Frecheirinha;CE;-3.7108098458369354;-40.82275716646416;ibge_malha
2304608;230460;General Sampaio;CE;-4.06392901857254;-39.45113389669999;ibge_malha
2304657;230465;Graça;CE;-4.045693444182053;-40.773987472963206;ibge_malha
2304707;230470;Granja;CE;-3.230607311457177;-41.00172097472654;ibge_malha
2304806;230480;Granjeiro;CE;-6.9116830022415865;-39.25216379940773;ibge_malha
2304905;230490;Groaíras;CE;-3.912354958447475;-40.365300448759555;ibge_malha
2304954;230495;Guaiúba;CE;-4.102259739973509;-38.66984640534407;ibge_malha
2305001;230500;Guaraciaba do Norte;CE;-4.2327680003198385;-40.915405464594656;ibge_malha
2305100;230510;Guaramiranga;CE;-4.246603678932825;-38.95658435997183;ibge_malha
2305209;230520;Hidrolândia;CE;-4.432555827915279;-40.405053533577025;ibge_malha
2305233;230523;Horizonte;CE;-4.102200697421981;-38.46500351614555;ibge_malha
2305266;230526;Ibaretama;CE;-4.780038422822797;-38.72480451101964;ibge_malha
2305308;230530;Ibiapina;CE;-3.951117902799704;-41.00619900852957;ibge_malha
2305332;230533;Ibicuitinga;CE;-4.974579121928095;-38.55689271757495;ibge_malha
2305357;230535;Icapuí;CE;-4.7386094843478;-37.41060654142303;ibge_malha
2305407;230540;Icó;CE;-6.389036625267912;-38.78340161947718;ibge_malha
2305506;230550;Iguatu;CE;-6.358477952892346;-39.28186599888464;ibge_malha
2305605;230560;Independência;CE;-5.473783390589122;-40.34128412949376;ibge_malha
2305654;230565;Ipaporanga;CE;-4.909676522031539;-40.80418541035432;ibge_malha
2305704;230570;Ipaumirim;CE;-6.809171296592929;-38.74305490408855;ibge_malha
2305803;230580;Ipu;CE;-4.3696599526581315;-40.66914091576589;ibge_malha
2305902;230590;Ipueiras;CE;-4.572793009719501;-40.8768753864422;ibge_malha
2306009;230600;Iracema;CE;-5.777892908033565;-38.33823257941278;ibge_malha
2306108;230610;Irauçuba;CE;-3.8657880184256577;-39.81759864967288;ibge_malha
2306207;230620;Itaiçaba;CE;-4.717550621606649;-37.84716740042034;ibge_malha
2306256;230625;Itaitinga;CE;-3.9980303320339687;-38.549952119700706;ibge_malha
2306306;230630;Itapajé;CE;-3.7327795722824106;-39.575037612066915;ibge_malha
2306405;230640;Itapipoca;CE;-3.395235178128501;-39.59829772144882;ibge_malha
2306504;230650;Itapiúna;CE;-4.595511805853642;-38.952059803802214;ibge_malha
2306553;230655;Itarema;CE;-3.0498512081221856;-39.88905561293607;ibge_malha
2306603;230660;Itatira;CE;-4.625512459534083;-39.5782809968571;ibge_malha
2306702;230670;Jaguaretama;CE;-5.491775296381695;-38.74795010223105;ibge_malha
2306801;230680;Jaguaribara;CE;-5.611009418851099;-38.525029755490884;ibge_malha
2306900;230690;Jaguaribe;CE;-5.961294684858577;-38.70498605933334;ibge_malha
2307007;230700;Jaguaruana;CE;-4.865700452087616;-37.746661758897005;ibge_malha
2307106;230710;Jardim;CE;-7.590325303921311;-39.24804074519145;ibge_malha
2307205;230720;Jati;CE;-7.691956216941498;-38.99234976559744;ibge_malha
2307254;230725;Jijoca de Jericoacoara;CE;-2.8777544777502593;-40.49529324287905;ibge_malha
2307304;230730;Juazeiro do Norte;CE;-7.182814211506161;-39.28616771435244;ibge_malha
2307403;230740;Jucás;CE;-6.45802115006323;-39.607274175702074;ibge_malha
2307502;230750;Lavras da Mangabeira;CE;-6.777986962590445;-38.99456234202821;ibge_malha
2307601;230760;Limoeiro do Norte;CE;-5.158100958071714;-38.046109571085125;ibge_malha
2307635;230763;Madalena;CE;-4.857932954687107;-39.50895174669774;ibge_malha
2307650;230765;Maracanaú;CE;-3.874543883075794;-38.62710948701976;ibge_malha
2307700;230770;Maranguape;CE;-4.006665508384565;-38.81211879001656;ibge_malha
2307809;230780;Marco;CE;-3.1895589967908657;-40.26177741215907;ibge_malha
2307908;230790;Martinópole;CE;-3.1696326912341655;-40.648781506626115;ibge_malha
2308005;230800;Massapê;CE;-3.484268745859937;-40.38762046771978;ibge_malha
2308104;230810;Mauriti;CE;-7.397706170318399;-38.71739414667494;ibge_malha
2308203;230820;Meruoca;CE;-3.5786027919609396;-40.450840804954254;ibge_malha
2308302;230830;Milagres;CE;-7.272034978355171;-38.94294359073764;ibge_malha
2308351;230835;Milhã;CE;-5.640821190863873;-39.1711292841642;ibge_malha
2308377;230837;Miraíma;CE;-3.5605697439187343;-39.90861730109104;ibge_malha
2308401;230840;Missão Velha;CE;-7.306443849291229;-39.15287542421855;ibge_malha
2308500;230850;Mombaça;CE;-5.788104958901363;-39.748457472130085;ibge_malha
2308609;230860;Monsenhor Tabosa;CE;-4.914692930413044;-40.04458958381702;ibge_malha
2308708;230870;Morada Nova;CE;-5.0347965239332275;-38.43291639782921;ibge_malha
2308807;230880;Moraújo;CE;-3.461097409960465;-40.67955394323444;ibge_malha
2308906;230890;Morrinhos;CE;-3.28406078186139;-40.08915845155966;ibge_malha
2309003;230900;Mucambo;CE;-3.897808358293496;-40.75590319140314;ibge_malha
2309102;230910;Mulungu;CE;-4.319445922716433;-38.99320254517611;ibge_malha
2309201;230920;Nova Olinda;CE;-7.093140783299926;-39.665087556606835;ibge_malha
2309300;230930;Nova Russas;CE;-4.6798397360844595;-40.52877526017128;ibge_malha
2309409;230940;Novo Oriente;CE;-5.5926498331633505;-40.770873178005154;ibge_malha
2309458;230945;Ocara;CE;-4.5264730785733285;-38.507337403155624;ibge_malha
2309508;230950;Orós;CE;-6.24423881708172;-38.94479937053692;ibge_malha
2309607;230960;Pacajus;CE;-4.183813486035396;-38.498344313538844;ibge_malha
2309706;230970;Pacatuba;CE;-3.9523281611148615;-38.59716303408478;ibge_malha
2309805;230980;Pacoti;CE;-4.198905623456341;-38.90210056832475;ibge_malha
2309904;230990;Pacujá;CE;-4.0058794845396815;-40.68556541226617;ibge_malha
2310001;231000;Palhano;CE;-4.708411071025044;-38.02809038437292;ibge_malha
2310100;231010;Palmácia;CE;-4.125784013228038;-38.842027433003565;ibge_malha
2310209;231020;Paracuru;CE;-3.4807806253304157;-39.03878637075343;ibge_malha
2310258;231025;Paraipaba;CE;-3.4222601690086707;-39.17929205942522;ibge_malha
2310308;231030;Parambu;CE;-6.3040462237286405;-40.62765091647878;ibge_malha
2310407;231040;Paramoti;CE;-4.1598233878384585;-39.377069022179874;ibge_malha
2310506;231050;Pedra Branca;CE;-5.497007859625014;-39.84682597811204;ibge_malha
2310605;231060;Penaforte;CE;-7.780397931326429;-39.05396679352829;ibge_malha
2310704;231070;Pentecoste;CE;-3.8538514662687193;-39.146034266581445;ibge_malha
2310803;231080;Pereiro;CE;-6.040814950563683;-38.48863852151816;ibge_malha
2310852;231085;Pindoretama;CE;-4.054609644265237;-38.30537048058846;ibge_malha
2310902;231090;Piquet Carneiro;CE;-5.862969950188376;-39.4516774251275;ibge_malha
2310951;231095;Pires Ferreira;CE;-4.259145514896391;-40.584265810361565;ibge_malha
2311009;231100;Poranga;CE;-4.799494952430085;-41.07743789624673;ibge_malha
2311108;231110;Porteiras;CE;-7.541987193408779;-39.106836021179234;ibge_malha
2311207;231120;Potengi;CE;-7.072668869896388;-40.03639788920282;ibge_malha
2311231;231123;Potiretama;CE;-5.749572295130755;-38.167607636992244;ibge_malha
2311264;231126;Quiterianópolis;CE;-5.871545953142777;-40.760880435867065;ibge_malha
2311306;231130;Quixadá;CE;-4.954475895821372;-38.94705007294422;ibge_malha
2311355;231135;Quixelô;CE;-6.175450397924805;-39.12066239742333;ibge_malha
2311405;231140;Quixeramobim;CE;-5.245560133545028;-39.33320913375241;ibge_malha
2311504;231150;Quixeré;CE;-5.088178847660553;-37.86240567586499;ibge_malha
2311603;231160;Redenção;CE;-4.245592479634717;-38.762367941113276;ibge_malha
2311702;231170;Reriutaba;CE;-4.120862499812802;-40.61328919252145;ibge_malha
2311801;231180;Russas;CE;-4.843812375773459;-38.14826200166899;ibge_malha
2311900;231190;Saboeiro;CE;-6.484332986794708;-39.88862274925693;ibge_malha
2311959;231195;Salitre;CE;-7.204808182563946;-40.36637296175784;ibge_malha
2312007;231200;Santana do Acaraú;CE;-3.4610313013623966;-40.16470024378651;ibge_malha
2312106;231210;Santana do Cariri;CE;-7.221912456968067;-39.75653461618048;ibge_malha
2312205;231220;Santa Quitéria;CE;-4.340711207933022;-40.041912697970304;ibge_malha
2312304;231230;São Benedito;CE;-4.040848417041797;-40.96949025310816;ibge_malha
2312403;231240;São Gonçalo do Amarante;CE;-3.6005463079292674;-39.06056162963226;ibge_malha
2312502;231250;São João do Jaguaribe;CE;-5.325968898497697;-38.27334285416793;ibge_malha
2312601;231260;São Luís do Curu;CE;-3.6462898948470914;-39.264485554702716;ibge_malha
2312700;231270;Senador Pompeu;CE;-5.587679344036203;-39.43363417399302;ibge_malha
2312809;231280;Senador Sá;CE;-3.270074446650049;-40.46104098209222;ibge_malha
2312908;231290;Sobral;CE;-3.8110362584450135;-40.22786895944965;ibge_malha
2313005;231300;Solonópole;CE;-5.776488254993237;-39.00243734324136;ibge_malha
2313104;231310;Tabuleiro do Norte;CE;-5.361116884110281;-38.027240714735925;ibge_malha
2313203;231320;Tamboril;CE;-4.9199874485800645;-40.33584003735845;ibge_malha
2313252;231325;Tarrafas;CE;-6.730189486881522;-39.737780732061054;ibge_malha
2313302;231330;Tauá;CE;-5.936796172778674;-40.258950465098934;ibge_malha
2313351;231335;Tejuçuoca;CE;-3.932000151055102;-39.58334349917474;ibge_malha
2313401;231340;Tianguá;CE;-3.7361308927266585;-41.05497758796477;ibge_malha
2313500;231350;Trairi;CE;-3.337421387938474;-39.35359995468586;ibge_malha
2313559;231355;Tururu;CE;-3.5510767660084364;-39.40571163563423;ibge_malha
2313609;231360;Ubajara;CE;-3.866539977636505;-41.004462613617754;ibge_malha
2313708;231370;Umari;CE;-6.623339052704192;-38.73028447942291;ibge_malha
2313757;231375;Umirim;CE;-3.6869838127998356;-39.38467762300645;ibge_malha
2313807;231380;Uruburetama;CE;-3.6212814607470345;-39.51453988212059;ibge_malha
2313906;231390;Uruoca;CE;-3.3209002881784895;-40.680360416625064;ibge_malha
2313955;231395;Varjota;CE;-4.16785795987555;-40.49394989321187;ibge_malha
2314003;231400;Várzea Alegre;CE;-6.771789777013255;-39.29784813003217;ibge_malha
2314102;231410;Viçosa do Ceará;CE;-3.5461969702621814;-41.136070185402026;ibge_malha
2400109;240010;Acari;RN;-6.409366421834727;-36.650115479789406;ibge_malha
2400208;240020;Assú;RN;-5.526656696056149;-37.01410466947463;ibge_malha
2400307;240030;Afonso Bezerra;RN;-5.471440824729838;-36.599873334827315;ibge_malha
2400406;240040;Água Nova;RN;-6.208627076074598;-38.308651065329066;ibge_malha
2400505;240050;Alexandria;RN;-6.36449134596133;-37.98919450690143;ibge_malha
2400604;240060;Almino Afonso;RN;-6.154494313886847;-37.76296360204456;ibge_malha
2400703;240070;Alto do Rodrigues;RN;-5.362350109872293;-36.723610670078465;ibge_malha
2400802;240080;Angicos;RN;-5.646305489708096;-36.557222070952704;ibge_malha
2400901;240090;Antônio Martins;RN;-6.219621895092162;-37.924781027974895;ibge_malha
2401008;240100;Apodi;RN;-5.628281805582849;-37.83567384464408;ibge_malha
2401107;240110;Areia Branca;RN;-5.001171796683292;-37.04623225504852;ibge_malha
2401206;240120;Arez;RN;-6.193681598758526;-35.208176769009164;ibge_malha
2401305;240130;Campo Grande;RN;-5.8803362529499426;-37.32428785181573;ibge_malha
2401404;240140;Baía Formosa;RN;-6.43471350612653;-35.044871864323845;ibge_malha
2401453;240145;Baraúna;RN;-5.092782411513131;-37.61834118022961;ibge_malha
2401503;240150;Barcelona;RN;-5.961103549008245;-35.922034450225766;ibge_malha
2401602;240160;Bento Fernandes;RN;-5.675903310374481;-35.81186296457176;ibge_malha
2401651;240165;Bodó;RN;-5.9629028180013135;-36.44174866532228;ibge_malha
2401701;240170;Bom Jesus;RN;-6.000811243855871;-35.590799469142276;ibge_malha
2401800;240180;Brejinho;RN;-6.2181826005410255;-35.38358116239524;ibge_malha
2401859;240185;Caiçara do Norte;RN;-5.1918241329481445;-36.08328158981514;ibge_malha
2401909;240190;Caiçara do Rio do Vento;RN;-5.766090443764698;-36.026453422904375;ibge_malha
2402006;240200;Caicó;RN;-6.467558317224473;-37.037937200429404;ibge_malha
2402105;240210;Campo Redondo;RN;-6.23769917423417;-36.20890125710952;ibge_malha
2402204;240220;Canguaretama;RN;-6.395090640389721;-35.14845357288716;ibge_malha
2402303;240230;Caraúbas;RN;-5.767247612774439;-37.58376219810061;ibge_malha
2402402;240240;Carnaúba dos Dantas;RN;-6.553299403687959;-36.54878084277485;ibge_malha
2402501;240250;Carnaubais;RN;-5.264078272230151;-36.85727616135273;ibge_malha
2402600;240260;Ceará-Mirim;RN;-5.595469754294865;-35.39521931004184;ibge_malha
2402709;240270;Cerro Corá;RN;-5.989355885889191;-36.327162764738524;ibge_malha
2402808;240280;Coronel Ezequiel;RN;-6.357204451209205;-36.19588080143045;ibge_malha
2402907;240290;Coronel João Pessoa;RN;-6.255480967511952;-38.42281329187344;ibge_malha
2403004;240300;Cruzeta;RN;-6.355930471677175;-36.824989216046276;ibge_malha
2403103;240310;Currais Novos;RN;-6.223560836103229;-36.44355202216144;ibge_malha
2403202;240320;Doutor Severiano;RN;-6.115369893218979;-38.401365871639335;ibge_malha
2403251;240325;Parnamirim;RN;-5.91434797189564;-35.23012241218883;ibge_malha
2403301;240330;Encanto;RN;-6.134224670043861;-38.306354976627325;ibge_malha
2403400;240340;Equador;RN;-6.882006847080878;-36.666153037255164;ibge_malha
2403509;240350;Espírito Santo;RN;-6.305662834242427;-35.30448028594171;ibge_malha
2403608;240360;Extremoz;RN;-5.680948678163109;-35.26864897841719;ibge_malha
2403707;240370;Felipe Guerra;RN;-5.53981222654523;-37.6558856753546;ibge_malha
2403756;240375;Fernando Pedroza;RN;-5.760486592458582;-36.392108920244894;ibge_malha
2403806;240380;Florânia;RN;-6.169723513930138;-36.8183819828422;ibge_malha
2403905;240390;Francisco Dantas;RN;-6.053001587670595;-38.1086318758418;ibge_malha
2404002;240400;Frutuoso Gomes;RN;-6.161037300112348;-37.839037098833614;ibge_malha
2404101;240410;Galinhos;RN;-5.175739487528706;-36.20799572139707;ibge_malha
2404200;240420;Goianinha;RN;-6.287819076990825;-35.213851802588785;ibge_malha
2404309;240430;Governador Dix-Sept Rosado;RN;-5.395066131006808;-37.53676161874797;ibge_malha
2404408;240440;Grossos;RN;-4.947582528715041;-37.210470081947406;ibge_malha
2404507;240450;Guamaré;RN;-5.174768821658429;-36.343941984405745;ibge_malha
2404606;240460;Ielmo Marinho;RN;-5.784128582512958;-35.55042206165493;ibge_malha
2404705;240470;Ipanguaçu;RN;-5.53819290633913;-36.80267440034921;ibge_malha
2404804;240480;Ipueira;RN;-6.774157748777933;-37.1863608046012;ibge_malha
2404853;240485;Itajá;RN;-5.689978967807029;-36.808021924990044;ibge_malha
2404903;240490;Itaú;RN;-5.8184736407222255;-37.916494621164354;ibge_malha
2405009;240500;Jaçanã;RN;-6.410922192998452;-36.214617146159654;ibge_malha
2405108;240510;Jandaíra;RN;-5.3570043203117015;-36.13822004052459;ibge_malha
2405207;240520;Janduís;RN;-5.996167640853219;-37.47488745346008;ibge_malha
2405306;240530;Januário Cicco;RN;-6.151909458716856;-35.60054531553139;ibge_malha
2405405;240540;Japi;RN;-6.43282446387025;-35.8991001600095;ibge_malha
2405504;240550;Jardim de Angicos;RN;-5.613703817202548;-35.98677056967345;ibge_malha
2405603;240560;Jardim de Piranhas;RN;-6.334497294741419;-37.28588769478157;ibge_malha
2405702;240570;Jardim do Seridó;RN;-6.587734810927983;-36.806580598320515;ibge_malha
2405801;240580;João Câmara;RN;-5.475360834411526;-35.873930951989905;ibge_malha
2405900;240590;João Dias;RN;-6.287886911137449;-37.83790258423189;ibge_malha
2406007;240600;José da Penha;RN;-6.340568421850141;-38.28305302392415;ibge_malha
2406106;240610;Jucurutu;RN;-6.058009007738838;-37.02139298902446;ibge_malha
2406155;240615;Jundiá;RN;-6.25633876551589;-35.34035144106436;ibge_malha
2406205;240620;Lagoa d'Anta;RN;-6.38475728683749;-35.62619023128327;ibge_malha
2406304;240630;Lagoa de Pedras;RN;-6.192417400478233;-35.45081166713227;ibge_malha
2406403;240640;Lagoa de Velhos;RN;-6.010497618073387;-35.844374462136095;ibge_malha
2406502;240650;Lagoa Nova;RN;-6.092452398553179;-36.519129858832656;ibge_malha
2406601;240660;Lagoa Salgada;RN;-6.147188698734953;-35.5050370570109;ibge_malha
2406700;240670;Lajes;RN;-5.698174564392081;-36.18058271106642;ibge_malha
2406809;240680;Lajes Pintadas;RN;-6.1480566598168815;-36.13422451748065;ibge_malha
2406908;240690;Lucrécia;RN;-6.10357786118661;-37.82438081375133;ibge_malha
2407005;240700;Luís Gomes;RN;-6.373369130327874;-38.402640576489596;ibge_malha
2407104;240710;Macaíba;RN;-5.926857026096466;-35.428762047235125;ibge_malha
2407203;240720;Macau;RN;-5.195950233422388;-36.523440647467794;ibge_malha
2407252;240725;Major Sales;RN;-6.405106855740119;-38.31765033151843;ibge_malha
2407302;240730;Marcelino Vieira;RN;-6.280328614064502;-38.157319017355675;ibge_malha
2407401;240740;Martins;RN;-6.080220578294946;-37.905915553838994;ibge_malha
2407500;240750;Maxaranguape;RN;-5.451576120625375;-35.35445734252705;ibge_malha
2407609;240760;Messias Targino;RN;-6.089932570733943;-37.48022710961642;ibge_malha
2407708;240770;Montanhas;RN;-6.504918958336657;-35.29093676350713;ibge_malha
2407807;240780;Monte Alegre;RN;-6.098762656675517;-35.40504306259156;ibge_malha
2407906;240790;Monte das Gameleiras;RN;-6.429860021732537;-35.809033612013394;ibge_malha
2408003;240800;Mossoró;RN;-5.175829487502981;-37.32552608663706;ibge_malha
2408102;240810;Natal;RN;-5.803177520545519;-35.22883356599637;ibge_malha
2408201;240820;Nísia Floresta;RN;-6.054921945596701;-35.17322004831212;ibge_malha
2408300;240830;Nova Cruz;RN;-6.448632827869659;-35.42898066565553;ibge_malha
2408409;240840;Olho d'Água do Borges;RN;-5.978945998009638;-37.71018473627494;ibge_malha
2408508;240850;Ouro Branco;RN;-6.683533429478124;-36.92105763955961;ibge_malha
2408607;240860;Paraná;RN;-6.451050185996765;-38.28421304285949;ibge_malha
2408706;240870;Paraú;RN;-5.784378006269553;-37.11055432495843;ibge_malha
2408805;240880;Parazinho;RN;-5.285835854659237;-35.93617954575656;ibge_malha
2408904;240890;Parelhas;RN;-6.713829420946835;-36.61948986597021;ibge_malha
2408953;240895;Rio do Fogo;RN;-5.377262057714773;-35.39995310230445;ibge_malha
2409100;240910;Passa e Fica;RN;-6.4427232764792635;-35.61457030774172;ibge_malha
2409209;240920;Passagem;RN;-6.283825904823348;-35.39573106908678;ibge_malha
2409308;240930;Patu;RN;-6.086868058096353;-37.62134182906421;ibge_malha
2409332;240933;Santa Maria;RN;-5.788922888936479;-35.72048578431578;ibge_malha
2409407;240940;Pau dos Ferros;RN;-6.117415130433226;-38.16976371196046;ibge_malha
2409506;240950;Pedra Grande;RN;-5.146048915007009;-35.87351338195652;ibge_malha
2409605;240960;Pedra Preta;RN;-5.524521444062186;-36.079519405144296;ibge_malha
2409704;240970;Pedro Avelino;RN;-5.47502066953964;-36.33161367129122;ibge_malha
2409803;240980;Pedro Velho;RN;-6.465238881640667;-35.22452336578757;ibge_malha
2409902;240990;Pendências;RN;-5.292893188421167;-36.62399959454894;ibge_malha
2410009;241000;Pilões;RN;-6.2865967473691775;-38.02921222340472;ibge_malha
2410108;241010;Poço Branco;RN;-5.571489766849529;-35.69435951318716;ibge_malha
2410207;241020;Portalegre;RN;-6.032871247245203;-38.01498556100841;ibge_malha
2410256;241025;Porto do Mangue;RN;-5.088322250466332;-36.84153142640446;ibge_malha
2410306;241030;Serra Caiada;RN;-6.109238768769481;-35.72355044490417;ibge_malha
2410405;241040;Pureza;RN;-5.407288921836072;-35.582122115593464;ibge_malha
2410504;241050;Rafael Fernandes;RN;-6.196827680321192;-38.223760663377725;ibge_malha
2410603;241060;Rafael Godeiro;RN;-6.069067285672753;-37.730219555929835;ibge_malha
2410702;241070;Riacho da Cruz;RN;-5.923580929198148;-37.966422086281646;ibge_malha
2410801;241080;Riacho de Santana;RN;-6.277003174745596;-38.33612953846484;ibge_malha
2410900;241090;Riachuelo;RN;-5.798439262385634;-35.849591297769514;ibge_malha
2411007;241100;Rodolfo Fernandes;RN;-5.858491620416553;-38.080914059582256;ibge_malha
2411056;241105;Tibau;RN;-4.888375576051666;-37.320958736191024;ibge_malha
2411106;241110;Ruy Barbosa;RN;-5.8568755228231675;-35.94050126047568;ibge_malha
2411205;241120;Santa Cruz;RN;-6.248249608373732;-36.00649392260993;ibge_malha
2411403;241140;Santana do Matos;RN;-5.904346099137551;-36.634625521096176;ibge_malha
2411429;241142;Santana do Seridó;RN;-6.732232671380946;-36.76513375407323;ibge_malha
2411502;241150;Santo Antônio;RN;-6.339461637710765;-35.50540189616276;ibge_malha
2411601;241160;São Bento do Norte;RN;-5.144111642081517;-35.989071014740006;ibge_malha
2411700;241170;São Bento do Trairí;RN;-6.383222665571613;-36.04845444315984;ibge_malha
2411809;241180;São Fernando;RN;-6.321342692003733;-37.15115296864147;ibge_malha
2411908;241190;São Francisco do Oeste;RN;-5.985178377491968;-38.18379150980767;ibge_malha
2412005;241200;São Gonçalo do Amarante;RN;-5.787725193342509;-35.3647895374224;ibge_malha
2412104;241210;São João do Sabugi;RN;-6.690411896384207;-37.18850172572499;ibge_malha
2412203;241220;São José de Mipibu;RN;-6.064005982762562;-35.289415726662774;ibge_malha
2412302;241230;São José do Campestre;RN;-6.301107623605531;-35.74016664679095;ibge_malha
2412401;241240;São José do Seridó;RN;-6.486639011380115;-36.85848722082808;ibge_malha
2412500;241250;São Miguel;RN;-6.2143532189383075;-38.47427909428924;ibge_malha
2412559;241255;São Miguel do Gostoso;RN;-5.194001771074639;-35.7371808918677;ibge_malha
2412609;241260;São Paulo do Potengi;RN;-5.934068947605345;-35.75443137401181;ibge_malha
2412708;241270;São Pedro;RN;-5.892543939688907;-35.63033192966753;ibge_malha
2412807;241280;São Rafael;RN;-5.837392945266073;-36.8785248991181;ibge_malha
2412906;241290;São Tomé;RN;-5.9882036973548045;-36.12857647924372;ibge_malha
2413003;241300;São Vicente;RN;-6.207676788052922;-36.659811839868034;ibge_malha
2413102;241310;Senador Elói de Souza;RN;-6.041283653691458;-35.68248488758071;ibge_malha
2413201;241320;Senador Georgino Avelino;RN;-6.15786471979434;-35.12138310800486;ibge_malha
2413300;241330;Serra de São Bento;RN;-6.428633890763644;-35.71892960946181;ibge_malha
2413359;241335;Serra do Mel;RN;-5.171294456808796;-37.02421887403697;ibge_malha
2413409;241340;Serra Negra do Norte;RN;-6.587371932952654;-37.36002203145077;ibge_malha
2413508;241350;Serrinha;RN;-6.2551138836089635;-35.574349158589776;ibge_malha
2413557;241355;Serrinha dos Pintos;RN;-6.144504930253189;-37.993074907638004;ibge_malha
2413607;241360;Severiano Melo;RN;-5.769196299695639;-37.97269740542008;ibge_malha
2413706;241370;Sítio Novo;RN;-6.087969084188461;-35.92728158596071;ibge_malha
2413805;241380;Taboleiro Grande;RN;-5.935848772421762;-38.05116460230309;ibge_malha
2413904;241390;Taipu;RN;-5.596704928118813;-35.58520976715621;ibge_malha
2414001;241400;Tangará;RN;-6.216991007937597;-35.83529954868313;ibge_malha
2414100;241410;Tenente Ananias;RN;-6.4406214463610985;-38.16389793210374;ibge_malha
2414159;241415;Tenente Laurentino Cruz;RN;-6.159080559086124;-36.72267687303915;ibge_malha
2414209;241420;Tibau do Sul;RN;-6.241683308837632;-35.09981379470373;ibge_malha
2414308;241430;Timbaúba dos Batistas;RN;-6.477689239070039;-37.24720487167581;ibge_malha
2414407;241440;Touros;RN;-5.2810160020999195;-35.60796000571173;ibge_malha
2414456;241445;Triunfo Potiguar;RN;-5.918385138172952;-37.151550015352946;ibge_malha
2414506;241450;Umarizal;RN;-5.9919740889756;-37.83260933932257;ibge_malha
