node_id;node_type;name;municipality_code;latitude;longitude;capacity_beds;habilitation_level
facility:0000035;facility;HOSPITAL MENDO SAMPAIO;260290;-8.292214339969746;-35.04819802058195;;
facility:0000094;facility;MATERNIDADE PADRE GERALDO LEITE BASTOS;260290;-8.232359947405369;-34.97720999030816;;
facility:0000396;facility;HOSPITAL DAS CLINICAS;261160;-8.04750180385578;-34.946136474609375;;
facility:0000418;facility;HOSPITAL AGAMENON MAGALHAES;261160;-8.030155;-34.90701109170914;;
facility:0000426;facility;HOSPITAL OTAVIO DE FREITAS;261160;-8.087400508649779;-34.96220827102661;;
facility:0000434;facility;IMIP;261160;-8.066803665829326;-34.89079713821411;;
facility:0000477;facility;HOSPITAL OSWALDO CRUZ;261160;-8.047589445099332;-34.8876616358757;;
facility:0000485;facility;FUNDACAO ALTINO VENTURA;261160;-8.05888;-34.889708161354065;;
facility:0000531;facility;CNES 0000531 (Recife - PE);261160;-8.03932237033039;-34.933098260825226;;
facility:0000558;facility;CNES 0000558 (Recife - PE);261160;-8.03932237033039;-34.933098260825226;;
facility:0000566;facility;HOSPITAL MARIA LUCINDA;261160;-8.053833170965348;-34.88126993179321;;
facility:0000582;facility;HOSPITAL DE CANCER DE PERNAMBUCO;261160;-8.041297817982748;-34.87337350845337;;
facility:0000604;facility;US 169 POLICLINICA AMAURY COUTINHO;261160;-8.0163644;-34.8825373;;
facility:0000655;facility;HOSPITAL DA RESTAURACAO;261160;-8.05350385733086;-34.89777624607086;;
facility:0000663;facility;CNES 0000663 (Recife - PE);261160;-8.03932237033039;-34.933098260825226;;
facility:0000671;facility;US 153 POLICLINICA E MATERNIDADE ARNALDO MARQUES;261160;-8.109099;-34.9354;;
facility:0000701;facility;US 165 MATERNIDADE BANDEIRA FILHO;261160;-8.07912;-34.9105;;
facility:0000809;facility;FUNDACAO HEMOPE;261160;-8.052598243455138;-34.89795595407486;;
facility:0000981;facility;HOSPITAL CORREIA PICANCO;261160;-8.033811;-34.904742;;
facility:0001015;facility;US 163 HOSPITAL DE PEDIATRIA HELENA MOURA;261160;-8.0232145555;-34.82365;;
facility:0001120;facility;HOSPITAL PORTUGUES;261160;-8.063816693669658;-34.898189306259155;;
facility:0001546;facility;HOSPITAL PSIQUIATRICO ULYSSES PERNAMBUCANO;261160;-8.03385;-34.902166;;
facility:0002232;facility;HOSPITAL SANTA ISABEL;280030;-10.5921128;-36.9416223;;
facility:0002275;facility;HOSPITAL SAO JOSE;280030;-10.901928850011457;-37.054874731476005;;
facility:0002283;facility;HOSPITAL DE CIRURGIA;280030;-10.918480023566438;-37.07058548927307;;
facility:0002372;facility;HOSPITAL MUNICIPAL ZONA SUL DES FERNANDO FRANCO;280030;-10.97481176954352;-37.074531962156314;;
facility:0002534;facility;HOSPITAL UNIVERSITARIO DE SERGIPE HUSE;280030;-10.8956986;-37.0597128096492;;
facility:0002585;facility;CNES 0002585 (Aracaju - SE);280030;-10.99418891851923;-37.09490124668476;;
facility:0003085;facility;CLINICA DE REPOUSO SAO MARCELLO LTDA;280030;-10.89267;-37.07144;;
facility:0003417;facility;FUNDACAO CLIMEDI;280030;-10.918122667868456;-37.0557336738333;;
facility:0003581;facility;INSTITUTO DE OLHOS DR CRISTIANO MENDONCA;280030;-10.917932222865868;-37.05585479736328;;
facility:0003778;facility;HOSPITAL ESTADUAL DA MULHER;292740;-12.937331590115349;-38.50674748420715;;
facility:0003786;facility;HOSPITAL ARISTIDES MALTEZ;292740;-12.9861396;-38.4923837;;
facility:0003794;facility;INSTITUTO DE PERINATOLOGIA DA BAHIA;292740;-12.985343165979309;-38.47686767578125;;
facility:0003808;facility;CNES 0003808 (Salvador - BA);292740;-12.873498787784706;-38.51472863408121;;
facility:0003816;facility;HOSPITAL UNIVERSITARIO PROFESSOR EDGARD SANTOS;292740;-12.993123786204201;-38.52022022008896;;
facility:0003832;facility;HOSPITAL SANTA IZABEL;292740;-12.97298955;-38.50252668;;
facility:0003840;facility;MATERNIDADE ALBERT SABIN;292740;-12.903188161296153;-38.405734151680846;;
facility:0003859;facility;HOSPITAL GERAL ROBERTO SANTOS;292740;-12.972226;-38.501426;;
facility:0003875;facility;HOSPITAL ANA NERY;292740;-12.9575324;-38.4931637;;
facility:0003921;facility;CICAN;292740;-12.9830857;-38.5036816;;
facility:0003972;facility;CENTRO DE PARTO HUMANIZADO JOAO BATISTA CARIBE;292740;-12.4342747;-38.3308469;;
facility:0003980;facility;HOSPITAL ELADIO LASSERRE;292740;-12.889373521561975;-38.42262268066406;;
facility:0004065;facility;HOSPITAL ESPECIALIZADO OCTAVIO MANGABEIRA;292740;-12.959216063439738;-38.48536491394043;;
facility:0004073;facility;HOSPITAL GERAL ERNESTO SIMOES FILHO;292740;-12.95900695191243;-38.48616421222687;;
facility:0004170;facility;MATERNIDADE TSYLLA BALBINO;292740;-12.962499091393243;-38.4916090965271;;
facility:0004251;facility;HOSPITAL PORTUGUES;292740;-13.0032128;-38.5312954;;
facility:0004278;facility;HOSPITAL MARTAGAO GESTEIRA;292740;-12.9821042;-38.508557;;
facility:0004286;facility;HOSPITAL JULIANO MOREIRA;292740;-12.952911273727892;-38.44918727874756;;
facility:0004294;facility;HOSPITAL GERAL DO ESTADO;292740;-12.9962977;-38.4945683;;
facility:0004731;facility;MATERNIDADE CLIMERIO DE OLIVEIRA;292740;-12.9719354;-38.5023149;;
facility:0004960;facility;HOSPITAL SANTA LUZIA;292740;-12.9731;-38.5034;;
facility:0004979;facility;HOSPITAL DE BROTAS;292740;-12.9899166;-38.48881888424956;;
facility:0004987;facility;HOSPITAL PROFESSOR CARVALHO LUZ;292740;-12.973279;-38.50265;;
facility:0005134;facility;CNES 0005134 (Salvador - BA);292740;-12.873498787784706;-38.51472863408121;;
facility:0005428;facility;INSTITUTO COUTO MAIA;292740;-12.8856327;-38.4246505;;
facility:0005436;facility;HOSPITAL ESPECIALIZADO MARIO LEAL;292740;-12.971;-38.511;;
facility:0006157;facility;HOSPITAL HUMBERTO CASTRO LIMA;292740;-12.9946108;-38.5229048;;
facility:0006564;facility;CENTRO ESPIRITA CAMINHO DA REDENCAO;292740;-12.916313159;-38.443801403;;
facility:0007641;facility;ABSJ;150240;-1.2967909719264816;-47.92234182357788;;
facility:0007684;facility;HOSPITAL MAGALHAES;150240;-1.2942596138525924;-47.92566776275635;;
facility:0008028;facility;HOSPITAL MUNICIPAL ANTONIO GIGLIO;353440;-23.53232235;-46.77712772881206;;
facility:0008036;facility;HOSPITAL MATERNIDADE AMADOR AGUIAR;353440;-23.5047325;-46.7881282;;
facility:0008052;facility;HOSPITAL REGIONAL DR VIVALDO MARTINS SIMOES OSASCO;353440;-23.5249302;-46.771938984518826;;
facility:0008087;facility;PRONTO SOCORRO CONRADO CESARINO NUVOLINI;353440;-23.554722982325107;-46.80203676223755;;
facility:0008141;facility;PRONTO SOCORRO DR ANTONIO FLAVIO FRANCA;353440;-23.51256385847313;-46.775901317596436;;
facility:0008494;facility;UPA BANGU;354780;-23.6411957;-46.5274164;;
facility:0008923;facility;CENTRO HOSPITALAR DE SANTO ANDRE DR NEWTON DA COSTA BRANDAO;354780;-23.6659455;-46.527573514565624;;
facility:0009164;facility;CNES 0009164 (São José dos Campos - SP);354990;-23.09056285793361;-45.92853292396424;;
facility:0009539;facility;CNES 0009539 (São José dos Campos - SP);354990;-23.09056285793361;-45.92853292396424;;
facility:0009601;facility;HOSPITAL PIO XII;354990;-23.1631693;-45.900583347539566;;
facility:0009628;facility;HOSPITAL MUNICIPAL DR JOSE DE CARVALHO FLORENCE;354990;-23.1806184;-45.85483410737851;;
facility:0009695;facility;CENTRO DE REFERENCIA EM MOLESTIAS INFECCIOSAS;354990;-23.2008696;-45.8906204;;
facility:0009709;facility;EBSERH HOSP UNIV MARIA APARECIDA PEDROSSIAN;500270;-20.499085;-54.616465;;
facility:0009717;facility;SANTA CASA;500270;-20.452376;-54.617009;;
facility:0009725;facility;HOSPITAL REGIONAL DE MATO GROSSO DO SUL;500270;-20.51349463373381;-54.65421438217163;;
facility:0009733;facility;HOSPITAL SAO JULIAO;500270;-20.375598;-54.55835;;
facility:0009768;facility;ASSOCIACAO DE AMPARO A MATERNIDADE E A INFANCIA AAMI;500270;-20.458213;-54.605937;;
facility:0009776;facility;HOSPITAL DO CANCER DR ALFREDO ABRAO;500270;-20.459997;-54.621063;;
facility:0009792;facility;HOSPITAL NOSSO LAR;500270;-20.457023;-54.627954;;
facility:0010448;facility;SESAU CEDIP HD HOSPITAL DIA;500270;-20.410969;-54.572331;;
facility:0010456;facility;HOSPITAL DE BASE DO DISTRITO FEDERAL;530010;-15.799779534664653;-47.88970470428467;;
facility:0010464;facility;HRAN;530010;-15.7857462;-47.8827625;;
facility:0010472;facility;HRG;530010;-16.023221098308856;-48.069326877593994;;
facility:0010480;facility;HOSPITAL REGIONAL DE CEILANDIA;530010;-15.815563535970762;-48.09593439102173;;
facility:0010499;facility;HRT HOSPITAL REGIONAL DE TAGUATINGA;530010;-15.82247961680422;-48.0692195892334;;
facility:0010502;facility;HRS;530010;-15.648370437680098;-47.792673110961914;;
facility:0010510;facility;HOSPITAL UNIVERSITARIO DE BRASILIA;530010;-15.771480871463751;-47.873783111572266;;
facility:0010529;facility;HRPL;530010;-15.624917329234314;-47.652747631073;;
facility:0010537;facility;HOSPITAL MATERNO INFANTIL DR ANTONIO LISBOA;530010;-15.824457;-47.8972328415664;;
facility:0010545;facility;HRBZ;530010;-15.67514708650334;-48.203630447387695;;
facility:0010596;facility;CNES 0010596 (Brasília - DF);530010;-15.781172363612123;-47.7968439416826;;
facility:0010618;facility;HOSPITAL SAO VICENTE DE PAULO HSVP;530010;-15.836569109120648;-48.05992841720581;;
facility:0011738;facility;HOSPITAL SANTA RITA DE CASSIA;320530;-20.297499;-40.3171414;;
facility:0011746;facility;HOSPITAL DA SANTA CASA DE MISERICORDIA DE VITORIA;320530;-20.3113452;-40.2986506;;
facility:0011800;facility;HOSPITAL INFANTIL NOSSA SENHORA DA GLORIA;320530;-20.307553;-40.2997894;;
facility:0011843;facility;SANTA CASA DE MISERICORDIA DE VITORIA UNIDADE PRO MATRE;320530;-20.3155447;-40.3228553;;
facility:0011991;facility;AFPES;320530;-20.320222;-40.338165;;
facility:0012017;facility;HOSPITAL DA POLICIA MILITAR HPM;320530;-20.319;-40.338;;
facility:0012505;facility;HOSPITAL UNIVERSITARIO ANTONIO PEDRO;330330;-22.895500840460503;-43.1122477899359;;
facility:0012513;facility;HOSPITAL MUNICIPAL CARLOS TORTELLY;330330;-22.893917576889766;-43.11037838459015;;
facility:0012521;facility;SES RJ HOSPITAL ESTADUAL AZEVEDO LIMA;330330;-22.880227975327994;-43.07844400405884;;
facility:0012556;facility;HOSPITAL ORENCIO DE FREITAS;330330;-22.864678472037472;-43.09456944465637;;
facility:0012599;facility;HOSPITAL GETULIO VARGAS FILHO;330330;-22.880984151800114;-43.07866394519806;;
facility:0012610;facility;HOSPITAL DE OLHOS SANTA BEATRIZ;330330;-22.881349882700338;-43.095398247241974;;
facility:0012718;facility;HOSPITAL PSIQUIATRICO DE JURUJUBA;330330;-22.93268226531985;-43.097890474841584;;
facility:0012769;facility;SES RJ INSTITUTO ESTADUAL DE DOENCAS DO TORAX ARY PARREIRAS;330330;-22.8650162;-43.1016656;;
facility:0012823;facility;SEAP RJ HOSPITAL DE CUST E TRAT PSIQUIATRICO HENRIQUE ROXO;330330;-22.883;-43.104;;
facility:0013102;facility;CNES 0013102 (Adrianópolis - PR);410020;-24.78344669889999;-48.82120834023829;;
facility:0013633;facility;HOSPITAL ANGELINA CARON;410400;-25.3289967;-49.0778898;;
facility:0013838;facility;HOSPITAL SAO LUCAS;410420;-25.461961206942103;-49.52896548586361;;
facility:0013846;facility;HOSPITAL DO ROCIO;410420;-25.459;-49.528;;
facility:0014001;facility;ASSOCIACAO DE PESQUISA E TRATAMENTO ALCOOLISMO;410420;-25.45949;-49.528841;;
facility:0014109;facility;HOSPITAL SANTA CASA DE MISERICORDIA;410430;-24.0262887;-52.4021135;;
facility:0014125;facility;CENTER CLINICAS;410430;-24.0447261;-52.3826139;;
facility:0014869;facility;CNES 0014869 (Colombo - PR);410580;-25.30634772942094;-49.188049609837456;;
facility:0015180;facility;CNES 0015180 (Contenda - PR);410620;-25.719177948236133;-49.52610685943805;;
facility:0015245;facility;HOSPITAL UNIVERSITARIO EVANGELICO MACKENZIE;410690;-25.43424305;-49.2920418148381;;
facility:0015318;facility;HNSG;410690;-25.4210851;-49.2928862;;
facility:0015334;facility;HOSPITAL SANTA CASA DE CURITIBA;410690;-25.43550437899397;-49.27306108836554;;
facility:0015369;facility;COMPLEXO HOSPITALAR DO TRABALHADOR;410690;-25.484739849999997;-49.29500081159392;;
facility:0015407;facility;HOSPITAL UNIVERSITARIO CAJURU;410690;-25.435993612017256;-49.24511287427901;;
facility:0015415;facility;HOSPITAL OSVALDO CRUZ;410690;-25.425647152814033;-49.25920504671252;;
facility:0015423;facility;CRUZ VERMELHA BRASILEIRA FILIAL DO ESTADO DO PARANA;410690;-25.4373464;-49.2897265;;
facility:0015563;facility;HOSPITAL INFANTIL PEQUENO PRINCIPE;410690;-25.444360714299794;-49.27594408962177;;
facility:0015601;facility;HOSPITAL SAO VICENTE CIC;410690;-25.5098868;-49.3303751;;
facility:0015636;facility;HOSPITAL DE OLHOS DO PARANA;410690;-25.4360137;-49.2860139;;
facility:0015644;facility;HOSPITAL ERASTO GAERTNER;410690;-25.4534641;-49.2399001;;
facility:0015660;facility;CNES 0015660 (Curitiba - PR);410690;-25.47789126650286;-49.28823327468759;;
facility:0015962;facility;CNES 0015962 (Curitiba - PR);410690;-25.47789126650286;-49.28823327468759;;
facility:0016209;facility;HOSPITAL DA VISAO;410690;-25.447815692611602;-49.29727337427839;;
facility:0016365;facility;UNIICA BOM RETIRO DOM JOAO BOSCO OLIVER DE FARIA;410690;-25.45003682630604;-49.241130352020264;;
facility:0016462;facility;CENTRO MEDICO COMUNITARIO BAIRRO NOVO;410690;-25.54901;-49.264027;;
facility:0017574;facility;HOSPITAL E MATERNIDADE NOSSA SENHORA APARECIDA;410765;-25.645511273917503;-49.31709051132202;;
facility:0017612;facility;HOSPITAL E MATERNIDADE ITAPERUCU;411125;-25.221508;-49.35165;;
facility:0017663;facility;HOSPITAL REGIONAL DA LAPA SAO SEBASTIAO;411320;-25.73943;-49.70712;;
facility:0017779;facility;HOSPITAL MUNICIPAL DE MANDIRITUBA;411430;-25.778638638373238;-49.32713270187378;;
facility:0017868;facility;HOSPITAL FILANTROPICO POLICLINICA;411850;-26.229586323605105;-52.675344944000244;;
facility:0017884;facility;ISSAL;411850;-26.22748825291481;-52.67068862915039;;
facility:0018090;facility;FUNDACAO HOSPITALAR PINHAIS;411915;-25.432268248708198;-49.1843318939209;;
facility:0018260;facility;HOSPITAL ADAUTO BOTELHO;411915;-25.3941548561732;-49.11569093484082;;
facility:0018333;facility;HOSPITAL E MATERNIDADE MUNICIPAL PAPA FRANCISCO;411915;-25.442325159308528;-49.190404415130615;;
facility:0018368;facility;HOSPITAL DE DERMATOLOGIA SANITARIA DO PARANA;411950;-25.449219;-49.098043;;
facility:0018384;facility;ASJA;411950;-25.44818;-49.06678;;
facility:0018600;facility;HOSPITAL E MATERNIDADE DE RIO BRANCO DO SUL;412220;-25.19194;-49.3119;;
facility:0018694;facility;HOSPITAL BOM JESUS;412230;-26.101380667395894;-49.799394607543945;;
facility:0019194;facility;CNES 0019194 (Tijucas do Sul - PR);412760;-25.901483132138285;-49.11214530618573;;
facility:0019208;facility;CNES 0019208 (Tunas do Paraná - PR);412788;-24.95254578576798;-48.90261221544575;;
facility:0019283;facility;MATERNIDADE CARMELA DUTRA;420540;-27.589278772540954;-48.550450801849365;;
facility:0019305;facility;HOSPITAL FLORIANOPOLIS;420540;-27.589586;-48.587251;;
facility:0019402;facility;INSTITUTO DE ENSINO E PESQUISA DR IRINEU MAY BRODBECK;420540;-27.60289699547269;-48.54502469301224;;
facility:0019445;facility;CEPONSC;420540;-27.577328950000002;-48.50903912838352;;
facility:0020516;facility;US 167 POLICLINICA E MATERNIDADE PROFESSOR BARROS LIMA;261160;-8.0198029;-34.926056;;
facility:0020893;facility;CNES 0020893 (Salvador - BA);292740;-12.873498787784706;-38.51472863408121;;
facility:0021520;facility;UPA VILA LUZITA;354780;-23.699371499999998;-46.507145410165954;;
facility:0024074;facility;HOSPITAL MUNICIPAL DA MULHER E MATERNIDADE CELIA CAMARA;520870;-16.723344292949932;-49.43401336669922;;
facility:0024228;facility;UPA CENTRAL EMILIO PIRES MAGALHAES;354780;-23.6565972;-46.532651684926066;;
facility:0025135;facility;HOSPITAL MUNICIPAL SAO JOAO BATISTA;330630;-22.5008898;-44.0514597;;
facility:0025143;facility;HOSPITAL MUNICIPAL DR MUNIR RAFFUL;330630;-22.4994878;-44.122840027650305;;
facility:0025186;facility;H FOA ECOSSISTEMA EM SAUDE E EDUCACAO ESCOLA MEDICA;330630;-22.5108539;-44.0821926;;
facility:0025399;facility;MATERNIDADE MUNICIPAL HUMBERTO CARRANO;411320;-25.77440699552484;-49.71906781196594;;
facility:0026042;facility;CNES 0026042 (Maceió - AL);270430;-9.52239445793112;-35.71138393843422;;
facility:0026050;facility;HOSPITAL SANTA CECILIA;330630;-22.521833574600375;-44.11062240600586;;
facility:0026417;facility;HOSPITAL DE CLINICAS SUL;354990;-23.237994272343403;-45.90937614440918;;
facility:0026468;facility;CNES 0026468 (Aracaju - SE);280030;-10.99418891851923;-37.09490124668476;;
facility:0026476;facility;CNES 0026476 (Aracaju - SE);280030;-10.99418891851923;-37.09490124668476;;
facility:0026484;facility;HOSPITAL DE OLHOS DE SERGIPE;280030;-10.925363;-37.0548704;;
facility:0026549;facility;HORG;280030;-10.914408302583848;-37.053702475651704;;
facility:0026557;facility;OFTALMOCLINICA;280030;-10.920734423506731;-37.05220699310303;;
facility:0026719;facility;CENTRO OFTALMOLOGICO DE MINAS GERAIS;310620;-19.9218337;-43.9436227;;
facility:0026794;facility;HOSPITAL SOFIA FELDMAN;310620;-19.83614695;-43.914946281420285;;
facility:0026808;facility;HOSPITAL EVANGELICO DE BELO HORIZONTE;310620;-19.9399314;-43.9128421;;
facility:0026824;facility;CNES 0026824 (Belo Horizonte - MG);310620;-19.902697308291582;-43.95999231421237;;
facility:0026840;facility;COMPLEXO HOSPITALAR SAO FRANCISCO;310620;-19.900640152069414;-43.9334811014647;;
facility:0026859;facility;HOSPITAL FELICIO ROCHO;310620;-19.922993767557013;-43.95754337310791;;
facility:0026913;facility;HOSPITAL GALBA VELLOSO;310620;-19.928387;-43.9865718;;
facility:0026921;facility;HOSPITAL JOAO XXIII;310620;-19.9270424;-43.9321649;;
facility:0026948;facility;HOSPITAL INFANTIL JOAO PAULO II;310620;-19.924594;-43.9317717;;
facility:0026964;facility;HOSPITAL ALBERTO CAVALCANTI;310620;-19.91148526864942;-43.98924345800843;;
facility:0026972;facility;MATERNIDADE ODETE VALADARES;310620;-19.924069;-43.957676;;
facility:0026999;facility;INSTITUTO RAUL SOARES;310620;-19.922089651638007;-43.9192000170878;;
facility:0027014;facility;SANTA CASA DE BELO HORIZONTE;310620;-19.92446018263489;-43.92570371893125;;
facility:0027022;facility;HOSPITAL JULIA KUBITSCHEK;310620;-19.98966690232356;-43.997048261259934;;
facility:0027049;facility;HOSP DAS CLINICAS DA UNIV FED DE MINAS GERAIS EBSERH;310620;-19.9253417;-43.9292778;;
facility:0027820;facility;HOSPITAL INFANTIL PADRE ANCHIETA;310620;-19.878845480281566;-43.9579188945421;;
facility:0027863;facility;HOSPITAL RISOLETA TOLENTINO NEVES;310620;-19.817542246948534;-43.94853115081787;;
facility:0027898;facility;CNES 0027898 (Belo Horizonte - MG);310620;-19.902697308291582;-43.95999231421237;;
facility:0027936;facility;CNES 0027936 (Belo Horizonte - MG);310620;-19.902697308291582;-43.95999231421237;;
facility:0027979;facility;CNES 0027979 (Belo Horizonte - MG);310620;-19.902697308291582;-43.95999231421237;;
facility:0038806;facility;CNES 0038806 (Bauru - SP);350600;-22.25399542167874;-49.12613527193945;;
facility:0046124;facility;CNES 0046124 (Açailândia - MA);210005;-4.785818643661267;-47.332426349413325;;
facility:0052825;facility;SOPHIA MEDIC SERVICOS MEDICOS E CIRURGICOS LTDA;330045;-22.764132217456062;-43.39975118637085;;
facility:0062197;facility;CNES 0062197 (Unaí - MG);317040;-16.375766727749618;-46.81954819498662;;
facility:0072966;facility;CNES 0072966 (Bombinhas - SC);420245;-27.17325589422284;-48.51769540507136;;
facility:0073482;facility;HOSPITAL REGIONAL DO BAIXO TOCANTINS HOSPITAL SANTA ROSA;150010;-1.7268665248076225;-48.880791664123535;;
facility:0078050;facility;CNES 0078050 (Igaracy - PB);250260;-7.155193528900079;-38.12457712016862;;
facility:0086126;facility;HOSPITAL DE ENFRENTAMENTO AO CORONAVIRUS DE GOIANIA;520870;-16.643542278585027;-49.27377718577387;;
facility:0086673;facility;HOSPITAL ESTADUAL LEONARDO DA VINCI;230440;-3.7399924;-38.510255824335914;;
facility:0088935;facility;CNES 0088935 (Petrópolis - RJ);330390;-22.397967859606997;-43.15682996866087;;
facility:0090301;facility;HOSPITAL DE RETAGUARDA DOM VICENTE ZICO;150140;-1.4348152;-48.4569076;;
facility:0092894;facility;HOSPITAL REGIONAL DO LITORAL NORTE;351050;-23.623372;-45.417158;;
facility:0093297;facility;HOSPITAL DE CAMPANHA COVID 19 OURO PRETO;314610;-20.288;-43.508;;
facility:0100358;facility;CNES 0100358 (Sobral - CE);231290;-3.8110362584450135;-40.22786895944965;;
facility:0100668;facility;CNES 0100668 (Caxias do Sul - RS);430510;-29.10220619002385;-51.02367133760826;;
facility:0101826;facility;HOSPITAL DE CAMPANHA DO RECIFE HPR I AURORA;261160;-8.05015555;-34.874829032951666;;
facility:0102075;facility;HOSPITAL MUNICIPAL SANTA DULCE DOS POBRES;355030;-23.4757;-46.6974281;;
facility:0102083;facility;CNES 0102083 (São Paulo - SP);355030;-23.650049140231506;-46.64808599996871;;
facility:0102091;facility;UNIDADE DE TERAPIA INTENSIVA UTI CAR;110002;-9.909903388047791;-63.03210496902466;;
facility:0102105;facility;HOSPITAL MUNICIPAL BRASILANDIA;355030;-23.4757036;-46.6974047;;
facility:0102547;facility;HOSPITAL DE CAMPANHA COVID 19 DOM ENEMESIO;210140;-7.530191132368918;-46.03039741516113;;
facility:0102652;facility;CNES 0102652 (Camaçari - BA);290570;-12.666028706970154;-38.20630421161771;;
facility:0102741;facility;HOSPITAL DE CAMPANHA COVID 19 ARARAQUARA;350320;-21.81084947416039;-48.17721337080002;;
facility:0102792;facility;CNES 0102792 (Santos - SP);354850;-23.868898172775825;-46.29151878988766;;
facility:0103012;facility;CNES 0103012 (Cachoeira do Sul - RS);430300;-30.20619074342043;-52.986442395734;;
facility:0103276;facility;CNES 0103276 (Anápolis - GO);520110;-16.29058268395516;-48.97287341343124;;
facility:0103284;facility;HOSPITAL DE CAMPANHA COVID 19 BELEM;150140;-1.421371;-48.456766;;
facility:0103462;facility;HOSPITAL DE CAMPANHA COVID 19;353340;-22.8025456;-47.311115;;
facility:0103497;facility;CNES 0103497 (Salvador - BA);292740;-12.873498787784706;-38.51472863408121;;
facility:0103594;facility;HOSPITAL COVID 19 ITAIGARA;292740;-12.873498787784706;-38.51472863408121;;
facility:0103608;facility;CNES 0103608 (Cotia - SP);351300;-23.675143362761123;-46.96051947668741;;
facility:0103993;facility;HOSPITAL DE CAMPANHA DO MUNICIPIO DE VARGINHA HCMUV;317070;-21.5750805;-45.414326;;
facility:0104132;facility;CNES 0104132 (Volta Redonda - RJ);330630;-22.49092216337824;-44.08893312328573;;
facility:0104167;facility;CNES 0104167 (Betim - MG);310670;-19.9474534489578;-44.19916964725088;;
facility:0104213;facility;HOSPITAL DE CAMPANHA COVID 19 CEACOR;314480;-19.986;-43.847;;
facility:0104515;facility;HOSPITAL DE CAMPANHA COVID 19 SMS NATAL RN;240810;-5.8654684;-35.1809297;;
facility:0104523;facility;CNES 0104523 (Pelotas - RS);431440;-31.57100658223871;-52.3452496486786;;
facility:0104795;facility;HOSPITAL DE CAMPANHA COVID 19 HOSPITAL VITORIA;354850;-23.952561;-46.3359015;;
facility:0104884;facility;CNES 0104884 (São Gonçalo do Amarante - RN);241200;-5.787725193342509;-35.3647895374224;;
facility:0104892;facility;CNES 0104892 (Santana de Parnaíba - SP);354730;-23.449448112749;-46.91684767976479;;
facility:0105058;facility;CNES 0105058 (Jandira - SP);352500;-23.544151647080877;-46.89968410399078;;
facility:0105317;facility;HOSPITAL MUNICIPAL OCEANICO DR GILSON CANTARINO HMOGC;330330;-22.943388379407434;-43.061914570933546;;
facility:0105449;facility;HOSPITAL DE CAMPANHA COVID19 DE BRUMADINHO;310900;-20.1355692873303;-44.202632904052734;;
facility:0105457;facility;HOSPITAL DE CAMPANHA COVID 19 IPOJUCA;260720;-8.394941167600672;-34.9749755859375;;
facility:0105589;facility;HOSPITAL DE CAMPANHA COVID 19 FALCAO;354100;-24.0810734;-46.5943298;;
facility:0105597;facility;HOSPITAL DE CAMPANHA COVID 19 OSASCO;353440;-23.51362765;-46.788874412861276;;
facility:0105619;facility;HOSPITAL MUNICIPAL COVID 19 DE ITURAMA;313440;-19.728;-50.196;;
facility:0105678;facility;HOSPITAL DE CAMPANHA COVID 19;240325;-5.8941018;-35.2686871;;
facility:0105724;facility;CNES 0105724 (Corbélia - PR);410630;-24.7425038787711;-53.23704490272368;;
facility:0105759;facility;HOSPITAL DE CAMPANHA COVID 19 HOSPITAL DE URGENCIA;354870;-23.715734422660287;-46.55452787876129;;
facility:0105767;facility;HOSPITAL DE CAMPANHA COVID 19 HOSPITAL ANCHIETA;354870;-23.714192500000003;-46.5444141188369;;
facility:0105805;facility;HOSPITAL SAO JOSE;330170;-22.7886932;-43.3148691;;
facility:0105856;facility;CNES 0105856 (Taboão da Serra - SP);355280;-23.62053466595504;-46.78640477692692;;
facility:0106496;facility;CNES 0106496 (Salvador - BA);292740;-12.873498787784706;-38.51472863408121;;
facility:0106526;facility;CNES 0106526 (Salvador - BA);292740;-12.873498787784706;-38.51472863408121;;
facility:0107026;facility;CNES 0107026 (Marechal Cândido Rondon - PR);411460;-24.571487418083024;-54.13689021600279;;
facility:0107166;facility;CNES 0107166 (Bagé - RS);430160;-31.236486290571317;-54.01657797258111;;
facility:0107689;facility;HOSPITAL MUNICIPAL DE CONSELHEIRO LAFAIETE;311830;-20.659530237416764;-43.78669738769531;;
facility:0107816;facility;CNES 0107816 (Afonso Bezerra - RN);240030;-5.471440824729838;-36.59987333482732;;
facility:0107913;facility;HOSPITAL DE CAMPANHA COVID 19 AMBULATORIO MUNICIPAL;260020;-8.514626;-41.007743;;
facility:0108138;facility;CNES 0108138 (Passos - MG);314790;-20.71857617189507;-46.62201286333257;;
facility:0108308;facility;CNES 0108308 (Cabo de Santo Agostinho - PE);260290;-8.26922495429401;-35.08590236746862;;
facility:0108316;facility;CNES 0108316 (Cabo de Santo Agostinho - PE);260290;-8.26922495429401;-35.08590236746862;;
facility:0108375;facility;CNES 0108375 (Salvador - BA);292740;-12.873498787784706;-38.51472863408121;;
facility:0109258;facility;CNES 0109258 (Araruna - PR);410170;-23.95506470226432;-52.57657904123795;;
facility:0109266;facility;CNES 0109266 (Paulo Afonso - BA);292400;-9.53957240484018;-38.293680488524885;;
facility:0109703;facility;HOSPITAL DE CAMPANHA COVID 19 DIVINOPOLIS;312230;-20.157053;-44.862937;;
facility:0109746;facility;HOSPITAL DE CAMPANHA COVID 19 PEDRO DELL ANTONIA;354780;-23.6706964;-46.5104779;;
facility:0110140;facility;CENTRO DE ESPECIALIDADE MEDICAS;521800;-13.433097048969751;-49.137468338012695;;
facility:0110310;facility;HOSPITAL DE CAMPANHA COVID 19 CAIEIRAS;350900;-23.3929897;-46.7134702;;
facility:0110337;facility;CNES 0110337 (Penápolis - SP);353730;-21.4054028304539;-50.09569618976116;;
facility:0110345;facility;CENTRO DE TRIAGEM COVID 19 SJVRP;330515;-22.148754844798226;-42.91781187057495;;
facility:0110388;facility;CNES 0110388 (Itapira - SP);352260;-22.43196288449512;-46.77209427952755;;
facility:0110612;facility;UNIDADE RESPIRATORIA NOVA HORTOLANDIA;351907;-22.85804492556616;-47.22001075744629;;
facility:0110981;facility;HOSPITAL DE CAMPANHA COVID 19 DR AKIRA TADA;355280;-23.6171331;-46.7616769;;
facility:0111163;facility;HOSPITAL DE CAMPANHA COVID 19;210530;-5.513176;-47.488825;;
facility:0111171;facility;HOSPITAL DE CAMPANHA POMBOS COVID 19 PLUS;261130;-8.141;-35.396;;
facility:0111775;facility;CNES 0111775 (Jucati - PE);260825;-8.744040215661736;-36.45959305360453;;
facility:0111813;facility;HOSPITAL DE CAMPANHA COVID 19 DE FEIRA NOVA;260540;-7.953220761979262;-35.385074615478516;;
facility:0111856;facility;HOSPITAL COVID 19 GARANHUNS;260600;-8.888272877134547;-36.45894527435303;;
facility:0112062;facility;HOSPITAL DE CAMPANHA RIBEIRAO PIRES;354330;-23.711;-46.413;;
facility:0112097;facility;CNES 0112097 (Jaboatão dos Guararapes - PE);260790;-8.152191305028575;-35.00333636600754;;
facility:0112542;facility;HOSPITAL DE CAMPANHA COVID 19;353470;-22.979647;-49.867347;;
facility:0112755;facility;HOSPITAL DE CAMPANHA COVID 19 DE CAETES;260320;-8.773;-36.623;;
facility:0113115;facility;HOSPITAL MUNICIPAL RETAGUARDA GONCALENSE;330490;-22.8253875;-43.0484401;;
facility:0113123;facility;CNES 0113123 (São Paulo - SP);355030;-23.650049140231506;-46.64808599996871;;
facility:0113360;facility;CNES 0113360 (Goiana - PE);260620;-7.596874161259107;-34.94249661429631;;
facility:0113484;facility;CNES 0113484 (Ouro Preto do Oeste - RO);110015;-10.610552491070658;-62.17253034298432;;
facility:0113565;facility;CNES 0113565 (Senhor do Bonfim - BA);293010;-10.484164780401168;-40.11525403476249;;
facility:0113816;facility;CNES 0113816 (Paulista - PE);261070;-7.928148413004609;-34.88338249330017;;
facility:0113824;facility;CNES 0113824 (Cabo Frio - RJ);330070;-22.711758908707854;-42.057021027251054;;
facility:0113891;facility;HOSPITAL DO CANCER E DO CORACAO HCCOR;330490;-22.8230575;-42.9805507;;
facility:0113921;facility;HOSPITAL DE CAMPANHA;352390;-23.2695046;-47.2955734;;
facility:0115258;facility;CNES 0115258 (Santa Rita - PB);251370;-7.067297850152293;-35.00007018329911;;
facility:0115509;facility;HOSPITAL DE CLINICAS ANJO GABRIEL;352850;-23.276967932863997;-46.56528899114714;;
facility:0115878;facility;CNES 0115878 (Rio Verde - GO);521880;-17.73914544482921;-51.0385025751569;;
facility:0116335;facility;CNES 0116335 (Marabá - PA);150420;-5.629800330463251;-50.01696410815814;;
facility:0117234;facility;CNES 0117234 (Rio de Janeiro - RJ);330455;-22.923169231252785;-43.45112850490985;;
facility:0117277;facility;CNES 0117277 (Santarém - PA);150680;-2.6793413356777798;-55.23846633533838;;
facility:0117404;facility;CNES 0117404 (Carapebus - RJ);330093;-22.19593910568915;-41.6508960054913;;
facility:0118095;facility;CNES 0118095 (Camaçari - BA);290570;-12.666028706970154;-38.20630421161771;;
facility:0118427;facility;HOSPITAL DE CAMPANHA COVID19 RIBEIRAO DAS NEVES;315460;-19.767;-44.087;;
facility:0119016;facility;CNES 0119016 (Rio de Janeiro - RJ);330455;-22.923169231252785;-43.45112850490985;;
facility:0119326;facility;CNES 0119326 (Manaus - AM);130260;-2.625921541245994;-60.259625348748166;;
facility:0119377;facility;CNES 0119377 (Passira - PE);261050;-8.012450927578161;-35.54629234881802;;
facility:0126772;facility;HOSPITAL DE REFERENCIA COVID 19;330010;-23.001;-44.308;;
facility:0127248;facility;CNES 0127248 (Santa Cruz do Capibaribe - PE);261250;-7.889567943500506;-36.325304204883146;;
facility:0127604;facility;HOSPITAL DE RETAGUARDA DO JARDIM PAULISTA;350570;-23.540805866833043;-46.88161253929138;;
facility:0127647;facility;HOSPITAL DE CAMPANHA COVID 19 OURICURI;260990;-7.883;-40.082;;
facility:0127752;facility;HOSPITAL DE CAMPANHA MUNICIPAL DE SALGUEIRO;261220;-8.062905125090547;-39.11649942398071;;
facility:0127876;facility;CNES 0127876 (São Paulo - SP);355030;-23.650049140231506;-46.64808599996871;;
facility:0128341;facility;HOSPITAL DE CAMPANHA COVID 19 UPA LESTE;330040;-22.544;-44.171;;
facility:0128651;facility;HOSPITAL DE CAMPANHA DE TORITAMA;261540;-8.006563307078148;-36.05860412120819;;
facility:0129968;facility;CNES 0129968 (Queimados - RJ);330414;-22.725423437347235;-43.58495383431647;;
facility:0130303;facility;CNES 0130303 (Mombaça - CE);230850;-5.788104958901363;-39.748457472130085;;
facility:0130419;facility;CNES 0130419 (Cachoeirinha - RS);430310;-29.920923405760373;-51.0953326623544;;
facility:0130575;facility;HOSPITAL DE CAMPANHA DE BEZERROS;260190;-8.232183247821178;-35.74517458677292;;
facility:0130753;facility;HOSPITAL DE CAMPANHA COVID 19 PADRE PEDRO BALZI;221100;-5.089;-42.802;;
facility:0131202;facility;CNES 0131202 (Lauro de Freitas - BA);291920;-12.86354401773052;-38.32723284938902;;
facility:0131237;facility;HOSPITAL MUNICIPAL SAO JUDAS TADEU;330190;-22.749529;-42.87333;;
facility:0131350;facility;CNES 0131350 (Salvador - BA);292740;-12.873498787784706;-38.51472863408121;;
facility:0131709;facility;CNES 0131709 (Ilhéus - BA);291360;-14.752735791998598;-39.1918073761724;;
facility:0133035;facility;CNES 0133035 (Cruzeiro - SP);351340;-22.551429992455198;-45.00628763719483;;
facility:0133272;facility;HOSPITAL DE CAMPANHA COVID 19 MUNICIPIO DE TAUBATE;355410;-23.0306062;-45.5675989;;
facility:0133973;facility;CNES 0133973 (Bento Gonçalves - RS);430210;-29.12535805862538;-51.55148137044854;;
facility:0134163;facility;HOSPITAL DE CAMPANHA COVID 19 JACAREI;352440;-23.2998558;-45.9825136;;
facility:0134252;facility;HOSPITAL NOSSA SENHORA DAS GRACAS;261160;-8.1313758;-34.9030027;;
facility:0134716;facility;CNES 0134716 (Guarujá - SP);351870;-23.9512356645075;-46.2352572328113;;
facility:0135569;facility;CENTRO DE ATENDIMENTO AO COVID 19 JARU;110011;-10.4412187;-62.4809137;;
facility:0136069;facility;CNES 0136069 (Rio de Janeiro - RJ);330455;-22.923169231252785;-43.45112850490985;;
facility:0136131;facility;CNES 0136131 (Lavras - MG);313820;-21.264670437122152;-45.03849713297014;;
facility:0136328;facility;UNIDADE MISTA CIDADE NOVA PINDAMONHANGABA;353800;-22.9451305;-45.4115655;;
facility:0136581;facility;HOSPITAL METROPOLITANO DE ALAGOAS;270430;-9.6154029;-35.7173192;;
facility:0145041;facility;CNES 0145041 (Itaguaí - RJ);330200;-22.834583910658065;-43.81230299796818;;
facility:0145602;facility;CNES 0145602 (Grajaú - MA);210480;-5.840232826346225;-46.01494730757421;;
facility:0145688;facility;CNES 0145688 (Luís Eduardo Magalhães - BA);291955;-12.198388784671923;-46.020357537046415;;
facility:0145742;facility;CNES 0145742 (Boa Vista - RR);140010;3.1179138644986506;-60.717958117034776;;
facility:0145882;facility;CNES 0145882 (Santa Helena de Goiás - GO);521930;-17.801844492484626;-50.57910554779448;;
facility:0147028;facility;SOCIEDADE HOSPITALAR MARIA VITORIA;261160;-8.088696406877409;-34.933369159698486;;
facility:0147907;facility;HOSPITAL GERAL E DO CANCER DR STENIO HOLANDA FILHO;250750;-7.1173623;-34.8732281;;
facility:0150312;facility;HOSPITAL MUNICIPAL NOSSA SENHORA DE FATIMA;220770;-2.9132117;-41.7759906;;
facility:0150320;facility;CNES 0150320 (Açailândia - MA);210005;-4.785818643661267;-47.332426349413325;;
facility:0151475;facility;CNES 0151475 (Goiana - PE);260620;-7.596874161259107;-34.94249661429631;;
facility:0152617;facility;CNES 0152617 (Salinópolis - PA);150620;-0.6839753853735773;-47.351696648687536;;
facility:0152870;facility;CNES 0152870 (Barreiras - BA);290320;-12.01303499049597;-45.542335435511326;;
facility:0153087;facility;CNES 0153087 (Itapipoca - CE);230640;-3.395235178128501;-39.59829772144882;;
facility:0154369;facility;CNES 0154369 (São Luís - MA);211130;-2.633681950647707;-44.28089462646947;;
facility:0154687;facility;HOSPITAL MUNICIPAL CAMPANHA C 19;330020;-22.87392139837909;-42.33575105667114;;
facility:0155055;facility;MATERNIDADE SANTA CRUZ DA SERRA;330170;-22.642154;-43.279992;;
facility:0156507;facility;CNES 0156507 (Breves - PA);150180;-1.1209060268752595;-50.62814782913533;;
facility:0156647;facility;CNES 0156647 (Canindé - CE);230280;-4.402108437875256;-39.43036040631244;;
facility:0157392;facility;HOSPITAL DE CAMPANHA COVID 19 DE SAO BENEDITO;231230;-4.02489;-40.869817;;
facility:0157414;facility;HOSPITAL DE CAMPANHA COVID 19 PETROLINA;261110;-9.3526225;-40.4672571;;
facility:0157619;facility;CNES 0157619 (Águas Lindas de Goiás - GO);520025;-15.75574163669945;-48.28573594945783;;
facility:0158100;facility;CNES 0158100 (São Paulo - SP);355030;-23.650049140231506;-46.64808599996871;;
facility:0158119;facility;COMPLEXO HOSPITALAR MUNICIPAL SOROCABANA;355030;-23.548;-46.636;;
facility:0161438;facility;HOSPITAL MUNICIPAL GUARAPIRANGA;355030;-23.705922;-46.741949;;
facility:0163279;facility;HOSPITAL DE CAMPANHA COVID 19 UFABC;354780;-23.64465645;-46.52841501014528;;
facility:0163538;facility;CNES 0163538 (Poços de Caldas - MG);315180;-21.808073246604632;-46.56327553110067;;
facility:0163635;facility;CNES 0163635 (Confresa - MT);510335;-10.404164735466168;-51.69857000498182;;
facility:0163864;facility;HOSPITAL REGIONAL DE IVAIPORA;411150;-24.2453993304624;-51.6625213682584;;
facility:0163872;facility;CNES 0163872 (Riachão - MA);210950;-7.597916747563648;-46.65940696159107;;
facility:0164542;facility;HOSPITAL MUNICIPAL DO RIBEIRAO;261180;-8.498688527900752;-35.373873710632324;;
facility:0171557;facility;CNES 0171557 (Rondonópolis - MT);510760;-16.56747338887854;-54.68479188816129;;
facility:0174378;facility;CNES 0174378 (Santa Bárbara d'Oeste - SP);354580;-22.800621232507886;-47.42807524451499;;
facility:0174815;facility;CNES 0174815 (Teresina - PI);221100;-5.1026516513853135;-42.74060466904587;;
facility:0174971;facility;CNES 0174971 (Brasília - DF);530010;-15.781172363612123;-47.7968439416826;;
facility:0176664;facility;HOSPITAL DE CAMPANHA CENTRO COVID IV;160030;0.5627552308237873;-51.081833839416504;;
facility:0177105;facility;CNES 0177105 (Santa Bárbara d'Oeste - SP);354580;-22.800621232507886;-47.42807524451499;;
facility:0177121;facility;CNES 0177121 (Santa Bárbara d'Oeste - SP);354580;-22.800621232507886;-47.42807524451499;;
facility:0177474;facility;CNES 0177474 (Cândido Sales - BA);290670;-15.355086123079898;-41.26948543624991;;
facility:0178012;facility;CNES 0178012 (Campina Grande - PB);250400;-7.263558240894653;-35.965632551352954;;
facility:0178918;facility;CNES 0178918 (Piquet Carneiro - CE);231090;-5.862969950188376;-39.4516774251275;;
facility:0179019;facility;CNES 0179019 (São José da Laje - AL);270830;-8.98749410135786;-36.04000519127999;;
facility:0179108;facility;CNES 0179108 (Rafael Jambeiro - BA);292595;-12.4787366563258;-39.57407553362336;;
facility:0179140;facility;CNES 0179140 (Macau - RN);240720;-5.195950233422388;-36.523440647467794;;
facility:0179418;facility;CNES 0179418 (Ibiúna - SP);351970;-23.8023823088062;-47.21525189533563;;
facility:0179434;facility;HOSPITAL DO OLHO LAGOS;330520;-22.83125;-42.09388;;
facility:0179817;facility;CNES 0179817 (Itaituba - PA);150360;-5.871132568778085;-56.49671810237083;;
facility:0180505;facility;HOSPITAL DE FEIRA DE SANTANA;291080;-12.2354098;-38.945119;;
facility:0180637;facility;HOSPITAL DR RAIMUNDO LIMA SLZ;211130;-2.530365;-44.3274911;;
facility:0180998;facility;CNES 0180998 (Sapucaia - RJ);330540;-22.0241180614502;-42.82280527546039;;
facility:0181145;facility;CNES 0181145 (Araçoiaba da Serra - SP);350290;-23.54385398742114;-47.651511850900505;;
facility:0181277;facility;NOVAMEDIC MEDICINA DIAGNOSTICA;510622;-13.833329536514055;-56.11013889312744;;
facility:0181927;facility;CNES 0181927 (Guaíba - RS);430930;-30.17733250518573;-51.43419820195478;;
facility:0182974;facility;HOSPITAL E MATERNIDADE MUNICIPAL DE QUEIMADOS;330414;-22.71832434384697;-43.55583965778351;;
facility:0183229;facility;CNES 0183229 (Tianguá - CE);231340;-3.7361308927266585;-41.05497758796477;;
facility:0184632;facility;HOSPITAL DE CAMPANHA COVID 19;330555;-22.74264267176382;-43.70511531829834;;
facility:0184667;facility;CNES 0184667 (Cianorte - PR);410550;-23.72746312928251;-52.62698382676394;;
facility:0188425;facility;HOSPITAL REGIONAL DR RUBENS JORGE;210570;-4.5647445;-45.125891;;
facility:0189979;facility;HOSPITAL DE CAMPANHA COVID 19 CARAGUATATUBA;351050;-23.6308412;-45.4210671;;
facility:0190802;facility;CNES 0190802 (Mata de São João - BA);292100;-12.48398174977967;-38.14886998954166;;
facility:0191493;facility;HOSPITAL DE CAMPANHA COVID 19 FERNANDA PAES;260610;-8.002074535605592;-35.293214321136475;;
facility:0191787;facility;LEITOS DE ENFERMARIA COVID GRAJAU MA;210480;-5.821125009072497;-46.14038944244385;;
facility:0196231;facility;HOSPITAL REGIONAL DR KLEBER CARVALHO BRANCO;210820;-4.56;-44.603;;
facility:0196398;facility;HOSPITAL MUNICIPAL ENCAMPADO CLINICA DA CRIANCA;510795;-14.616038843182288;-57.49016761779785;;
facility:0197831;facility;HOSPITAL DE CAMPANHA COVID 19 CARLOS LOURENCO;350950;-22.9225783;-47.0274248;;
facility:0198552;facility;CNES 0198552 (Chorrochó - BA);290770;-9.27172193120376;-39.18910997369613;;
facility:0198684;facility;CNES 0198684 (Alvorada do Sul - PR);410080;-22.810656817816263;-51.25507256077993;;
facility:0199176;facility;CNES 0199176 (Feira Nova do Maranhão - MA);210407;-7.018608083731515;-46.62674705562407;;
facility:0199966;facility;CNES 0199966 (Serra do Salitre - MG);316680;-19.159150890669;-46.65451830971271;;
facility:0203505;facility;CNES 0203505 (Caapiranga - AM);130083;-3.082020195540638;-61.87774870432048;;
facility:0205451;facility;CNES 0205451 (Glória D'Oeste - MT);510395;-15.839198370861896;-58.32529380551684;;
facility:0208116;facility;CNES 0208116 (Capela - AL);270170;-9.34590971987436;-36.09326369288978;;
facility:0210188;facility;HOSPITAL DE RETAGUARDA WALDO MACHADO XAVIER;520450;-17.70953670581703;-48.646324753396016;;
facility:0211125;facility;CENTRO DE SAUDE DE XIQUE XIQUE;293360;-10.8322286;-42.7312021;;
facility:0211397;facility;CNES 0211397 (Jacundá - PA);150380;-4.598528228352157;-49.18120970728982;;
facility:0212679;facility;HOSPITAL CAMPANHA COVID 19;316860;-17.8691433;-41.5077841;;
facility:0213527;facility;HOSPITAL ESTADUAL DE CAMPANHA COVID 19 BAURU;350600;-22.3335201;-49.0600231;;
facility:0213837;facility;CNES 0213837 (Porto Velho - RO);110020;-9.153582029071597;-64.30679728499692;;
facility:0213845;facility;HOSPITAL REGIONAL DE GUARAPUAVA;410940;-25.395;-51.458;;
facility:0214299;facility;CNES 0214299 (Petrolina - PE);261110;-9.019794773413592;-40.57235420942636;;
facility:0214310;facility;HOSPITAL DE CAMPANHA COVID 19 RIO DAS OSTRAS;330452;-22.516981;-41.9440618;;
facility:0214396;facility;CNES 0214396 (Sumaré - SP);355240;-22.84184692413677;-47.26297363852181;;
facility:0214930;facility;CNES 0214930 (Parauapebas - PA);150553;-6.151736850546234;-50.48976857294857;;
facility:0215368;facility;CNES 0215368 (Ubatuba - SP);355540;-23.38108800525287;-45.02408953508536;;
facility:0218669;facility;CNES 0218669 (Sinop - MT);510790;-11.71086502634726;-55.50150511851559;;
facility:0218782;facility;CNES 0218782 (Lauro de Freitas - BA);291920;-12.86354401773052;-38.32723284938902;;
facility:0218944;facility;CNES 0218944 (Santa Helena de Goiás - GO);521930;-17.801844492484626;-50.57910554779448;;
facility:0219436;facility;MATERNIDADE LAURINDO JOSE FERREIRA;330360;-22.6276506;-43.7007294;;
facility:0220027;facility;CNES 0220027 (Castanhal - PA);150240;-1.268515026828647;-47.87698646685054;;
facility:0220337;facility;HOSPITAL DE CLINICAS DE CAMPINA GRANDE;250400;-7.23072;-35.8817;;
facility:0221015;facility;HOSPITAL MUNICIPAL DR JAQUELINE PRATES CNPJ 31 135 0460001 4;330020;-22.8740661;-42.3355732;;
facility:0223980;facility;CNES 0223980 (Salvador - BA);292740;-12.873498787784706;-38.51472863408121;;
facility:0225568;facility;CNES 0225568 (Ituberá - BA);291730;-13.74931777498125;-39.15292667244918;;
facility:0225886;facility;CNES 0225886 (Ponta de Pedras - PA);150570;-1.117501543422431;-49.07728962192237;;
facility:0225967;facility;CNES 0225967 (Juazeiro do Norte - CE);230730;-7.182814211506161;-39.28616771435244;;
facility:0226491;facility;HOSPITAL EDUARDO CAMPOS;261390;-7.98603;-38.296;;
facility:0229385;facility;CNES 0229385 (Timóteo - MG);316870;-19.55800384636529;-42.60263206478345;;
facility:0230065;facility;REDE DE ATENCAO AO COVID 19 LEITOS DE RETAGUARDA MUNICIPAL;261390;-7.986;-38.296;;
facility:0245364;facility;CNES 0245364 (Petrolina - PE);261110;-9.019794773413592;-40.57235420942636;;
facility:0246417;facility;CNES 0246417 (Tupaciguara - MG);316960;-18.53501763460522;-48.75527123233724;;
facility:0247774;facility;CNES 0247774 (Pontalina - GO);521770;-17.531078186808127;-49.537683159882135;;
facility:0248150;facility;CNES 0248150 (Altamira - PA);150060;-6.486176716653461;-53.88668267930181;;
facility:0249483;facility;CNES 0249483 (Araguari - MG);310350;-18.57711922597632;-48.22204317992429;;
facility:0252492;facility;HOSPITAL DE CAMPANHA DO CENTRO MEDICO DA PM;530010;-15.82390409362647;-47.93961524963379;;
facility:0252654;facility;CNES 0252654 (Santaluz - BA);292800;-11.220225226146267;-39.4852407197305;;
facility:0253987;facility;CNES 0253987 (Porto Velho - RO);110020;-9.153582029071597;-64.30679728499692;;
facility:0254460;facility;CNES 0254460 (Altamira - PA);150060;-6.486176716653461;-53.88668267930181;;
facility:0255297;facility;HOSPITAL ESTADUAL COVID 19 BEBEDOURO;350610;-20.949;-48.479;;
facility:0255874;facility;HOSPITAL DE CAMPANHA COVID 19 GUARATINGUETA;351840;-22.8223812;-45.1910647;;
facility:0256684;facility;CENTRO DE PARTO NORMAL IMACULADA CONCEICAO;270470;-9.713604358705764;-35.89840650558472;;
facility:0258857;facility;CNES 0258857 (Juazeiro do Norte - CE);230730;-7.182814211506161;-39.28616771435244;;
facility:0260568;facility;CNES 0260568 (Gandu - BA);291120;-13.788697830349662;-39.48269172860427;;
facility:0262862;facility;CNES 0262862 (Goiânia - GO);520870;-16.643542278585027;-49.27377718577387;;
facility:0265187;facility;CNES 0265187 (São Sebastião - SP);355070;-23.754240287734937;-45.60676565344816;;
facility:0265500;facility;US 111 HOSPITAL EDUARDO CAMPOS DA PESSOA IDOSA DO RECIFE;261160;-8.100162749999999;-34.9256068367588;;
facility:0265896;facility;CNES 0265896 (Água Clara - MS);500020;-19.962830048165355;-52.9266811820876;;
facility:0267317;facility;CNES 0267317 (Lajedo - PE);260880;-8.677937470291633;-36.28628192941907;;
facility:0267503;facility;CNES 0267503 (Miguelópolis - SP);352970;-20.18469697716618;-48.10547560944959;;
facility:0270865;facility;CNES 0270865 (Uberlândia - MG);317020;-19.027777044686275;-48.33173691788792;;
facility:0272957;facility;CNES 0272957 (Sete Lagoas - MG);316720;-19.437246397063497;-44.25345659806914;;
facility:0276456;facility;CNES 0276456 (Floriano - PI);220390;-7.005808882307984;-43.0793842573213;;
facility:0282715;facility;HOSPESC HOSPITAL DOS PESCADORES;240810;-5.7710393;-35.2029647;;
facility:0283800;facility;CNES 0283800 (Simões Filho - BA);293070;-12.767693906245023;-38.4006778749365;;
facility:0294217;facility;CNES 0294217 (Ribeirão Cascalheira - MT);510718;-12.874755070826758;-51.56832373990785;;
facility:0302961;facility;HOSPITAL DE CAMPANHA COVID 19 RIO CLARO;354390;-22.411;-47.561;;
facility:0303267;facility;HOSPITAL MUNICIPAL EUCLIDES HORST;510263;-13.65032398353722;-57.8898811340332;;
facility:0366323;facility;CNES 0366323 (Criciúma - SC);420460;-28.71567615925795;-49.37971798399219;;
facility:0379883;facility;CNES 0379883 (Belford Roxo - RJ);330045;-22.728770335693767;-43.37756366550491;;
facility:0398705;facility;CNES 0398705 (Santo Amaro da Imperatriz - SC);421570;-27.741753988163968;-48.796547650927984;;
facility:0404853;facility;AME AMBULATORIO MEDICO DE ESPECIALIDADES DE CAMPINAS;350950;-22.906004791640036;-47.06388473510742;;
facility:0405159;facility;CNES 0405159 (Sinop - MT);510790;-11.71086502634726;-55.50150511851559;;
facility:0407720;facility;CNES 0407720 (Natal - RN);240810;-5.803177520545519;-35.22883356599637;;
facility:0415383;facility;CNES 0415383 (Várzea Alegre - CE);231400;-6.771789777013255;-39.29784813003217;;
facility:0419478;facility;CNES 0419478 (Rio Grande - RS);431560;-32.2175163152798;-52.403522391016345;;
facility:0420964;facility;CNES 0420964 (São Carlos - SP);354890;-21.91888050502804;-47.867167006877146;;
facility:0424811;facility;CNES 0424811 (Catu - BA);290750;-12.33057623349553;-38.41289954688791;;
facility:0431451;facility;CNES 0431451 (Águas Lindas de Goiás - GO);520025;-15.75574163669945;-48.28573594945783;;
facility:0450472;facility;CNES 0450472 (Guia Lopes da Laguna - MS);500410;-21.5416407480835;-55.99614483496064;;
facility:0451126;facility;CNES 0451126 (Criciúma - SC);420460;-28.71567615925795;-49.37971798399219;;
facility:0451436;facility;CNES 0451436 (Uruana - GO);522170;-15.57780624848857;-49.64224026836445;;
facility:0454788;facility;CNES 0454788 (São Luís do Curu - CE);231260;-3.646289894847091;-39.26448555470272;;
facility:0456306;facility;CNES 0456306 (Cáceres - MT);510250;-16.537400924922895;-57.83361079979341;;
facility:0457493;facility;CNES 0457493 (Madre de Deus - BA);291992;-12.741104473058208;-38.64270927128258;;
facility:0478024;facility;UBS LUZ DA ESPERANCA;354980;-20.772713;-49.318524;;
facility:0478849;facility;UBS FRATERNIDADE;354980;-20.876123;-49.339139;;
facility:0491632;facility;CNES 0491632 (Abadia dos Dourados - MG);310010;-18.3533083028482;-47.45900470338145;;
facility:0493899;facility;CNES 0493899 (Ipanema - MG);313120;-19.757801951684385;-41.74935114215639;;
facility:0503894;facility;CNES 0503894 (Lençóis - BA);291930;-12.424986611619346;-41.33729706863356;;
facility:0514292;facility;CNES 0514292 (Santarém - PA);150680;-2.6793413356777798;-55.23846633533838;;
facility:2000024;facility;UNIDADE MISTA DE SAUDE DO MUNICIPIO DE RODRIGUES ALVES;120042;-7.742;-72.647;;
facility:2000083;facility;CNES 2000083 (Mâncio Lima - AC);120033;-7.504426008096305;-73.43908274209865;;
facility:2000121;facility;HOSPITAL DR SANSAO GOMES;120060;-8.16668037;-70.7662439;;
facility:2000172;facility;SESACRE HOSPITAL DE DERMATOLOGIA SANITARIA;120020;-7.624668451151956;-72.66201853752136;;
facility:2000296;facility;HOSPITAL DA MULHER E DA CRIANCA DO JURUA;120020;-7.636009437420734;-72.67406702041626;;
facility:2000385;facility;HOSPITAL INFANTIL IOLANDA COSTA E SILVA;120040;-9.985989592033405;-67.80978441238403;;
facility:2000393;facility;HOSPITAL EPAMINONDAS JACOME;120070;-10.650190640678137;-68.50640773773193;;
facility:2000636;facility;CNES 2000636 (Feijó - AC);120030;-8.92441953086217;-70.74476349462839;;
facility:2000725;facility;HOSPITAL DR ARY RODRIGUES;120045;-10.158544012357204;-67.7322793006897;;
facility:2000733;facility;MATERNIDADE E CLINICAS DE MULHERES BARBARA HELIODORA;120040;-9.969711;-67.812496;;
facility:2000822;facility;CNES 2000822 (Plácido de Castro - AC);120038;-10.249084663234742;-67.34031867614065;;
facility:2000857;facility;HOSPITAL DE SAUDE MENTAL DO ACRE;120040;-9.9909949;-67.8215683;;
facility:2000865;facility;HOSPITAL JOAO CANCIO FERNANDES;120050;-9.06721;-68.6577;;
facility:2000970;facility;SESACRE UNIDADE MISTA DE MANOEL URBANO;120034;-8.842096377000919;-69.25929307937622;;
facility:2000997;facility;HOSPITAL DR MANOEL MARINHO MONTE;120038;-10.333107;-67.184474;;
facility:2001020;facility;UNIDADE MISTA DE SAUDE ANTONIO BALBINO RODRIGUES;120005;-10.9427;-69.567;;
facility:2001500;facility;HOSPITAL RAIMUNDO CHAAR;120010;-11.00992746751825;-68.74804258346558;;
facility:2001578;facility;HOSPITAL GERAL DE CLINICAS DE RIO BRANCO;120040;-9.9649435;-67.8152152;;
facility:2001586;facility;FUNDHACRE;120040;-9.966;-67.85465;;
facility:2001594;facility;UNIDADE MISTA DE MARECHAL THAUMATURGO;120035;-8.948560699208226;-72.78564691543579;;
facility:2002078;facility;HOSPITAL SANTA JULIANA;120040;-9.955714;-67.814723;;
facility:2003368;facility;HOSPITAL PORTUGAL RAMALHO;270430;-9.6457902;-35.7403299;;
facility:2003570;facility;HOSPITAL MUNICIPAL DE VICOSA;270940;-9.37170006372915;-36.24539852142334;;
facility:2003775;facility;SANTA CASA DE MISERICORDIA DE PENEDO;270670;-10.285466;-36.5755999;;
facility:2003856;facility;UNIDADE MISTA MARIA LOUREIRO CAVALCANTE;270210;-8.9099088;-35.716652;;
facility:2003910;facility;CASA MATERNAL FREI DAMIAO;270235;-9.6190573;-36.7656029;;
facility:2004488;facility;CNES 2004488 (Major Isidoro - AL);270440;-9.542686249449009;-37.01062721835744;;
facility:2004976;facility;CNES 2004976 (Arapiraca - AL);270030;-9.749274072402468;-36.64101340937759;;
facility:2005026;facility;H N SRA DE LTDA;270030;-9.752074072803774;-36.65908098220825;;
facility:2005050;facility;HOSPITAL REGIONAL DE ARAPIRACA;270030;-9.751503086920025;-36.664016246795654;;
facility:2005123;facility;HOSPITAL PSIQUIATRICO TEODORA ALBUQUERQUE;270030;-9.762520827021639;-36.597347259521484;;
facility:2005344;facility;CNES 2005344 (Arapiraca - AL);270030;-9.749274072402468;-36.64101340937759;;
facility:2005417;facility;CHAMA;270030;-9.745349065895036;-36.63442611694336;;
facility:2006197;facility;HOSPITAL UNIVERSITARIO PROF ALBERTO ANTUNES;270430;-9.5389075;-35.7776847;;
facility:2006219;facility;CNES 2006219 (Maceió - AL);270430;-9.52239445793112;-35.71138393843422;;
facility:2006286;facility;CLINICA INFANTIL SANTA MARIA SOCIEDADE CIVIL LTDA;270430;-9.666076843978226;-35.7349419593811;;
facility:2006340;facility;CASA DE SAUDE SANTO ANTONIO;270430;-9.6519988;-35.7406271;;
facility:2006359;facility;SANATORIO HOSPITAL GERAL;270430;-9.6655304;-35.7322459;;
facility:2006391;facility;CASA DE SAUDE MIGUEL COUTO;270430;-9.666055690938848;-35.734877586364746;;
facility:2006405;facility;CNES 2006405 (Maceió - AL);270430;-9.52239445793112;-35.71138393843422;;
facility:2006413;facility;CASA DE SAUDE E CLINICA DE REPOUSO ULYSSES PERNAMBUCANO;270430;-9.6360541;-35.734899044036865;;
facility:2006421;facility;HOSPITAL ORTOPEDICO DE MACEIO;270430;-9.6624849;-35.735;;
facility:2006448;facility;HOSPITAL VEREDAS;270430;-9.6302718;-35.7336425;;
facility:2006472;facility;CNES 2006472 (Maceió - AL);270430;-9.52239445793112;-35.71138393843422;;
facility:2006499;facility;CNES 2006499 (Maceió - AL);270430;-9.52239445793112;-35.71138393843422;;
facility:2006510;facility;HOSPITAL GERAL DO ESTADO DR OSVALDO BRANDAO VILELA;270430;-9.66971514695776;-35.73401927947998;;
facility:2006944;facility;HOSPITAL DE OLHOS SANTA LUZIA;270430;-9.6161164;-35.73732376098633;;
facility:2006960;facility;HOSPITAL VIDA;270430;-9.6558108;-35.729942321777344;;
facility:2006979;facility;INSTITUTO DE OLHOS DE MACEIO;270430;-9.64949245306766;-35.733890533447266;;
facility:2007037;facility;SANTA CASA DE MISERICORDIA DE MACEIO;270430;-9.665825;-35.7413631;;
facility:2007401;facility;CNES 2007401 (Limoeiro de Anadia - AL);270420;-9.73238785449136;-36.4677456560279;;
facility:2007584;facility;CNES 2007584 (Inhapi - AL);270330;-9.271793775353537;-37.69217728108398;;
facility:2007967;facility;CNES 2007967 (Anadia - AL);270020;-9.662981132239764;-36.31351512634524;;
facility:2008106;facility;HOSPITAL JOAO LIRA FILHO;270040;-9.511201147644107;-36.00022315979004;;
facility:2008858;facility;HOSPITAL JOSE AUGUSTO;270850;-9.31812;-35.56138;;
facility:2009161;facility;HOSPITAL LUIZ ARRUDA;270510;-9.157694055616357;-35.53114312357763;;
facility:2009242;facility;HOSPITAL MUNICIPAL ANA ANITA GOMES FRAGOSO;270380;-9.13309267349457;-35.74680805206299;;
facility:2009250;facility;MATERNIDADE ESCOLA SANTA MONICA;270430;-9.6671824;-35.7250541;;
facility:2009528;facility;HOSPITAL MUNICIPAL GILVAN RAPOSO TENORIO;270100;-9.643976481395368;-36.213083267211914;;
facility:2009900;facility;CLINICA INFANTIL DE AL DRA DAISY BREDA;270430;-9.66586531352466;-35.73251724243164;;
facility:2010151;facility;SANTA CASA DE MISERICORDIA DE SAO MIGUEL DOS CAMPOS;270860;-9.776583247820643;-36.09410047531128;;
facility:2010356;facility;CARVALHO BELTRAO SERVICOS DE SAUDE LTDA;270230;-10.1241934;-36.1772582;;
facility:2010380;facility;HOSPITAL MUNICIPAL DR AUGUSTO DIAS CARDOSO;270130;-9.396882375673595;-36.15407466888428;;
facility:2010631;facility;HOSPITAL REGIONAL SANTA RITA E MATERNIDADE SANTA OLIMPIA;270630;-9.41151;-36.63339;;
facility:2010887;facility;2010887 UMS ELPIDIO CAVALCANTE DE ALBURQUERQUE;270280;-9.276786915351027;-35.72278618812561;;
facility:2011166;facility;HOSPNOSSA SENHORA DE LOURDES E MAT ARMANDO LAGES;270690;-9.610452983268639;-35.959509909152985;;
facility:2011689;facility;UNIDADE ANTONIO VIEIRA FILHO;270070;-9.670942007692584;-37.129669189453125;;
facility:2011859;facility;UNIDADE HOSPITALAR DE SAO SEBASTIAO DO UATUMA;130395;-2.5690201;-57.8715083;;
facility:2011875;facility;UNIDADE HOSPITALAR DE JUTAI;130230;-2.746832775358215;-66.76852136850357;;
facility:2011891;facility;HOSPITAL RAIMUNDO RODRIGUES IRMAO;130255;-3.4287759029877747;-60.46226978302002;;
facility:2011905;facility;UNIDADE HOSPITALAR DE NOVA OLINDA DO NORTE;130310;-3.890865445724483;-59.099836349487305;;
facility:2012022;facility;UNIDADE HOSPITALAR DE BARREIRINHA;130050;-2.8015767985774875;-57.070841789245605;;
facility:2012030;facility;HOSPITAL E P S DA CRIANCA DA ZONA LESTE;130260;-3.075085;-59.964436;;
facility:2012162;facility;CEDOA;130260;-3.098928487800204;-60.019469261169434;;
facility:2012359;facility;CNES 2012359 (Manaus - AM);130260;-2.625921541245994;-60.259625348748166;;
facility:2012383;facility;HOSPITAL DE BORBA VO MUNDOCA;130080;-4.395582933796165;-59.592204093933105;;
facility:2012464;facility;CNES 2012464 (Manaus - AM);130260;-2.625921541245994;-60.259625348748166;;
facility:2012472;facility;HOSPITAL E PRONTO SOCORRO DA CRIANCA ZONA SUL;130260;-3.120051;-60.010184;;
facility:2012480;facility;MATERNIDADE DR MOURA TAPAJOZ;130260;-3.095904276;-60.05790769;;
facility:2012499;facility;UNIDADE HOSPITALAR DE BOCA DO ACRE;130070;-8.770954591222708;-67.33988285064697;;
facility:2012553;facility;UNIDADE HOSPITALAR DE TAPAUA;130410;-5.62798864916508;-63.18950993170578;;
facility:2012618;facility;HOSPITAL REGIONAL DE LABREA;130240;-7.269502800935558;-64.79066848754883;;
facility:2012677;facility;FUNDACAO CECON;130260;-3.0840478220509944;-60.04447817802429;;
facility:2012685;facility;FUNDACAO HOSPITAL ADRIANO JORGE;130260;-3.118870822798664;-60.00560760498047;;
facility:2012804;facility;UNIDADE HOSPITALAR DE TONANTINS HOSPITAL FREI FRANCISCO;130423;-2.8600793990710733;-67.7723354101181;;
facility:2012839;facility;UNIDADE HOSPITALAR DE IRANDUBA;130185;-3.2733881502852413;-60.180702209472656;;
facility:2013029;facility;MATERNIDADE DR ANTENOR BARBOSA;130260;-3.0769737;-60.0556695;;
facility:2013045;facility;UNIDADE HOSPITALAR DE AUTAZES;130030;-3.5786988060912392;-59.13347125053406;;
facility:2013258;facility;HOSPITAL GERAL DE MANACAPURU;130250;-3.292052471010196;-60.63012778759003;;
facility:2013274;facility;FUNDACAO HEMOAM;130260;-3.0860635;-60.0265973;;
facility:2013282;facility;HOSPITAL DORVALINO LAGASSE;130014;-7.12244149;-59.8148852;;
facility:2013320;facility;HOSPITAL GERAL E MATERNIDADE ERALDO NEVES FALCAO;130353;-2.0447582425986375;-60.02684533596039;;
facility:2013495;facility;CNES 2013495 (Japurá - AM);130210;-1.6970763022426971;-68.32111697312799;;
facility:2013568;facility;CNES 2013568 (Itamarati - AM);130195;-6.682817926344909;-68.11283501620126;;
facility:2013606;facility;FUNDACAO DE MEDICINA TROPICAL;130260;-3.0867368562872826;-60.03496170043945;;
facility:2013614;facility;UNIDADE HOSPITALAR DE IPIXUNA;130180;-7.05334274181502;-71.68744325637817;;
facility:2013649;facility;HOSPITAL PRONTO SOCORRO 28 DE AGOSTO;130260;-3.091978;-60.0144017;;
facility:2014688;facility;UNIDADE HOSPITALAR HAMILTON CIDADE;130270;-5.809341328874326;-61.29892587661743;;
facility:2015242;facility;CNES 2015242 (Barcelos - AM);130040;-0.4650966775117059;-63.43471492090846;;
facility:2016125;facility;HOSPITAL DE GUARNICAO DE TABATINGA;130406;-4.25335;-69.9385;;
facility:2016141;facility;HOSPITAL REGIONAL DE TEFE;130420;-3.3526274205536275;-64.7280764579773;;
facility:2016249;facility;UNIDADE HOSPITALAR DE SILVES;130400;-2.8432774;-58.2087951;;
facility:2016354;facility;UNIDADE HOSPITALAR DE BOA VISTA DO RAMOS;130068;-2.9751912;-57.560353;;
facility:2016397;facility;CNES 2016397 (Eirunepé - AM);130140;-7.0220035191262;-70.2182539363535;;
facility:2016419;facility;UNIDADE HOSPITALAR DE CANUTAMA;130090;-6.5373311;-64.3875848;;
facility:2016443;facility;UNIDADE HOSPITALAR DE UARINI;130426;-2.978698810547399;-65.16122102737427;;
facility:2016478;facility;CNES 2016478 (Santa Isabel do Rio Negro - AM);130360;-0.3183681361381749;-65.52132920731893;;
facility:2016540;facility;UNIDADE HOSPITALAR DE NHAMUNDA;130300;-2.1904382988613857;-56.71470827657196;;
facility:2016567;facility;CNES 2016567 (Urucurituba - AM);130440;-2.813764407537207;-57.77131523665416;;
facility:2016605;facility;UNIDADE HOSPITALAR DE BERURI AM;130063;-3.903123423807061;-61.37164709310024;;
facility:2016648;facility;UNIDADE HOSPITALAR DE AMATURA;130006;-3.364;-68.198;;
facility:2016656;facility;UNIDADE HOSPITALAR DE CAAPIRANGA;130083;-3.3285178473891257;-61.21388912200928;;
facility:2016672;facility;UNIDADE HOSPITALAR DE ATALAIA DO NORTE;130020;-4.365025531591415;-70.19049167633057;;
facility:2016893;facility;HOSPITAL PADRE COLOMBO;130340;-2.634521;-56.744795;;
facility:2016915;facility;CNES 2016915 (Careiro da Várzea - AM);130115;-3.285999437941232;-59.598687619073104;;
facility:2016923;facility;HOSPITAL REGIONAL JOSE MENDES;130190;-3.136841633438505;-58.443628549575806;;
facility:2016974;facility;HOSPITAL GERAL DE BENJAMIN CONSTANT DOUTOR MELVINO DE JESUS;130060;-4.375942471282346;-70.01861304044724;;
facility:2017016;facility;HOSPITAL REGIONAL DR LUIZA DA CONCEICAO FERNANDES;130170;-7.520379025393549;-63.03653061389923;;
facility:2017318;facility;MATERNIDADE DONA NAZIRA DAOU;130260;-3.0328209637465866;-59.963529109954834;;
facility:2017431;facility;INSTITUTO DE SAUDE DA CRIANCA DO AMAZONAS ICAM;130260;-3.1184476614034082;-59.998741149902344;;
facility:2017555;facility;UNIDADE HOSPITALAR DE CARAUARI;130100;-4.817312315826116;-66.829833984375;;
facility:2017644;facility;HOSPITAL UNIVERSITARIO GETULIO VARGAS HUGV;130260;-3.1166839;-60.0187133;;
facility:2017652;facility;UNIDADE HOSPITALAR DE CASTANHO;130110;-3.822791231660862;-60.35829662133187;;
facility:2017660;facility;CNES 2017660 (Maraã - AM);130280;-2.426830371625152;-65.03954600603562;;
facility:2017679;facility;CNES 2017679 (Anamã - AM);130008;-3.5018688631509938;-61.71797768440919;;
facility:2017717;facility;HOSPITAL REGIONAL DE FONTE BOA;130160;-2.5183245888060095;-66.0978088570068;;
facility:2017768;facility;UNIDADE HOSPITALAR DE ALVARAES;130002;-3.215122;-64.815042;;
facility:2017849;facility;HOSPITAL INFANTIL DR FAJARDO;130260;-3.1270905;-60.0191422;;
facility:2017911;facility;CNES 2017911 (Urucurituba - AM);130440;-2.813764407537207;-57.77131523665416;;
facility:2017997;facility;UNIDADE HOSPITALAR DE GUAJARA;130165;-7.544931;-72.582022;;
facility:2018055;facility;CNES 2018055 (Manaus - AM);130260;-2.625921541245994;-60.259625348748166;;
facility:2018071;facility;HOSPITAL E P S DA CRIANCA DA ZONA OESTE;130260;-3.0944343130605976;-60.05737692117691;;
facility:2018098;facility;SOCIEDADE PORTUGUESA BENEFICENTE DO AMAZONAS;130260;-3.130746;-60.019619;;
facility:2018101;facility;HOSPITAL GERALDO DA ROCHA;130260;-3.0827515122805558;-59.89222526550293;;
facility:2018128;facility;UNIDADE HOSPITALAR DE SAO PAULO DE OLIVENCA;130390;-3.378139435775889;-68.87281894683838;;
facility:2018136;facility;HOSPITAL REGIONAL DE COARI PREF DR ODAIR CARLOS GERALDO;130120;-4.079450363763005;-63.1329345703125;;
facility:2018144;facility;HOSPITAL DE MAUES DONA MUNDIQUINHA;130290;-3.3890423514090373;-57.708842754364014;;
facility:2018330;facility;CNES 2018330 (Manaus - AM);130260;-2.625921541245994;-60.259625348748166;;
facility:2018381;facility;UNIDADE HOSPITALAR DE PAUINI;130350;-7.710009965241161;-66.9971343;;
facility:2018403;facility;HOSPITAL DONA FRANCISCA MENDES;130260;-3.0319292;-59.9642928;;
facility:2018969;facility;CNES 2018969 (Manaus - AM);130260;-2.625921541245994;-60.259625348748166;;
facility:2019523;facility;UNIDADE HOSPITALAR DE CODAJAS;130130;-3.8430459;-62.063429;;
facility:2019558;facility;MATERNIDADE BALBINA MESTRINHO;130260;-3.1248968368356587;-60.01150846481323;;
facility:2019566;facility;HOSPITAL CHAPOT PREVOST;130260;-3.09031508252543;-59.89519715309143;;
facility:2019574;facility;HOSPITAL E PRONTO SOCORRO DR JOAO LUCIO PEREIRA MACHADO;130260;-3.074137975869349;-59.962263107299805;;
facility:2019590;facility;CENTRO DE SAUDE MENTAL DO AMAZONAS;130260;-3.0707311101746964;-60.026421546936035;;
facility:2019604;facility;CNES 2019604 (Novo Aripuanã - AM);130330;-6.824022915683538;-60.47715792726059;;
facility:2019647;facility;SES AP HOSPITAL DA CRIANCA E DO ADOLESCENTE;160030;0.040487941710196644;-51.06034129858017;;
facility:2019663;facility;CNES 2019663 (Ferreira Gomes - AP);160023;0.9570860770625078;-51.417326944923126;;
facility:2019671;facility;CNES 2019671 (Tartarugalzinho - AP);160070;1.2975751958224098;-50.992609669265455;;
facility:2019701;facility;SES AP UNID MISTA DE SAUDE DE AMAPA;160010;2.0464121109516378;-50.79249858856201;;
facility:2019728;facility;CNES 2019728 (Calçoene - AP);160020;2.423839869821893;-51.40664650552991;;
facility:2019736;facility;SES AP HOSPITAL MARIA LUCIA GUIMARAES DA SILVA;160053;-0.56553;-51.71181;;
facility:2020068;facility;SES AP HOSPITAL DA MULHER MAE LUZIA;160030;0.040469166251760585;-51.05944275856018;;
facility:2020076;facility;SES AP HOSPITAL ESTADUAL DE LARANJAL DO JARI;160027;-0.8419580212383247;-52.52132177352905;;
facility:2020149;facility;CNES 2020149 (Vitória do Jari - AP);160080;-0.9964438346944632;-52.06117908744139;;
facility:2020165;facility;SES AP UNID MISTA DE SAUDE DE MAZAGAO;160040;-0.1186237;-51.2844354;;
facility:2020645;facility;SES AP HOSPITAL DE CLINICAS DOUTOR ALBERTO LIMA;160030;0.04040479325144837;-51.058852672576904;;
facility:2020653;facility;SES AP HOSPITAL DE EMERGENCIA;160030;0.0436361;-51.0637955;;
facility:2020890;facility;HOSPITAL SAO CAMILO E SAO LUIS;160030;-0.03865;-51.07498;;
facility:2021064;facility;SES AP HOSPITAL ESTADUAL DE SANTANA;160060;-0.045254225794036186;-51.1652398109436;;
facility:2021218;facility;SES AP UNID MISTA DE SAUDE DE PEDRA BRANCA DO AMAPARI;160015;0.7722596935354608;-51.95054769515991;;
facility:2021382;facility;CNES 2021382 (Serra do Navio - AP);160005;1.651742842165938;-52.26813587962327;;
facility:2021463;facility;SES AP HOSPITAL ESTADUAL DE OIAPOQUE;160050;3.8483878020221525;-51.83631509542465;;
facility:2021765;facility;CNES 2021765 (Santana - AP);160060;0.1298034848337873;-51.37836415459109;;
facility:2022621;facility;MATERNIDADE DE CAMPINAS;350950;-22.89936;-47.06323;;
facility:2022648;facility;HOSPITAL IRMAOS PENTEADO E SANTA CASA DE CAMPINAS;350950;-22.901269;-47.056181;;
facility:2023016;facility;CASA DE CARIDADE SAO VICENTE DE PAULO CAJURU;350940;-21.2726046;-47.3060414;;
facility:2023350;facility;CNES 2023350 (Campinas - SP);350950;-22.883756387475355;-47.04379621907528;;
facility:2023474;facility;HOSPITAL MUNICIPAL WALTER FERRARI;352470;-22.70224;-46.99531;;
facility:2023709;facility;SANTA CASA DE MISERICORDIA DE ITATIBA;352340;-23.007161;-46.833107;;
facility:2023865;facility;HOSPITAL MUNICIPAL DR AMADEU PAGLIUSO;352420;-20.6895328;-48.416615;;
facility:2024438;facility;HOSPITAL E MATERNIDADE DRA ADONIRAN CORREIA CAMPOS MONGAGUA;353110;-24.0908138306795;-46.613329113696985;;
facility:2024691;facility;SANTA CASA DE CRUZEIRO;351340;-22.575310652438656;-44.96455192565918;;
facility:2024756;facility;HOSPITAL E MATERNIDADE NOSSA SENHORA DA AJUDA;350850;-23.1039275;-45.7050478;;
facility:2024772;facility;SANTA CASA DE MISERICORDIA SAO JOSE;350860;-22.66592754;-45.00626564;;
facility:2025000;facility;CNES 2025000 (Caçapava - SP);350850;-23.10374033153206;-45.713307578023965;;
facility:2025361;facility;HOSPITAL DE CANCER DE SAO BERNARDO DO CAMPO PADRE ANCHIETA;354870;-23.71393393141584;-46.544428661651104;;
facility:2025477;facility;HOSPITAL E MATERNIDADE SANTA ISABEL DE JABOTICABAL;352430;-21.255361702092717;-48.32589626312256;;
facility:2025507;facility;HOSPITAL DAS CLINICAS HCFAMEMA;352900;-22.130291;-49.562181;;
facility:2025752;facility;SANTA CASA DE SANTOS;354850;-23.94535;-46.33669;;
facility:2026805;facility;SANTA CASA DE GUARIBA;351860;-21.36494983687398;-48.22532415390015;;
facility:2027186;facility;SANTA CASA DE MISERICORDIA DE ITAPEVA;352240;-23.98848305;-48.87704096766646;;
facility:2027240;facility;HOSPITAL DIA BUTANTA;355030;-23.586515;-46.7322248;;
facility:2027356;facility;HOSPITAL DA MULHER;354870;-23.70255582087984;-46.54903377012417;;
facility:2028204;facility;SANTA CASA DE MONTE ALTO;353130;-21.264937710256746;-48.502128188757595;;
facility:2028239;facility;HOSPITAL REGIONAL DE TEODORO SAMPAIO;355430;-22.533547391515803;-52.17106819152832;;
facility:2028840;facility;INSTITUTO DE INFECTOLOGIA EMILIO RIBAS;355030;-23.555785146876342;-46.66719675064087;;
facility:2033135;facility;CNES 2033135 (Rio Claro - SP);354390;-22.373917019009596;-47.57990747428811;;
facility:2038048;facility;CNES 2038048 (Santa Lúcia - SP);354690;-21.670747634966457;-48.0573477249584;;
facility:2038447;facility;CNES 2038447 (Iperó - SP);352100;-23.4044790919316;-47.629109045006985;;
facility:2039001;facility;PRONTO SOCORRO MUNICIPAL DE SUZANO;355250;-23.543;-46.311;;
facility:2040069;facility;HOSPITAL MATERNIDADE JESUS JOSE E MARIA;351880;-23.45112076405925;-46.53128385543823;;
facility:2040573;facility;AMBULAT DE ESPECIALIDADES E HOSPITAL DIA DR RENATO RIGGIO JR;352050;-23.087960702137156;-47.2023943593447;;
facility:2042894;facility;SECAO PRONTO SOCORRO CENTRAL SEPROS C;354850;-23.94534;-46.33627;;
facility:2043319;facility;CNES 2043319 (Catanduva - SP);351110;-21.133750467039658;-48.96368334571453;;
facility:2043351;facility;CNES 2043351 (Catanduva - SP);351110;-21.133750467039658;-48.96368334571453;;
facility:2043580;facility;CNES 2043580 (Franca - SP);351620;-20.55523512386936;-47.38111987874767;;
facility:2053500;facility;HOSPITAL SENHOR BOM JESUS;353150;-20.906466293513535;-48.63696813583374;;
facility:2053519;facility;MATERNIDADE FERNANDO MAGALHAES;353150;-20.90554422117287;-48.6435341835022;;
facility:2058243;facility;SANTA CASA DE MISERICORDIA DE SAO SIMAO;355090;-21.47905861117608;-47.55101680755615;;
facility:2058308;facility;HOSPITAL E MATERNIDADE MUNICIPAL DR ACILIO CARRION GARCIA;353340;-22.7803143;-47.3003865;;
facility:2058340;facility;HOSPITAL MUNICIPAL DE QUELUZ;354190;-22.53852199458917;-44.7729928665161;;
facility:2058391;facility;CNES 2058391 (São Paulo - SP);355030;-23.650049140231506;-46.64808599996871;;
facility:2058405;facility;UNIDADE MISTA DE SAUDE DE SILVEIRAS;355200;-22.664798912921615;-44.852038621902466;;
facility:2058502;facility;CNES 2058502 (São Paulo - SP);355030;-23.650049140231506;-46.64808599996871;;
facility:2058618;facility;CNES 2058618 (Catanduva - SP);351110;-21.133750467039658;-48.96368334571453;;
facility:2058626;facility;HOSPITAL MAHATMA GANDHI;351110;-21.15474975;-48.97049487688113;;
facility:2058782;facility;HOSPITAL PSIQUIATRICO ESPIRITA BEZERRA DE MENEZES P PRUDENT;354140;-22.172817;-51.394846;;
facility:2058790;facility;HOSPITAL MUNICIPAL DR WALDEMAR TEBALDI;350160;-22.723;-47.324;;
facility:2059711;facility;CNES 2059711 (Guarujá - SP);351870;-23.9512356645075;-46.2352572328113;;
facility:2060140;facility;CNES 2060140 (Praia Grande - SP);354100;-24.01559616320785;-46.52273168984141;;
facility:2062054;facility;CNES 2062054 (Sorocaba - SP);355220;-23.464551917016664;-47.446759844882976;;
facility:2065665;facility;HOSPITAL MATERNIDADE INTERLAGOS;355030;-23.706961212987935;-46.7021969732967;;
facility:2066092;facility;HOSPITAL GERAL DE PEDREIRA;355030;-23.6807463;-46.6784764;;
facility:2066572;facility;HOSPITAL HELIOPOLIS UNIDADE DE GESTAO ASSISTENCIAL I;355030;-23.607115;-46.595253;;
facility:2068974;facility;PAM VARZEA DO CARMO NGA 63 SAO PAULO;355030;-23.556659117569996;-46.625052973973396;;
facility:2069008;facility;AMBULATORIO DE ESPECIALIDADES DR GERALDO PAULO BOURROUL;355030;-23.54897115;-46.64447168498984;;
facility:2069776;facility;HOSPITAL DE URGENCIA;354870;-23.7162058;-46.5551539;;
facility:2070502;facility;CNES 2070502 (Capela do Alto - SP);351030;-23.46742543541544;-47.73096393611592;;
facility:2070766;facility;CAISM DR DAVID CAPISTRANO DA COSTA FILHO DA AGUA FUNDA SP;355030;-23.457383;-46.460381;;
facility:2071371;facility;HOSPITAL INFANTIL DARCY VARGAS UGA III SAO PAULO;355030;-23.5928487;-46.71094153949076;;
facility:2071568;facility;HC DA FMUSP INSTITUTO DO CORACAO INCOR SAO PAULO;355030;-23.567386;-46.570383;;
facility:2072033;facility;UNIDADE MISTA DE SAUDE DE EMBUGUACU;351510;-23.834050403242518;-46.809139251708984;;
facility:2072513;facility;HOSPITAL E MATERNIDADE MUNICIPAL SANTA ANA;354730;-23.43893;-46.9147;;
facility:2075717;facility;HOSP MUN MATERNIDADE PROFESSOR MARIO DEGNI;355030;-23.578;-46.765;;
facility:2075962;facility;HOSP DA STA CASA DE STO AMARO;355030;-23.6502;-46.7052;;
facility:2076896;facility;HOSPITAL SAO LUIZ GONZAGA;355030;-23.459506421378542;-46.58220291137695;;
facility:2076926;facility;HOSPITAL UNIVERSITARIO DA USP SAO PAULO;355030;-23.56491995;-46.74095019191067;;
facility:2076942;facility;HOSPITAL DE ITATINGA;352350;-23.103052791276937;-48.61305356025696;;
facility:2076985;facility;CASA DA CRIANCA BETINHO;355030;-23.5604021;-46.5324478;;
facility:2077078;facility;UNIDADE MISTA E MATERNIDADE CENTRAL;351500;-23.64911765;-46.84745629754565;;
facility:2077124;facility;UNIDADE MISTA DE ATENDIMENTO INFANTIL;351060;-23.52310982449653;-46.83666944503784;;
facility:2077310;facility;HOSPITAL DIA IRMAO ALTINO SAUDE MENTAL;351840;-22.816;-45.193;;
facility:2077388;facility;HOSPITAL AMPARO MATERNAL;355030;-23.5996;-46.6376;;
facility:2077396;facility;HOSPITAL DE BASE DE SAO JOSE DO RIO PRETO;354980;-20.828151;-49.397609;;
facility:2077418;facility;CAISM PHILIPPE PINEL SAO PAULO;355030;-23.486981649999997;-46.72393455592629;;
facility:2077426;facility;HOSPITAL GERAL HENRIQUE ALTIMEYER DE VILA ALPINA;355030;-23.593052550000003;-46.56076177667035;;
facility:2077434;facility;HOSPITAL DR LEOPOLDO BEVILACQUA;353620;-24.714010632227268;-47.88090705871582;;
facility:2077450;facility;HOSP MUN PIRITUBA JOSE SOARES HUNGRIA;355030;-23.48556;-46.70873;;
facility:2077469;facility;CNES 2077469 (São Paulo - SP);355030;-23.650049140231506;-46.64808599996871;;
facility:2077477;facility;HOSP STA MARCELINA SAO PAULO;355030;-23.5543325;-46.461303314621325;;
facility:2077485;facility;HOSPITAL SAO PAULO HOSPITAL DE ENSINO DA UNIFESP;355030;-23.5977766;-46.6435335;;
facility:2077493;facility;HOSPITAL GERAL DE SAO MATEUS SAO PAULO;355030;-23.59473585;-46.4867109;;
facility:2077507;facility;HOSPITAL LEFORTE LIBERDADE;355030;-23.5578849;-46.6350642;;
facility:2077515;facility;HOSPITAL SAO VICENTE DE PAULA DE ARANDU;350310;-23.13424314753412;-49.0549099445343;;
facility:2077523;facility;UNIDADE DE GESTAO ASSISTENCIAL II HOSPITAL IPIRANGA SP;355030;-23.584332250000003;-46.611619331736186;;
facility:2077531;facility;A C CAMARGO CANCER CENTER;355030;-23.565479;-46.6379025;;
facility:2077558;facility;HOSPITAL SAO CAMILO AGUAS DE LINDOIA;350050;-22.473567;-46.633706;;
facility:2077574;facility;CONJUNTO HOSPITALAR DO MANDAQUI SAO PAULO;355030;-23.48497835;-46.63142915339331;;
facility:2077582;facility;HOSPITAL NOSSA SENHORA DA PIEDADE;352680;-22.599114508310667;-48.800110816955566;;
facility:2077590;facility;IBCC;355030;-23.547197042922598;-46.60032592842185;;
facility:2077620;facility;HOSPITAL GERAL SANTA MARCELINA DE ITAIM PAULISTA SAO PAULO;355030;-23.49242315;-46.388981372853074;;
facility:2077639;facility;HOSP MUN PROF DR WALDOMIRO DE PAULA;355030;-23.531008907906077;-46.4448818564415;;
facility:2077647;facility;SANTA CASA DE MIS DE ADAMANTINA NA PROVIDENCIA DE DEUS;350010;-21.693011932420628;-51.07089579105377;;
facility:2077655;facility;ASSOC AACD V CLEMENTINO;355030;-23.5974247;-46.6511195;;
facility:2077671;facility;HOSPITAL GERAL DO GRAJAU PROF LIBER JOHN ALPHONSE DI DIO SP;355030;-23.7290263;-46.69084525693708;;
facility:2077701;facility;HOSPITAL E MATERNIDADE LEONOR MENDES DE BARROS SAO PAULO;355030;-23.53590315;-46.588706055913235;;
facility:2077752;facility;HOSP MONUMENTO CEHM;355030;-23.594382;-46.5969403;;
facility:2077957;facility;CENTRO DE REFERENCIA E TREINAMENTO DST AIDS SAO PAULO;355030;-23.5966194;-46.635813324338585;;
facility:2078015;facility;HC DA FMUSP HOSPITAL DAS CLINICAS SAO PAULO;355030;-23.556591599413434;-46.672325134277344;;
facility:2078031;facility;HOSPITAL SANTA TEREZA DE RIBEIRAO PRETO;354340;-21.206168435361377;-47.82900094985962;;
facility:2078074;facility;SANTA CASA DE LEME;352670;-22.1900807;-47.3919951206291;;
facility:2078104;facility;HOSPITAL GERAL DE ITAPEVI;352250;-23.546934;-46.933372;;
facility:2078112;facility;HOSPITAL SANTA RITA DE SALES OLIVEIRA;354490;-20.77138;-47.83587;;
facility:2078139;facility;SANTA CASA DE PRESIDENTE VENCESLAU;354150;-21.87177428775074;-51.841617822647095;;
facility:2078155;facility;HOSPITAL STELLA MARIS;351880;-23.462970762837763;-46.53302192687988;;
facility:2078198;facility;UNIDADE MISTA DE SANTO ANTONIO DA ALEGRIA;354790;-21.08908484469561;-47.150917053222656;;
facility:2078252;facility;SANTA CASA DE BIRIGUI;350650;-21.282075500837898;-50.33581558765116;;
facility:2078287;facility;CENTRO DE REFERENCIA DA SAUDE DA MULHER;355030;-23.53430021919192;-46.6437496050505;;
facility:2078295;facility;SANTA CASA DE TAQUARITINGA;355370;-21.406;-48.505;;
facility:2078325;facility;HOSP MUN INFANTIL MENINO JESUS;355030;-23.5599861;-46.6468609;;
facility:2078341;facility;ASSOCIACAO HOSPITAL BENEFICENTE SAGRADO CORACAO DE JESUS;353180;-22.945569784879698;-47.313480377197266;;
facility:2078384;facility;HOSPITAL ESPIRITA;353730;-21.42071197632742;-50.09214162826538;;
facility:2078414;facility;SANTA CASA DE GUAIRA;351740;-20.32580274799412;-48.31853900247223;;
facility:2078422;facility;FUNBEPE PEDREIRA;353710;-22.744146654199152;-46.91743612289429;;
facility:2078449;facility;SANTA CASA DE PATROCINIO PAULISTA;353630;-20.6428045067845;-47.281272411346436;;
facility:2078465;facility;REAL SOCIEDADE PORTUGUESA DE BENEFICENCIA;350950;-22.90389726611453;-47.06799924373627;;
facility:2078473;facility;HOSPITAL DR LUIZ CAMARGO DA FONSECA E SILVA;351350;-23.890114769503842;-46.420841217041016;;
facility:2078503;facility;SANTA CASA DE PENAPOLIS;353730;-21.422212624963382;-50.07135987281799;;
facility:2078511;facility;HOSPITAL REGIONAL DE ILHA SOLTEIRA;352044;-20.426644;-51.341999;;
facility:2078538;facility;HOSPITAL NOSSA SENHORA APARECIDA;352400;-23.153362279304783;-47.05577373504639;;
facility:2078546;facility;SANTA CASA SAO BENTO DO SAPUCAI;354860;-22.686743564291515;-45.730355468534086;;
facility:2078562;facility;HOSPITAL GERAL DE ITAQUAQUECETUBA;352310;-23.47223075;-46.34569676605339;;
facility:2078589;facility;CNES 2078589 (São Paulo - SP);355030;-23.650049140231506;-46.64808599996871;;
facility:2078597;facility;CNES 2078597 (São Paulo - SP);355030;-23.650049140231506;-46.64808599996871;;
facility:2078775;facility;SANTA CASA DE ARACATUBA HOSPITAL SAGRADO CORACAO DE JESUS;350280;-21.2054396;-50.4309732;;
facility:2078813;facility;HOSPITAL OFTALMOLOGICO DE SOROCABA;355220;-23.5150763167;-47.4596663883;;
facility:2078848;facility;SANTA CASA ANNA CINTRA;350190;-22.696770685284644;-46.76838040351868;;
facility:2078902;facility;SANTA CASA PILAR DO SUL;353790;-23.810357539786622;-47.72877216339111;;
facility:2078937;facility;SANTA CASA DE APARECIDA DOESTE;350260;-20.44991453208015;-50.87942361831665;;
facility:2079011;facility;HOSP LEITO E PRONTO ATENDIMENTO AURELINO ALVES DOS SANTOS;351500;-23.6585167;-46.8056716;;
facility:2079046;facility;CNES 2079046 (Roseira - SP);354430;-22.93304533640101;-45.30247154066969;;
facility:2079097;facility;SANTA CASA DE CAPAO BONITO;351020;-24.007788959471917;-48.34688454866409;;
facility:2079119;facility;CENTRO DE REF DA SAUDE DA MULHER DE R PRETO MATER;354340;-21.123025692930426;-47.79184699058533;;
facility:2079135;facility;SANTA CASA DE MISERICORDIA DE TATUI;355400;-23.3513455;-47.8444977;;
facility:2079178;facility;MATERNIDADE MUNICIPAL;354530;-23.643475;-47.576549;;
facility:2079186;facility;HOSP MUN MAT ESC DR MARIO DE MORAES A SILVA;355030;-23.480121;-46.672611;;
facility:2079194;facility;HOSPITAL NESTOR GOULART REIS AMERICO BRASILIENSE;350170;-21.730036;-48.106604;;
facility:2079208;facility;LAR ESPIRITA MARIA DE NAZARE MOJI MIRIM;353080;-22.430404;-46.970932;;
facility:2079216;facility;HOSPITAL E MATERNIDADE JOSE FORTUNA;351100;-20.872336131568627;-51.487279721371344;;
facility:2079224;facility;HOSPITAL SAO JOSE;352290;-22.234923139515416;-48.72181177139282;;
facility:2079232;facility;HOSPITAL SANTA BARBARA;354580;-22.7541796;-47.4192112;;
facility:2079240;facility;HOSPITAL GERAL JESUS TEIXEIRA DA COSTA GUAIANASES SAO PAULO;355030;-23.55665084929075;-46.40025367640674;;
facility:2079275;facility;CNES 2079275 (Ribeirão Preto - SP);354340;-21.210851733693875;-47.82131434759656;;
facility:2079283;facility;SANTA CASA DE PANORAMA;353540;-21.3621836;-51.8593993;;
facility:2079291;facility;SANTA CASA DE PALMEIRA DOESTE;353520;-20.417963785697655;-50.76205551624298;;
facility:2079313;facility;HOSPITAL SAO ROQUE CABREUVA;350840;-23.312674;-47.133658;;
facility:2079321;facility;HOSPITAL GPACI SOROCABA;355220;-23.514265;-47.464379;;
facility:2079348;facility;SANTA CASA DE IGARAPAVA;352010;-20.035966;-47.749532;;
facility:2079356;facility;SANTA CASA DE TANABI;355340;-20.627975;-49.652153;;
facility:2079364;facility;SANTA CASA DE MISERICORDIA DE SERRANA;355150;-21.21229270719036;-47.59937979131343;;
facility:2079380;facility;SANTA CASA DE SALESOPOLIS;354500;-23.53231;-45.84583;;
facility:2079399;facility;SANTA CASA DE MISERICORDIA SAO MIGUEL TABATINGA SP;355270;-21.738205518941474;-48.68544452960308;;
facility:2079402;facility;CNES 2079402 (Boa Esperança do Sul - SP);350670;-21.93499966203241;-48.46359336491283;;
facility:2079410;facility;COMPLEXO HOSPITALAR PADRE BENTO DE GUARULHOS;351880;-23.46565585;-46.55023336270768;;
facility:2079429;facility;SANTA CASA SALTO DE PIRAPORA;354530;-23.6443472;-47.5720968;;
facility:2079437;facility;HOSPITAL BENEFICENTE DE MARACAI;352880;-22.612346998600263;-50.66643476486206;;
facility:2079461;facility;SANTA CASA DE MISERICORDIA SAO FRANCISCO BURITAMA;350810;-21.06707;-50.149281;;
facility:2079496;facility;SANTA CASA DE CRAVINHOS;351310;-21.33661109470858;-47.732720375061035;;
facility:2079518;facility;SANTA CASA DE MIS E MATERNIDADE N SRA DA CONCEICAO CUNHA;351360;-23.065518063832588;-44.96686935424805;;
facility:2079550;facility;SANTA CASA DE SANTA ADELIA;354560;-21.246022344073367;-48.80805015563965;;
facility:2079593;facility;HOSPITAL SAO JOAO REGISTRO;354260;-24.487050567778656;-47.84652530833499;;
facility:2079615;facility;HOSPITAL MUNICIPAL DE IBIUNA IBIUNA SP;351970;-23.650953;-47.2181791;;
facility:2079682;facility;SANTA CASA DE NEVES PAULISTA;353250;-20.845958325716825;-49.63181018829346;;
facility:2079690;facility;SANTA CASA DE MISERICORDIA DE SAO LUIZ DO PARAITINGA;355000;-23.225355144225077;-45.30763864517212;;
facility:2079704;facility;HOSPITAL DR RENATO SILVA DE SOCORRO;355210;-22.59852;-46.5296166;;
facility:2079720;facility;HOSPITAL GUILHERME ALVARO SANTOS;354850;-23.96276185;-46.320539629081864;;
facility:2079763;facility;CASA CAIRBAR SCHUTEL;350320;-21.81119;-48.1482;;
facility:2079798;facility;HOSPITAL DAS CLINICAS DA UNICAMP DE CAMPINAS;350950;-22.905965260395842;-47.06392765045166;;
facility:2079828;facility;HOSPITAL GERAL PIRAJUSSARA;355280;-23.64066375;-46.81004964332129;;
facility:2079836;facility;SANTA CASA DE MISERICORDIA ITAPOLIS;352270;-21.5938655;-48.8052164;;
facility:2079860;facility;HOSPITAL E MATERNIDADE DE SUZANO;355250;-23.552027;-46.3096171;;
facility:2079879;facility;SANTA CASA DE TAQUARITUBA;355380;-23.539468172483648;-49.245100021362305;;
facility:2079895;facility;SANTA CASA DE MISERICORDIA DE JALES;352480;-20.270908;-50.552628;;
facility:2079909;facility;HOSP BENEFICENTE DE PIRANGI;353900;-21.0886;-48.6607;;
facility:2079917;facility;SANTA CASA DE LOUVEIRA;352730;-23.086778;-46.946444;;
facility:2079925;facility;SANTA CASA DE PORTO FELIZ;354060;-23.20442;-47.52471;;
facility:2079968;facility;SANTA CASA DE URANIA;355580;-20.252354;-50.642893;;
facility:2079976;facility;SANTA CASA DE LARANJAL PAULISTA;352640;-23.055350399842872;-47.83247709274292;;
facility:2080028;facility;HOSPITAL MUNICIPAL DE DIADEMA HMD;351380;-23.69189725;-46.5871640148153;;
facility:2080044;facility;SANTA CASA DE SAO JOAQUIM DA BARRA;354940;-20.59020586736922;-47.85914897918701;;
facility:2080052;facility;HOSPITAL NOSSA SENHORA APARECIDA;353060;-23.521358780418467;-46.18671655654907;;
facility:2080079;facility;HOSPITAL DR OSIRIS FLORINDO COELHO;351570;-23.5384242;-46.35846374267484;;
facility:2080087;facility;SANTA CASA DE MISERICORDIA DE TIETE;355450;-23.1065512;-47.7134504;;
facility:2080095;facility;SANTA CASA DE JOSE BONIFACIO;352570;-21.055687;-49.69373;;
facility:2080109;facility;SANTA CASA DE POPULINA;354040;-19.942349018552896;-50.538740158081055;;
facility:2080117;facility;HOSPITAL PSIQUIATRICO ALLAN KARDEC FRANCA SP;351620;-20.539015739530356;-47.401113510131836;;
facility:2080125;facility;INSTITUTO DO CANCER ARNALDO VIEIRA DE CARVALHO;355030;-23.5431724;-46.64990518769836;;
facility:2080184;facility;HOSPITAL MUNICIPAL;352390;-23.272686235466804;-47.291411682438344;;
facility:2080192;facility;HOSP EST ESPEC EM REABILIT DR FRANCISCO RIBEIRO ARANTES;352390;-23.160366025719778;-47.174134254455566;;
facility:2080206;facility;CNES 2080206 (Itatiba - SP);352340;-23.006710595205263;-46.81431206930806;;
facility:2080222;facility;SANTA CASA DE CACONDE;350870;-21.5331955;-46.6471279;;
facility:2080273;facility;HOSPITAL ESTADUAL MARIO COVAS DE SANTO ANDRE;354780;-23.670927;-46.532985052599216;;
facility:2080281;facility;HOSPITAL SAO JOSE DE HERCULANDIA;351900;-22.003747;-50.385521;;
facility:2080338;facility;HOSPITAL GERAL DE GUARULHOS PROF DR WALDEMAR DE CARVALHO;351880;-23.461788;-46.590805;;
facility:2080346;facility;HOSP MUN DR CARMINO CARICCHIO;355030;-23.532472590434942;-46.566505856857695;;
facility:2080354;facility;HOSPITAL SANTO ANTONIO SANTOS;354850;-23.9482902;-46.3368082;;
facility:2080362;facility;HOSPITAL MUNICIPAL DR JAIR SPONQUIADO;352070;-19.977119;-50.285127;;
facility:2080370;facility;SANTA CASA DE PIRAJUI;353890;-21.99;-49.45;;
facility:2080400;facility;HOSPITAL IMACULADA CONCEICAO;354340;-21.180435196645472;-47.81418979167938;;
facility:2080427;facility;HOSPITAL MUNICIPAL DA CRIANCA E DO ADOLESCENTE HMCA;351880;-23.462931395831852;-46.533000469207764;;
facility:2080443;facility;IRMANDADE DA SANTA CASA DE MISERICORDIA SAO VICENTE DE PAULO;355010;-22.732826801051168;-48.57079267501831;;
facility:2080451;facility;IRMANDADE DA SANTA CASA DE MISERICORDIA DE IPUA;352130;-20.437277790043392;-48.01168620586395;;
facility:2080478;facility;SANTA CASA DE MISERICORDIA DE PEDREGULHO;353700;-20.25768667;-47.47635412;;
facility:2080494;facility;CNES 2080494 (São Paulo - SP);355030;-23.650049140231506;-46.64808599996871;;
facility:2080508;facility;SANTA CASA DE ALVARES MACHADO;350130;-22.0830339;-51.4768815;;
facility:2080524;facility;HOSPITAL E MATERNIDADE REGIONAL REGENTE FEIJO;354240;-22.2150175;-51.3020626;;
facility:2080532;facility;SANTA CASA HOSP DR ARISTOTELES OLIVEIRA MARTINS PRES PRUDENT;354140;-22.129233;-51.392341;;
facility:2080575;facility;HOSPITAL BP;355030;-23.56749975;-46.641542462413426;;
facility:2080583;facility;HOSP MUN TIDE SETUBAL;355030;-23.547956399229353;-46.635611057281494;;
facility:2080605;facility;HOSPITAL PADRE NICANOR MERINO TORRINHA;355470;-22.42364430058594;-48.169684410095215;;
facility:2080621;facility;SANTA CASA POMPEIA;354000;-22.100736929029626;-50.17709940605358;;
facility:2080664;facility;SANTA CASA DE TUPA;355500;-21.940179;-50.513248;;
facility:2080680;facility;HOSPITAL DAS CLINICAS LUZIA DE PINHO MELO;353060;-23.510289;-46.193893;;
facility:2080729;facility;CNES 2080729 (São Vicente - SP);355100;-23.959230747976143;-46.48828272054621;;
facility:2080737;facility;HOSPITAL SAO VICENTE DE GALIA;351660;-22.290645053025358;-49.55117225646973;;
facility:2080745;facility;SANTA CASA DE SANTA CRUZ DAS PALMEIRAS;354630;-21.825226;-47.2499516;;
facility:2080788;facility;HOSP MUN V NHOCUNE ALEXANDRE ZAIO;355030;-23.54289567063579;-46.50231060314845;;
facility:2080826;facility;HOSPITAL SAO JOSE DE ITAJOBI;352190;-21.318441841127495;-49.05601501464844;;
facility:2080842;facility;SANTA CASA DE MISERICORDIA DE CANDIDO MOTA;351000;-22.74113867277948;-50.38456678390503;;
facility:2080869;facility;SANTA CASA DE PAULO DE FARIA;353660;-20.030333;-49.4008487;;
facility:2080907;facility;SANTA CASA PACAEMBU;353490;-21.564095;-51.252063;;
facility:2080915;facility;AHBB BILAC;350640;-21.4059343;-50.4720892;;
facility:2080923;facility;HOSPITAL SAO VICENTE;354970;-21.60370175;-46.89402072879885;;
facility:2080931;facility;SANTA CASA DE SAO CARLOS;354890;-22.0112277;-47.90101623127376;;
facility:2080958;facility;SANTA CASA DE MISERICORDIA DE PALMITAL;353530;-22.79135536676333;-50.217604637145996;;
facility:2080966;facility;SANTA CASA DE ESTRELA DOESTE;351520;-20.28875;-50.397694;;
facility:2080982;facility;HOSPITAL DE CLEMENTINA;351190;-21.5641;-50.4494;;
facility:2080990;facility;HOSPITAL ESPIRITA DE MARILIA;352900;-22.212516920790343;-49.965455532073975;;
facility:2081059;facility;HOSPITAL MUNICIPAL DE PAULINIA;353650;-22.7703993;-47.1496968;;
facility:2081083;facility;SANTA CASA DE ASSIS;350400;-22.660254599164723;-50.409404039382935;;
facility:2081091;facility;HOSPITAL MUNICIPAL DE ITAPIRA;352260;-22.431578165716733;-46.82639122009277;;
facility:2081105;facility;SANTA CASA DE VALPARAISO;355630;-21.19895;-50.88036;;
facility:2081113;facility;HOSPITAL SANTA FILOMENA DE RIO CLARO;354390;-22.40944258855201;-47.561490789440114;;
facility:2081164;facility;HOSPITAL SANTA LYDIA RIBEIRAO PRETO;354340;-21.170308650000003;-47.802848648387524;;
facility:2081202;facility;HOSPITAL E MATERNIDADE SAO LUCAS;354330;-23.6938486;-46.3973675;;
facility:2081229;facility;SANTA CASA DE PARAPUA;353600;-21.7847552;-50.7919796;;
facility:2081237;facility;HOSPITAL SAO PAULO DE RINOPOLIS;354380;-21.72993;-50.72632;;
facility:2081245;facility;CNES 2081245 (Sud Mennucci - SP);355230;-20.66759128165981;-50.90093954900971;;
facility:2081253;facility;HOSPITAL SAO LUIZ DE ARARAS;350330;-22.357259772643456;-47.38002061843872;;
facility:2081261;facility;HOSPITAL SAO LUIZ;350700;-23.289307474255484;-47.680771350860596;;
facility:2081296;facility;HOSPITAL JOAO DEPIERI DE CAJOBI;350930;-20.873889650566273;-48.80942344665527;;
facility:2081342;facility;HOSPITAL SAO LOURENCO;355600;-21.199451;-49.286015;;
facility:2081350;facility;HOSPITAL DE PIRAJU;353880;-23.19677960173831;-49.38122749328613;;
facility:2081377;facility;SANTA CASA DE VOTUPORANGA;355710;-20.426451;-49.978555;;
facility:2081385;facility;SANTA CASA DE TUPI PAULISTA;355510;-21.387279;-51.567233;;
facility:2081393;facility;HOSPITAL SANTA ROSA DE LIMA DE SERRA NEGRA;355160;-22.608627965412044;-46.70568108558655;;
facility:2081407;facility;UNIDADE MISTA DE SAUDE DE JARINU MONSENHOR JACOB CONTI;352520;-23.109612849999998;-46.72493531027001;;
facility:2081431;facility;SANTA CASA DE LUCELIA;352740;-21.72796;-51.01013;;
facility:2081458;facility;SANTA CASA DE LIMEIRA;352690;-22.57932282648805;-47.40042686462402;;
facility:2081466;facility;HOSPITAL NOSSA SENHORA DA DIVINA PROVIDENCIA;352450;-20.882889;-49.573319;;
facility:2081482;facility;BOLDRINI CAMPINAS;350950;-22.905965260395842;-47.06412076950073;;
facility:2081490;facility;HOSPITAL MUNICIPAL DR MARIO GATTI CAMPINAS;350950;-22.91644;-47.067854;;
facility:2081512;facility;SANTA CASA DE MISERICORDIA DE GUARATINGUETA;351840;-22.82142712157739;-45.191588172845236;;
facility:2081520;facility;HOSPITAL E MATERNIDADE DE GUARACAI;351780;-21.032015521549994;-51.20725393295288;;
facility:2081555;facility;SANTA CASA DE MISERICORDIA DE ITARARE;352320;-24.116244096621394;-49.34575796127319;;
facility:2081563;facility;CLINICA DE REPOUSO SANTA ROSA ESPIRITO SANTO DO PINHAL;351518;-22.196031;-46.763029;;
facility:2081571;facility;SANTA CASA DE RIOLANDIA;354420;-19.981796357704397;-49.67769908650791;;
facility:2081598;facility;SANTA CASA DE MISERICORDIA SAO LUCAS;355360;-21.4704002;-46.7485021;;
facility:2081644;facility;HOSPITAL FREI GALVAO;351840;-22.814775587864574;-45.18450379371643;;
facility:2081652;facility;SANTA CASA DE GENERAL SALGADO;351690;-20.648025220489423;-50.3578519821167;;
facility:2081660;facility;SANTA CASA DE IPAUCU;352090;-23.0524685;-49.6243918;;
facility:2081695;facility;CONJUNTO HOSPITALAR SOROCABA;355220;-23.312365363006315;-47.27408409118652;;
facility:2081717;facility;SANTA CASA DESCALVADO;351370;-21.906430311913223;-47.61639783016771;;
facility:2081725;facility;CAIS CLEMENTE FERREIRA DE LINS;352710;-21.63725;-49.77417;;
facility:2081733;facility;SEARA HOSPITAL PSIQUIATRICO;350160;-22.717691202474064;-47.29230098426684;;
facility:2081768;facility;SANTA CASA DE AURIFLAMA;350420;-20.685187503246315;-50.55491924285889;;
facility:2081784;facility;HOSPITAL SANTA THEREZINHA BROTAS;350790;-22.28625;-48.12217;;
facility:2081792;facility;SANTA CASA DE MACAUBAL;352810;-20.807791;-49.963563;;
facility:2081806;facility;HOSPITAL PADRE JOAO W BRAEM;350110;-21.5808548;-50.1666493;;
facility:2081814;facility;SANTA CASA DE GUARARAPES;351820;-21.251142065469097;-50.64952611923218;;
facility:2081857;facility;CNES 2081857 (Iguape - SP);352030;-24.54953916678646;-47.47440767463106;;
facility:2081873;facility;HOSPITAL E MATERNIDADE DE RANCHARIA;354220;-22.228451;-50.890211;;
facility:2081903;facility;HOSPITAL DE CARIDADE DE VARGEM GRANDE DO SUL;355640;-21.8374966;-46.8983417658679;;
facility:2081946;facility;CNES 2081946 (Campinas - SP);350950;-22.883756387475355;-47.04379621907528;;
facility:2081970;facility;HOSP MUN JABAQUARA ARTUR RIBEIRO DE SABOYA;355030;-23.6536386;-46.6450463;;
facility:2081989;facility;HOSPITAL SAO SEBASTIAO DE BORBOREMA;350740;-21.6163993;-49.0717372;;
facility:2082071;facility;SANTA CASA DE CARDOSO;351070;-20.081881;-49.910614;;
facility:2082098;facility;HOSPITAL DR ADHEMAR DE BARROS APIAI;350270;-24.51387906924492;-48.83564472198486;;
facility:2082128;facility;HOSPITAL E MATERNIDADE CELSO PIERRO;350950;-22.92066;-47.11948;;
facility:2082179;facility;HOSPITAL SAO FRANCISCO DE AMERICANA;350160;-22.746640062299008;-47.32908010482788;;
facility:2082187;facility;HOSPITAL DAS CLINICAS FAEPA RIBEIRAO PRETO;354340;-21.163272212877125;-47.85192847251892;;
facility:2082195;facility;BENEFICENCIA PORTUGUESA DE AMPARO;350190;-22.707373500169446;-46.770440340042114;;
facility:2082209;facility;PS E MATERNIDADE NAIR FONSECA LEITAO ARANTES;350570;-23.511220957958226;-46.872525215148926;;
facility:2082225;facility;HOSPITAL KATIA DE SOUZA RODRIGUES TAIPASSP SAO PAULO;355030;-23.476901;-46.729302;;
facility:2082276;facility;CASAS ANDRE LUIZ GUARULHOS;351880;-23.468506;-46.531084;;
facility:2082284;facility;SANTA CASA DE GRAMA;355080;-21.70911095898644;-46.82516813278198;;
facility:2082306;facility;SANTA CASA DE CASA BRANCA;351080;-21.7762433;-47.0857333;;
facility:2082322;facility;HOSPITAL DONA BALBINA;354070;-21.85431;-47.48145;;
facility:2082349;facility;HOSPITAL DE CLINICAS DR RADAMES NARDINI;352940;-23.673337;-46.458885;;
facility:2082381;facility;HOSPITAL MUNICIPAL DE BEBEDOURO JULIA PINTO CALDEIRA;350610;-20.934666;-48.497664;;
facility:2082411;facility;PRONTO ATENDIMENTO DR GUIDO GUIDA;353980;-23.515284494486245;-46.3472603224114;;
facility:2082438;facility;SANTA CASA DE CHAVANTES;355720;-23.044293;-49.706804;;
facility:2082446;facility;CLINICA NOSSO LAR;350010;-21.6789187;-51.062398;;
facility:2082454;facility;CASA DA CRIANCA DE TUPA;355500;-21.940318;-50.513033;;
facility:2082470;facility;HOSPITAL SAO LEOPOLDO MANDIC;350330;-22.3706101;-47.3928811;;
facility:2082497;facility;SANTA CASA HOSPITAL JESUS MARIA JOSE;350630;-23.01708151356433;-49.474074840545654;;
facility:2082519;facility;SANTA CASA DE PARAGUACU PAULISTA;353550;-22.41432142973929;-50.579466819763184;;
facility:2082527;facility;SANTA CASA DE ARARAQUARA;350320;-21.7893897752911;-48.1795334815979;;
facility:2082551;facility;SANTA CASA DE IBIRA;351940;-21.081339;-49.237561;;
facility:2082586;facility;SANTA CASA DE MISERICORDIA DE OSVALDO CRUZ;353460;-21.803774;-50.876988;;
facility:2082594;facility;COMPLEXO HOSPITALAR DE CLINICAS;354880;-23.6222179;-46.5634275;;
facility:2082624;facility;CNES 2082624 (São Paulo - SP);355030;-23.650049140231506;-46.64808599996871;;
facility:2082632;facility;HOSPITAL E MATERNIDADE SAO JOSE BARRA BONITA;350530;-22.49450738623087;-48.55950593948364;;
facility:2082640;facility;SANTA CASA DE CARIDADE E MATERNIDADE IBITINGA;351960;-21.75266399910182;-48.82755517959595;;
facility:2082659;facility;SANTA CASA DE NOVA GRANADA;353300;-20.538399;-49.324265;;
facility:2082667;facility;HOSPITAL SAO BOM JESUS;353140;-20.77133013065473;-49.70856727535232;;
facility:2082675;facility;ASSOCIACAO DE AMPARO AO EXCEPCIONAL RITINHA PRATES;350280;-21.1868926;-50.46007583560079;;
facility:2082691;facility;SANTA CASA DE ANDRADINA;350210;-20.89611;-51.37944;;
facility:2082721;facility;HOSPITAL E MATERNIDADE SOTERO DE SOUZA;355060;-23.528953027730118;-47.1349310874939;;
facility:2082748;facility;HOSPITAL ANGATUBA;350220;-23.4929323;-48.4148352;;
facility:2082756;facility;SANTA CASA DE SALTO GRANDE;354540;-22.8869944;-49.9847283;;
facility:2082780;facility;BENEFICENCIA HOSPITALAR DE CESARIO LANGE;351160;-23.219569383986013;-47.94487529849602;;
facility:2082810;facility;CONDERG HOSPITAL REGIONAL DE DIVINOLANDIA;351390;-21.6645394;-46.73938;;
facility:2082829;facility;HOSP MUN PROFESSOR DOUTOR ALIPIO CORREA NETTO;355030;-23.499698532780975;-46.47248401849497;;
facility:2082845;facility;SANTA CASA DE OLIMPIA;353390;-20.736007394838406;-48.9181923866272;;
facility:2082853;facility;HOSPITAL MAJOR ANTONIO CANDIDO BATATAIS;350590;-20.88854;-47.583679;;
facility:2082861;facility;HOSP MUNICIPAL DE URGENCIAS HMU;351880;-23.462990446336306;-46.532957553863525;;
facility:2082888;facility;SANTA CASA DE RIO CLARO;354390;-22.415491781917805;-47.55685329437256;;
facility:2082926;facility;CASA DE SAUDE STELLA MARIS;351050;-23.624637;-45.423288;;
facility:2082934;facility;SANTA CASA DE MISERICORDIA DE TAGUAI;355300;-23.455051949999998;-49.407387268773164;;
facility:2082942;facility;SANTA CASA DE MACATUBA;352800;-22.503837255152654;-48.71431767940521;;
facility:2082985;facility;CNES 2082985 (Taiúva - SP);355320;-21.132686379336103;-48.42826989773499;;
facility:2083019;facility;HOSPITAL ESTADUAL DE MIRANDOPOLIS DR OSWALDO BRANDI FARIA;353010;-21.134;-51.102;;
facility:2083027;facility;SANTA CASA DE MISERICORDIA DE PEREIRA BARRETO;353740;-20.6526376;-51.1157255;;
facility:2083051;facility;SANTA CASA DE APARECIDA;350250;-22.851935;-45.227258;;
facility:2083086;facility;HOSPITAL AMARAL CARVALHO JAU;352530;-22.29139;-48.54914;;
facility:2083094;facility;HOSPITAL REGIONAL DE ASSIS;350400;-22.667283;-50.411689;;
facility:2083116;facility;SANTA CASA DE MARILIA;352900;-22.21337112418803;-49.939234256744385;;
facility:2083140;facility;IRMANDADE DA SANTA CASA DE MISERICORDIA DE SANTA ISABEL;354680;-23.31899130310192;-46.22464299201965;;
facility:2083159;facility;BEZERRA DE MENEZES RIO CLARO;354390;-22.42224;-47.56331;;
facility:2083175;facility;SANTA CASA PIEDADE;353780;-23.712965;-47.41925;;
facility:2083213;facility;HOSPITAL TERRA ROXA;355440;-20.79046;-48.33115;;
facility:2083264;facility;HOSPITAL MUNICIPAL JOAQUIM RAIMUNDO GOMES GUAPIARA;351760;-24.184518102084;-48.5260534286499;;
facility:2083272;facility;HOSPITAL MUNICIPAL DE BERTIOGA;350635;-23.842632350000002;-46.13960236989821;;
facility:2083493;facility;SANTA CASA DE PONTAL;354020;-21.0283183;-48.0375455;;
facility:2083604;facility;SANTA CASA DE AVARE;350450;-23.01437581987373;-49.31333541870117;;
facility:2083876;facility;SANTA CASA DE MISERICORDIA DE FRANCISCO MORATO;351630;-23.27908135;-46.73910314220494;;
facility:2083973;facility;SANTA CASA DE GUARA;351770;-20.427;-47.819;;
facility:2083981;facility;HOSPITAL ESTADUAL SUMARE;355240;-22.821994692193176;-47.26794719696045;;
facility:2084007;facility;UNIDADE MISTA DE SAUDE DR JOSE ORLANDO S BORGATTO;350710;-23.13732133433205;-46.46462559700012;;
facility:2084023;facility;HOSPITAL MUNICIPAL DE NAZARE PAULISTA;353240;-23.1605963;-46.3945885;;
facility:2084058;facility;SANTA CASA DE MISERICORDIA DE SANTA CRUZ DO RIO PARDO;354640;-22.900707502230357;-49.627883434295654;;
facility:2084074;facility;HOSP MARIA VALLE PEREIRA DE TABAPUA;355260;-20.96107893626089;-49.031617641448975;;
facility:2084139;facility;HOSPITAL MUNICIPAL DR BENEDITO MONTENEGRO;355030;-23.587669;-46.515984;;
facility:2084163;facility;HOSPITAL ESTADUAL DE DIADEMA HOSPITAL SERRARIA;351380;-23.6974289;-46.6130852;;
facility:2084171;facility;HOSPITAL E MATERNIDADE SAO JOSE;355170;-21.1347539;-47.9917958;;
facility:2084228;facility;SANTA CASA DE MISERICORDIA DONA CAROLINA MALHEIROS SJBV;354910;-21.982195500000003;-46.79515739151121;;
facility:2084236;facility;CENTRO ESP EM REABILITACAO DR ARNALDO PEZZUTI CAVALCANTI MOG;353060;-23.522736008053435;-46.196608543395996;;
facility:2084244;facility;IRPSI;352050;-23.07495;-47.203374;;
facility:2084252;facility;SOBRAPAR CAMPINAS;350950;-22.82808613179241;-47.07017183303833;;
facility:2084287;facility;CNES 2084287 (Itapira - SP);352260;-22.43196288449512;-46.77209427952755;;
facility:2084317;facility;CLINICA FAZENDA PALMEIRAS;350190;-22.694585685847457;-46.77980661392212;;
facility:2084384;facility;INSTITUTO BEZERRA DE MENEZES ESPIRITO SANTO DO PINHAL;351518;-22.191363;-46.742194;;
facility:2084414;facility;SANTA CASA DE RIBEIRAO PRETO;354340;-21.1680807;-47.8055556;;
facility:2084422;facility;SANTA CASA DE SAO PEDRO;355040;-22.545359303923327;-47.91414499282837;;
facility:2084430;facility;HOSPITAL E MATERNIDADE MADRE VANNINI;351220;-22.337631982357856;-47.174139618873596;;
facility:2084473;facility;HOSP MUN IGNACIO PROENCA DE GOUVEA;355030;-23.571696917589424;-46.5900993347168;;
