{"node_id": "facility:0000035", "node_type": "facility", "name": "HOSPITAL MENDO SAMPAIO", "municipality_code": "260290", "latitude": -8.292214339969746, "longitude": -35.04819802058195}
{"node_id": "facility:0000094", "node_type": "facility", "name": "MATERNIDADE PADRE GERALDO LEITE BASTOS", "municipality_code": "260290", "latitude": -8.232359947405369, "longitude": -34.97720999030816}
{"node_id": "facility:0000396", "node_type": "facility", "name": "HOSPITAL DAS CLINICAS", "municipality_code": "261160", "latitude": -8.04750180385578, "longitude": -34.946136474609375}
{"node_id": "facility:0000418", "node_type": "facility", "name": "HOSPITAL AGAMENON MAGALHAES", "municipality_code": "261160", "latitude": -8.030155, "longitude": -34.90701109170914}
{"node_id": "facility:0000426", "node_type": "facility", "name": "HOSPITAL OTAVIO DE FREITAS", "municipality_code": "261160", "latitude": -8.087400508649779, "longitude": -34.96220827102661}
{"node_id": "facility:0000434", "node_type": "facility", "name": "IMIP", "municipality_code": "261160", "latitude": -8.066803665829326, "longitude": -34.89079713821411}
{"node_id": "facility:0000477", "node_type": "facility", "name": "HOSPITAL OSWALDO CRUZ", "municipality_code": "261160", "latitude": -8.047589445099332, "longitude": -34.8876616358757}
{"node_id": "facility:0000485", "node_type": "facility", "name": "FUNDACAO ALTINO VENTURA", "municipality_code": "261160", "latitude": -8.05888, "longitude": -34.889708161354065}
{"node_id": "facility:0000531", "node_type": "facility", "name": "CNES 0000531 (Recife - PE)", "municipality_code": "261160", "latitude": -8.03932237033039, "longitude": -34.933098260825226}
{"node_id": "facility:0000558", "node_type": "facility", "name": "CNES 0000558 (Recife - PE)", "municipality_code": "261160", "latitude": -8.03932237033039, "longitude": -34.933098260825226}
{"node_id": "facility:0000566", "node_type": "facility", "name": "HOSPITAL MARIA LUCINDA", "municipality_code": "261160", "latitude": -8.053833170965348, "longitude": -34.88126993179321}
{"node_id": "facility:0000582", "node_type": "facility", "name": "HOSPITAL DE CANCER DE PERNAMBUCO", "municipality_code": "261160", "latitude": -8.041297817982748, "longitude": -34.87337350845337}
{"node_id": "facility:0000604", "node_type": "facility", "name": "US 169 POLICLINICA AMAURY COUTINHO", "municipality_code": "261160", "latitude": -8.0163644, "longitude": -34.8825373}
{"node_id": "facility:0000655", "node_type": "facility", "name": "HOSPITAL DA RESTAURACAO", "municipality_code": "261160", "latitude": -8.05350385733086, "longitude": -34.89777624607086}
{"node_id": "facility:0000663", "node_type": "facility", "name": "CNES 0000663 (Recife - PE)", "municipality_code": "261160", "latitude": -8.03932237033039, "longitude": -34.933098260825226}
{"node_id": "facility:0000671", "node_type": "facility", "name": "US 153 POLICLINICA E MATERNIDADE ARNALDO MARQUES", "municipality_code": "261160", "latitude": -8.109099, "longitude": -34.9354}
{"node_id": "facility:0000701", "node_type": "facility", "name": "US 165 MATERNIDADE BANDEIRA FILHO", "municipality_code": "261160", "latitude": -8.07912, "longitude": -34.9105}
{"node_id": "facility:0000809", "node_type": "facility", "name": "FUNDACAO HEMOPE", "municipality_code": "261160", "latitude": -8.052598243455138, "longitude": -34.89795595407486}
{"node_id": "facility:0000981", "node_type": "facility", "name": "HOSPITAL CORREIA PICANCO", "municipality_code": "261160", "latitude": -8.033811, "longitude": -34.904742}
{"node_id": "facility:0001015", "node_type": "facility", "name": "US 163 HOSPITAL DE PEDIATRIA HELENA MOURA", "municipality_code": "261160", "latitude": -8.0232145555, "longitude": -34.82365}
{"node_id": "facility:0001120", "node_type": "facility", "name": "HOSPITAL PORTUGUES", "municipality_code": "261160", "latitude": -8.063816693669658, "longitude": -34.898189306259155}
{"node_id": "facility:0001546", "node_type": "facility", "name": "HOSPITAL PSIQUIATRICO ULYSSES PERNAMBUCANO", "municipality_code": "261160", "latitude": -8.03385, "longitude": -34.902166}
{"node_id": "facility:0002232", "node_type": "facility", "name": "HOSPITAL SANTA ISABEL", "municipality_code": "280030", "latitude": -10.5921128, "longitude": -36.9416223}
{"node_id": "facility:0002275", "node_type": "facility", "name": "HOSPITAL SAO JOSE", "municipality_code": "280030", "latitude": -10.901928850011457, "longitude": -37.054874731476005}
{"node_id": "facility:0002283", "node_type": "facility", "name": "HOSPITAL DE CIRURGIA", "municipality_code": "280030", "latitude": -10.918480023566438, "longitude": -37.07058548927307}
{"node_id": "facility:0002372", "node_type": "facility", "name": "HOSPITAL MUNICIPAL ZONA SUL DES FERNANDO FRANCO", "municipality_code": "280030", "latitude": -10.97481176954352, "longitude": -37.07453196215632}
{"node_id": "facility:0002534", "node_type": "facility", "name": "HOSPITAL UNIVERSITARIO DE SERGIPE HUSE", "municipality_code": "280030", "latitude": -10.8956986, "longitude": -37.0597128096492}
{"node_id": "facility:0002585", "node_type": "facility", "name": "CNES 0002585 (Aracaju - SE)", "municipality_code": "280030", "latitude": -10.99418891851923, "longitude": -37.09490124668476}
{"node_id": "facility:0003085", "node_type": "facility", "name": "CLINICA DE REPOUSO SAO MARCELLO LTDA", "municipality_code": "280030", "latitude": -10.89267, "longitude": -37.07144}
{"node_id": "facility:0003417", "node_type": "facility", "name": "FUNDACAO CLIMEDI", "municipality_code": "280030", "latitude": -10.918122667868456, "longitude": -37.0557336738333}
{"node_id": "facility:0003581", "node_type": "facility", "name": "INSTITUTO DE OLHOS DR CRISTIANO MENDONCA", "municipality_code": "280030", "latitude": -10.917932222865868, "longitude": -37.05585479736328}
{"node_id": "facility:0003778", "node_type": "facility", "name": "HOSPITAL ESTADUAL DA MULHER", "municipality_code": "292740", "latitude": -12.937331590115347, "longitude": -38.50674748420715}
{"node_id": "facility:0003786", "node_type": "facility", "name": "HOSPITAL ARISTIDES MALTEZ", "municipality_code": "292740", "latitude": -12.9861396, "longitude": -38.4923837}
{"node_id": "facility:0003794", "node_type": "facility", "name": "INSTITUTO DE PERINATOLOGIA DA BAHIA", "municipality_code": "292740", "latitude": -12.985343165979309, "longitude": -38.47686767578125}
{"node_id": "facility:0003808", "node_type": "facility", "name": "CNES 0003808 (Salvador - BA)", "municipality_code": "292740", "latitude": -12.873498787784706, "longitude": -38.51472863408121}
{"node_id": "facility:0003816", "node_type": "facility", "name": "HOSPITAL UNIVERSITARIO PROFESSOR EDGARD SANTOS", "municipality_code": "292740", "latitude": -12.9931237862042, "longitude": -38.52022022008896}
{"node_id": "facility:0003832", "node_type": "facility", "name": "HOSPITAL SANTA IZABEL", "municipality_code": "292740", "latitude": -12.97298955, "longitude": -38.50252668}
{"node_id": "facility:0003840", "node_type": "facility", "name": "MATERNIDADE ALBERT SABIN", "municipality_code": "292740", "latitude": -12.903188161296152, "longitude": -38.405734151680846}
{"node_id": "facility:0003859", "node_type": "facility", "name": "HOSPITAL GERAL ROBERTO SANTOS", "municipality_code": "292740", "latitude": -12.972226, "longitude": -38.501426}
{"node_id": "facility:0003875", "node_type": "facility", "name": "HOSPITAL ANA NERY", "municipality_code": "292740", "latitude": -12.9575324, "longitude": -38.4931637}
{"node_id": "facility:0003921", "node_type": "facility", "name": "CICAN", "municipality_code": "292740", "latitude": -12.9830857, "longitude": -38.5036816}
{"node_id": "facility:0003972", "node_type": "facility", "name": "CENTRO DE PARTO HUMANIZADO JOAO BATISTA CARIBE", "municipality_code": "292740", "latitude": -12.4342747, "longitude": -38.3308469}
{"node_id": "facility:0003980", "node_type": "facility", "name": "HOSPITAL ELADIO LASSERRE", "municipality_code": "292740", "latitude": -12.889373521561977, "longitude": -38.42262268066406}
{"node_id": "facility:0004065", "node_type": "facility", "name": "HOSPITAL ESPECIALIZADO OCTAVIO MANGABEIRA", "municipality_code": "292740", "latitude": -12.959216063439738, "longitude": -38.48536491394043}
{"node_id": "facility:0004073", "node_type": "facility", "name": "HOSPITAL GERAL ERNESTO SIMOES FILHO", "municipality_code": "292740", "latitude": -12.95900695191243, "longitude": -38.48616421222687}
{"node_id": "facility:0004170", "node_type": "facility", "name": "MATERNIDADE TSYLLA BALBINO", "municipality_code": "292740", "latitude": -12.962499091393244, "longitude": -38.4916090965271}
{"node_id": "facility:0004251", "node_type": "facility", "name": "HOSPITAL PORTUGUES", "municipality_code": "292740", "latitude": -13.0032128, "longitude": -38.5312954}
{"node_id": "facility:0004278", "node_type": "facility", "name": "HOSPITAL MARTAGAO GESTEIRA", "municipality_code": "292740", "latitude": -12.9821042, "longitude": -38.508557}
{"node_id": "facility:0004286", "node_type": "facility", "name": "HOSPITAL JULIANO MOREIRA", "municipality_code": "292740", "latitude": -12.952911273727892, "longitude": -38.44918727874756}
{"node_id": "facility:0004294", "node_type": "facility", "name": "HOSPITAL GERAL DO ESTADO", "municipality_code": "292740", "latitude": -12.9962977, "longitude": -38.4945683}
{"node_id": "facility:0004731", "node_type": "facility", "name": "MATERNIDADE CLIMERIO DE OLIVEIRA", "municipality_code": "292740", "latitude": -12.9719354, "longitude": -38.5023149}
{"node_id": "facility:0004960", "node_type": "facility", "name": "HOSPITAL SANTA LUZIA", "municipality_code": "292740", "latitude": -12.9731, "longitude": -38.5034}
{"node_id": "facility:0004979", "node_type": "facility", "name": "HOSPITAL DE BROTAS", "municipality_code": "292740", "latitude": -12.9899166, "longitude": -38.48881888424956}
{"node_id": "facility:0004987", "node_type": "facility", "name": "HOSPITAL PROFESSOR CARVALHO LUZ", "municipality_code": "292740", "latitude": -12.973279, "longitude": -38.50265}
{"node_id": "facility:0005134", "node_type": "facility", "name": "CNES 0005134 (Salvador - BA)", "municipality_code": "292740", "latitude": -12.873498787784706, "longitude": -38.51472863408121}
{"node_id": "facility:0005428", "node_type": "facility", "name": "INSTITUTO COUTO MAIA", "municipality_code": "292740", "latitude": -12.8856327, "longitude": -38.4246505}
{"node_id": "facility:0005436", "node_type": "facility", "name": "HOSPITAL ESPECIALIZADO MARIO LEAL", "municipality_code": "292740", "latitude": -12.971, "longitude": -38.511}
{"node_id": "facility:0006157", "node_type": "facility", "name": "HOSPITAL HUMBERTO CASTRO LIMA", "municipality_code": "292740", "latitude": -12.9946108, "longitude": -38.5229048}
{"node_id": "facility:0006564", "node_type": "facility", "name": "CENTRO ESPIRITA CAMINHO DA REDENCAO", "municipality_code": "292740", "latitude": -12.916313159, "longitude": -38.443801403}
{"node_id": "facility:0007641", "node_type": "facility", "name": "ABSJ", "municipality_code": "150240", "latitude": -1.2967909719264816, "longitude": -47.92234182357788}
{"node_id": "facility:0007684", "node_type": "facility", "name": "HOSPITAL MAGALHAES", "municipality_code": "150240", "latitude": -1.2942596138525924, "longitude": -47.92566776275635}
{"node_id": "facility:0008028", "node_type": "facility", "name": "HOSPITAL MUNICIPAL ANTONIO GIGLIO", "municipality_code": "353440", "latitude": -23.53232235, "longitude": -46.77712772881206}
{"node_id": "facility:0008036", "node_type": "facility", "name": "HOSPITAL MATERNIDADE AMADOR AGUIAR", "municipality_code": "353440", "latitude": -23.5047325, "longitude": -46.7881282}
{"node_id": "facility:0008052", "node_type": "facility", "name": "HOSPITAL REGIONAL DR VIVALDO MARTINS SIMOES OSASCO", "municipality_code": "353440", "latitude": -23.5249302, "longitude": -46.771938984518826}
{"node_id": "facility:0008087", "node_type": "facility", "name": "PRONTO SOCORRO CONRADO CESARINO NUVOLINI", "municipality_code": "353440", "latitude": -23.554722982325107, "longitude": -46.80203676223755}
{"node_id": "facility:0008141", "node_type": "facility", "name": "PRONTO SOCORRO DR ANTONIO FLAVIO FRANCA", "municipality_code": "353440", "latitude": -23.51256385847313, "longitude": -46.77590131759644}
{"node_id": "facility:0008494", "node_type": "facility", "name": "UPA BANGU", "municipality_code": "354780", "latitude": -23.6411957, "longitude": -46.5274164}
{"node_id": "facility:0008923", "node_type": "facility", "name": "CENTRO HOSPITALAR DE SANTO ANDRE DR NEWTON DA COSTA BRANDAO", "municipality_code": "354780", "latitude": -23.6659455, "longitude": -46.52757351456562}
{"node_id": "facility:0009164", "node_type": "facility", "name": "CNES 0009164 (S\u00e3o Jos\u00e9 dos Campos - SP)", "municipality_code": "354990", "latitude": -23.09056285793361, "longitude": -45.92853292396424}
{"node_id": "facility:0009539", "node_type": "facility", "name": "CNES 0009539 (S\u00e3o Jos\u00e9 dos Campos - SP)", "municipality_code": "354990", "latitude": -23.09056285793361, "longitude": -45.92853292396424}
{"node_id": "facility:0009601", "node_type": "facility", "name": "HOSPITAL PIO XII", "municipality_code": "354990", "latitude": -23.1631693, "longitude": -45.900583347539566}
{"node_id": "facility:0009628", "node_type": "facility", "name": "HOSPITAL MUNICIPAL DR JOSE DE CARVALHO FLORENCE", "municipality_code": "354990", "latitude": -23.1806184, "longitude": -45.85483410737851}
{"node_id": "facility:0009695", "node_type": "facility", "name": "CENTRO DE REFERENCIA EM MOLESTIAS INFECCIOSAS", "municipality_code": "354990", "latitude": -23.2008696, "longitude": -45.8906204}
{"node_id": "facility:0009709", "node_type": "facility", "name": "EBSERH HOSP UNIV MARIA APARECIDA PEDROSSIAN", "municipality_code": "500270", "latitude": -20.499085, "longitude": -54.616465}
{"node_id": "facility:0009717", "node_type": "facility", "name": "SANTA CASA", "municipality_code": "500270", "latitude": -20.452376, "longitude": -54.617009}
{"node_id": "facility:0009725", "node_type": "facility", "name": "HOSPITAL REGIONAL DE MATO GROSSO DO SUL", "municipality_code": "500270", "latitude": -20.51349463373381, "longitude": -54.65421438217163}
{"node_id": "facility:0009733", "node_type": "facility", "name": "HOSPITAL SAO JULIAO", "municipality_code": "500270", "latitude": -20.375598, "longitude": -54.55835}
{"node_id": "facility:0009768", "node_type": "facility", "name": "ASSOCIACAO DE AMPARO A MATERNIDADE E A INFANCIA AAMI", "municipality_code": "500270", "latitude": -20.458213, "longitude": -54.605937}
{"node_id": "facility:0009776", "node_type": "facility", "name": "HOSPITAL DO CANCER DR ALFREDO ABRAO", "municipality_code": "500270", "latitude": -20.459997, "longitude": -54.621063}
{"node_id": "facility:0009792", "node_type": "facility", "name": "HOSPITAL NOSSO LAR", "municipality_code": "500270", "latitude": -20.457023, "longitude": -54.627954}
{"node_id": "facility:0010448", "node_type": "facility", "name": "SESAU CEDIP HD HOSPITAL DIA", "municipality_code": "500270", "latitude": -20.410969, "longitude": -54.572331}
{"node_id": "facility:0010456", "node_type": "facility", "name": "HOSPITAL DE BASE DO DISTRITO FEDERAL", "municipality_code": "530010", "latitude": -15.799779534664651, "longitude": -47.88970470428467}
{"node_id": "facility:0010464", "node_type": "facility", "name": "HRAN", "municipality_code": "530010", "latitude": -15.7857462, "longitude": -47.8827625}
{"node_id": "facility:0010472", "node_type": "facility", "name": "HRG", "municipality_code": "530010", "latitude": -16.023221098308856, "longitude": -48.069326877594}
{"node_id": "facility:0010480", "node_type": "facility", "name": "HOSPITAL REGIONAL DE CEILANDIA", "municipality_code": "530010", "latitude": -15.815563535970762, "longitude": -48.09593439102173}
{"node_id": "facility:0010499", "node_type": "facility", "name": "HRT HOSPITAL REGIONAL DE TAGUATINGA", "municipality_code": "530010", "latitude": -15.82247961680422, "longitude": -48.0692195892334}
{"node_id": "facility:0010502", "node_type": "facility", "name": "HRS", "municipality_code": "530010", "latitude": -15.648370437680098, "longitude": -47.79267311096192}
{"node_id": "facility:0010510", "node_type": "facility", "name": "HOSPITAL UNIVERSITARIO DE BRASILIA", "municipality_code": "530010", "latitude": -15.771480871463751, "longitude": -47.873783111572266}
{"node_id": "facility:0010529", "node_type": "facility", "name": "HRPL", "municipality_code": "530010", "latitude": -15.624917329234314, "longitude": -47.652747631073}
{"node_id": "facility:0010537", "node_type": "facility", "name": "HOSPITAL MATERNO INFANTIL DR ANTONIO LISBOA", "municipality_code": "530010", "latitude": -15.824457, "longitude": -47.8972328415664}
{"node_id": "facility:0010545", "node_type": "facility", "name": "HRBZ", "municipality_code": "530010", "latitude": -15.67514708650334, "longitude": -48.203630447387695}
{"node_id": "facility:0010596", "node_type": "facility", "name": "CNES 0010596 (Bras\u00edlia - DF)", "municipality_code": "530010", "latitude": -15.781172363612123, "longitude": -47.7968439416826}
{"node_id": "facility:0010618", "node_type": "facility", "name": "HOSPITAL SAO VICENTE DE PAULO HSVP", "municipality_code": "530010", "latitude": -15.836569109120648, "longitude": -48.05992841720581}
{"node_id": "facility:0011738", "node_type": "facility", "name": "HOSPITAL SANTA RITA DE CASSIA", "municipality_code": "320530", "latitude": -20.297499, "longitude": -40.3171414}
{"node_id": "facility:0011746", "node_type": "facility", "name": "HOSPITAL DA SANTA CASA DE MISERICORDIA DE VITORIA", "municipality_code": "320530", "latitude": -20.3113452, "longitude": -40.2986506}
{"node_id": "facility:0011800", "node_type": "facility", "name": "HOSPITAL INFANTIL NOSSA SENHORA DA GLORIA", "municipality_code": "320530", "latitude": -20.307553, "longitude": -40.2997894}
{"node_id": "facility:0011843", "node_type": "facility", "name": "SANTA CASA DE MISERICORDIA DE VITORIA UNIDADE PRO MATRE", "municipality_code": "320530", "latitude": -20.3155447, "longitude": -40.3228553}
{"node_id": "facility:0011991", "node_type": "facility", "name": "AFPES", "municipality_code": "320530", "latitude": -20.320222, "longitude": -40.338165}
{"node_id": "facility:0012017", "node_type": "facility", "name": "HOSPITAL DA POLICIA MILITAR HPM", "municipality_code": "320530", "latitude": -20.319, "longitude": -40.338}
{"node_id": "facility:0012505", "node_type": "facility", "name": "HOSPITAL UNIVERSITARIO ANTONIO PEDRO", "municipality_code": "330330", "latitude": -22.895500840460503, "longitude": -43.1122477899359}
{"node_id": "facility:0012513", "node_type": "facility", "name": "HOSPITAL MUNICIPAL CARLOS TORTELLY", "municipality_code": "330330", "latitude": -22.893917576889766, "longitude": -43.11037838459015}
{"node_id": "facility:0012521", "node_type": "facility", "name": "SES RJ HOSPITAL ESTADUAL AZEVEDO LIMA", "municipality_code": "330330", "latitude": -22.880227975327998, "longitude": -43.07844400405884}
{"node_id": "facility:0012556", "node_type": "facility", "name": "HOSPITAL ORENCIO DE FREITAS", "municipality_code": "330330", "latitude": -22.864678472037472, "longitude": -43.09456944465637}
{"node_id": "facility:0012599", "node_type": "facility", "name": "HOSPITAL GETULIO VARGAS FILHO", "municipality_code": "330330", "latitude": -22.880984151800117, "longitude": -43.07866394519806}
{"node_id": "facility:0012610", "node_type": "facility", "name": "HOSPITAL DE OLHOS SANTA BEATRIZ", "municipality_code": "330330", "latitude": -22.881349882700334, "longitude": -43.09539824724197}
{"node_id": "facility:0012718", "node_type": "facility", "name": "HOSPITAL PSIQUIATRICO DE JURUJUBA", "municipality_code": "330330", "latitude": -22.93268226531985, "longitude": -43.097890474841584}
{"node_id": "facility:0012769", "node_type": "facility", "name": "SES RJ INSTITUTO ESTADUAL DE DOENCAS DO TORAX ARY PARREIRAS", "municipality_code": "330330", "latitude": -22.8650162, "longitude": -43.1016656}
{"node_id": "facility:0012823", "node_type": "facility", "name": "SEAP RJ HOSPITAL DE CUST E TRAT PSIQUIATRICO HENRIQUE ROXO", "municipality_code": "330330", "latitude": -22.883, "longitude": -43.104}
{"node_id": "facility:0013102", "node_type": "facility", "name": "CNES 0013102 (Adrian\u00f3polis - PR)", "municipality_code": "410020", "latitude": -24.78344669889999, "longitude": -48.82120834023829}
{"node_id": "facility:0013633", "node_type": "facility", "name": "HOSPITAL ANGELINA CARON", "municipality_code": "410400", "latitude": -25.3289967, "longitude": -49.0778898}
{"node_id": "facility:0013838", "node_type": "facility", "name": "HOSPITAL SAO LUCAS", "municipality_code": "410420", "latitude": -25.461961206942103, "longitude": -49.52896548586361}
{"node_id": "facility:0013846", "node_type": "facility", "name": "HOSPITAL DO ROCIO", "municipality_code": "410420", "latitude": -25.459, "longitude": -49.528}
{"node_id": "facility:0014001", "node_type": "facility", "name": "ASSOCIACAO DE PESQUISA E TRATAMENTO ALCOOLISMO", "municipality_code": "410420", "latitude": -25.45949, "longitude": -49.528841}
{"node_id": "facility:0014109", "node_type": "facility", "name": "HOSPITAL SANTA CASA DE MISERICORDIA", "municipality_code": "410430", "latitude": -24.0262887, "longitude": -52.4021135}
{"node_id": "facility:0014125", "node_type": "facility", "name": "CENTER CLINICAS", "municipality_code": "410430", "latitude": -24.0447261, "longitude": -52.3826139}
{"node_id": "facility:0014869", "node_type": "facility", "name": "CNES 0014869 (Colombo - PR)", "municipality_code": "410580", "latitude": -25.30634772942094, "longitude": -49.188049609837456}
{"node_id": "facility:0015180", "node_type": "facility", "name": "CNES 0015180 (Contenda - PR)", "municipality_code": "410620", "latitude": -25.719177948236133, "longitude": -49.52610685943805}
{"node_id": "facility:0015245", "node_type": "facility", "name": "HOSPITAL UNIVERSITARIO EVANGELICO MACKENZIE", "municipality_code": "410690", "latitude": -25.43424305, "longitude": -49.2920418148381}
{"node_id": "facility:0015318", "node_type": "facility", "name": "HNSG", "municipality_code": "410690", "latitude": -25.4210851, "longitude": -49.2928862}
{"node_id": "facility:0015334", "node_type": "facility", "name": "HOSPITAL SANTA CASA DE CURITIBA", "municipality_code": "410690", "latitude": -25.43550437899397, "longitude": -49.27306108836554}
{"node_id": "facility:0015369", "node_type": "facility", "name": "COMPLEXO HOSPITALAR DO TRABALHADOR", "municipality_code": "410690", "latitude": -25.48473985, "longitude": -49.29500081159392}
{"node_id": "facility:0015407", "node_type": "facility", "name": "HOSPITAL UNIVERSITARIO CAJURU", "municipality_code": "410690", "latitude": -25.435993612017256, "longitude": -49.24511287427901}
{"node_id": "facility:0015415", "node_type": "facility", "name": "HOSPITAL OSVALDO CRUZ", "municipality_code": "410690", "latitude": -25.425647152814037, "longitude": -49.25920504671252}
{"node_id": "facility:0015423", "node_type": "facility", "name": "CRUZ VERMELHA BRASILEIRA FILIAL DO ESTADO DO PARANA", "municipality_code": "410690", "latitude": -25.4373464, "longitude": -49.2897265}
{"node_id": "facility:0015563", "node_type": "facility", "name": "HOSPITAL INFANTIL PEQUENO PRINCIPE", "municipality_code": "410690", "latitude": -25.444360714299798, "longitude": -49.27594408962177}
{"node_id": "facility:0015601", "node_type": "facility", "name": "HOSPITAL SAO VICENTE CIC", "municipality_code": "410690", "latitude": -25.5098868, "longitude": -49.3303751}
{"node_id": "facility:0015636", "node_type": "facility", "name": "HOSPITAL DE OLHOS DO PARANA", "municipality_code": "410690", "latitude": -25.4360137, "longitude": -49.2860139}
{"node_id": "facility:0015644", "node_type": "facility", "name": "HOSPITAL ERASTO GAERTNER", "municipality_code": "410690", "latitude": -25.4534641, "longitude": -49.2399001}
{"node_id": "facility:0015660", "node_type": "facility", "name": "CNES 0015660 (Curitiba - PR)", "municipality_code": "410690", "latitude": -25.47789126650286, "longitude": -49.28823327468759}
{"node_id": "facility:0015962", "node_type": "facility", "name": "CNES 0015962 (Curitiba - PR)", "municipality_code": "410690", "latitude": -25.47789126650286, "longitude": -49.28823327468759}
{"node_id": "facility:0016209", "node_type": "facility", "name": "HOSPITAL DA VISAO", "municipality_code": "410690", "latitude": -25.4478156926116, "longitude": -49.29727337427839}
{"node_id": "facility:0016365", "node_type": "facility", "name": "UNIICA BOM RETIRO DOM JOAO BOSCO OLIVER DE FARIA", "municipality_code": "410690", "latitude": -25.45003682630604, "longitude": -49.24113035202026}
{"node_id": "facility:0016462", "node_type": "facility", "name": "CENTRO MEDICO COMUNITARIO BAIRRO NOVO", "municipality_code": "410690", "latitude": -25.54901, "longitude": -49.264027}
{"node_id": "facility:0017574", "node_type": "facility", "name": "HOSPITAL E MATERNIDADE NOSSA SENHORA APARECIDA", "municipality_code": "410765", "latitude": -25.645511273917503, "longitude": -49.31709051132202}
{"node_id": "facility:0017612", "node_type": "facility", "name": "HOSPITAL E MATERNIDADE ITAPERUCU", "municipality_code": "411125", "latitude": -25.221508, "longitude": -49.35165}
{"node_id": "facility:0017663", "node_type": "facility", "name": "HOSPITAL REGIONAL DA LAPA SAO SEBASTIAO", "municipality_code": "411320", "latitude": -25.73943, "longitude": -49.70712}
{"node_id": "facility:0017779", "node_type": "facility", "name": "HOSPITAL MUNICIPAL DE MANDIRITUBA", "municipality_code": "411430", "latitude": -25.77863863837324, "longitude": -49.32713270187378}
{"node_id": "facility:0017868", "node_type": "facility", "name": "HOSPITAL FILANTROPICO POLICLINICA", "municipality_code": "411850", "latitude": -26.229586323605105, "longitude": -52.67534494400024}
{"node_id": "facility:0017884", "node_type": "facility", "name": "ISSAL", "municipality_code": "411850", "latitude": -26.22748825291481, "longitude": -52.67068862915039}
{"node_id": "facility:0018090", "node_type": "facility", "name": "FUNDACAO HOSPITALAR PINHAIS", "municipality_code": "411915", "latitude": -25.4322682487082, "longitude": -49.1843318939209}
{"node_id": "facility:0018260", "node_type": "facility", "name": "HOSPITAL ADAUTO BOTELHO", "municipality_code": "411915", "latitude": -25.3941548561732, "longitude": -49.11569093484082}
{"node_id": "facility:0018333", "node_type": "facility", "name": "HOSPITAL E MATERNIDADE MUNICIPAL PAPA FRANCISCO", "municipality_code": "411915", "latitude": -25.442325159308528, "longitude": -49.190404415130615}
{"node_id": "facility:0018368", "node_type": "facility", "name": "HOSPITAL DE DERMATOLOGIA SANITARIA DO PARANA", "municipality_code": "411950", "latitude": -25.449219, "longitude": -49.098043}
{"node_id": "facility:0018384", "node_type": "facility", "name": "ASJA", "municipality_code": "411950", "latitude": -25.44818, "longitude": -49.06678}
{"node_id": "facility:0018600", "node_type": "facility", "name": "HOSPITAL E MATERNIDADE DE RIO BRANCO DO SUL", "municipality_code": "412220", "latitude": -25.19194, "longitude": -49.3119}
{"node_id": "facility:0018694", "node_type": "facility", "name": "HOSPITAL BOM JESUS", "municipality_code": "412230", "latitude": -26.10138066739589, "longitude": -49.799394607543945}
{"node_id": "facility:0019194", "node_type": "facility", "name": "CNES 0019194 (Tijucas do Sul - PR)", "municipality_code": "412760", "latitude": -25.901483132138285, "longitude": -49.11214530618573}
{"node_id": "facility:0019208", "node_type": "facility", "name": "CNES 0019208 (Tunas do Paran\u00e1 - PR)", "municipality_code": "412788", "latitude": -24.95254578576798, "longitude": -48.90261221544575}
{"node_id": "facility:0019283", "node_type": "facility", "name": "MATERNIDADE CARMELA DUTRA", "municipality_code": "420540", "latitude": -27.589278772540958, "longitude": -48.550450801849365}
{"node_id": "facility:0019305", "node_type": "facility", "name": "HOSPITAL FLORIANOPOLIS", "municipality_code": "420540", "latitude": -27.589586, "longitude": -48.587251}
{"node_id": "facility:0019402", "node_type": "facility", "name": "INSTITUTO DE ENSINO E PESQUISA DR IRINEU MAY BRODBECK", "municipality_code": "420540", "latitude": -27.60289699547269, "longitude": -48.54502469301224}
{"node_id": "facility:0019445", "node_type": "facility", "name": "CEPONSC", "municipality_code": "420540", "latitude": -27.57732895, "longitude": -48.50903912838352}
{"node_id": "facility:0020516", "node_type": "facility", "name": "US 167 POLICLINICA E MATERNIDADE PROFESSOR BARROS LIMA", "municipality_code": "261160", "latitude": -8.0198029, "longitude": -34.926056}
{"node_id": "facility:0020893", "node_type": "facility", "name": "CNES 0020893 (Salvador - BA)", "municipality_code": "292740", "latitude": -12.873498787784706, "longitude": -38.51472863408121}
{"node_id": "facility:0021520", "node_type": "facility", "name": "UPA VILA LUZITA", "municipality_code": "354780", "latitude": -23.6993715, "longitude": -46.507145410165954}
{"node_id": "facility:0024074", "node_type": "facility", "name": "HOSPITAL MUNICIPAL DA MULHER E MATERNIDADE CELIA CAMARA", "municipality_code": "520870", "latitude": -16.723344292949932, "longitude": -49.43401336669922}
{"node_id": "facility:0024228", "node_type": "facility", "name": "UPA CENTRAL EMILIO PIRES MAGALHAES", "municipality_code": "354780", "latitude": -23.6565972, "longitude": -46.53265168492607}
{"node_id": "facility:0025135", "node_type": "facility", "name": "HOSPITAL MUNICIPAL SAO JOAO BATISTA", "municipality_code": "330630", "latitude": -22.5008898, "longitude": -44.0514597}
{"node_id": "facility:0025143", "node_type": "facility", "name": "HOSPITAL MUNICIPAL DR MUNIR RAFFUL", "municipality_code": "330630", "latitude": -22.4994878, "longitude": -44.12284002765031}
{"node_id": "facility:0025186", "node_type": "facility", "name": "H FOA ECOSSISTEMA EM SAUDE E EDUCACAO ESCOLA MEDICA", "municipality_code": "330630", "latitude": -22.5108539, "longitude": -44.0821926}
{"node_id": "facility:0025399", "node_type": "facility", "name": "MATERNIDADE MUNICIPAL HUMBERTO CARRANO", "municipality_code": "411320", "latitude": -25.77440699552484, "longitude": -49.71906781196594}
{"node_id": "facility:0026042", "node_type": "facility", "name": "CNES 0026042 (Macei\u00f3 - AL)", "municipality_code": "270430", "latitude": -9.52239445793112, "longitude": -35.71138393843422}
{"node_id": "facility:0026050", "node_type": "facility", "name": "HOSPITAL SANTA CECILIA", "municipality_code": "330630", "latitude": -22.52183357460037, "longitude": -44.11062240600586}
{"node_id": "facility:0026417", "node_type": "facility", "name": "HOSPITAL DE CLINICAS SUL", "municipality_code": "354990", "latitude": -23.237994272343403, "longitude": -45.90937614440918}
{"node_id": "facility:0026468", "node_type": "facility", "name": "CNES 0026468 (Aracaju - SE)", "municipality_code": "280030", "latitude": -10.99418891851923, "longitude": -37.09490124668476}
{"node_id": "facility:0026476", "node_type": "facility", "name": "CNES 0026476 (Aracaju - SE)", "municipality_code": "280030", "latitude": -10.99418891851923, "longitude": -37.09490124668476}
{"node_id": "facility:0026484", "node_type": "facility", "name": "HOSPITAL DE OLHOS DE SERGIPE", "municipality_code": "280030", "latitude": -10.925363, "longitude": -37.0548704}
{"node_id": "facility:0026549", "node_type": "facility", "name": "HORG", "municipality_code": "280030", "latitude": -10.914408302583848, "longitude": -37.0537024756517}
{"node_id": "facility:0026557", "node_type": "facility", "name": "OFTALMOCLINICA", "municipality_code": "280030", "latitude": -10.920734423506731, "longitude": -37.05220699310303}
{"node_id": "facility:0026719", "node_type": "facility", "name": "CENTRO OFTALMOLOGICO DE MINAS GERAIS", "municipality_code": "310620", "latitude": -19.9218337, "longitude": -43.9436227}
{"node_id": "facility:0026794", "node_type": "facility", "name": "HOSPITAL SOFIA FELDMAN", "municipality_code": "310620", "latitude": -19.83614695, "longitude": -43.914946281420285}
{"node_id": "facility:0026808", "node_type": "facility", "name": "HOSPITAL EVANGELICO DE BELO HORIZONTE", "municipality_code": "310620", "latitude": -19.9399314, "longitude": -43.9128421}
{"node_id": "facility:0026824", "node_type": "facility", "name": "CNES 0026824 (Belo Horizonte - MG)", "municipality_code": "310620", "latitude": -19.902697308291582, "longitude": -43.95999231421237}
{"node_id": "facility:0026840", "node_type": "facility", "name": "COMPLEXO HOSPITALAR SAO FRANCISCO", "municipality_code": "310620", "latitude": -19.90064015206941, "longitude": -43.9334811014647}
{"node_id": "facility:0026859", "node_type": "facility", "name": "HOSPITAL FELICIO ROCHO", "municipality_code": "310620", "latitude": -19.922993767557013, "longitude": -43.95754337310791}
{"node_id": "facility:0026913", "node_type": "facility", "name": "HOSPITAL GALBA VELLOSO", "municipality_code": "310620", "latitude": -19.928387, "longitude": -43.9865718}
{"node_id": "facility:0026921", "node_type": "facility", "name": "HOSPITAL JOAO XXIII", "municipality_code": "310620", "latitude": -19.9270424, "longitude": -43.9321649}
{"node_id": "facility:0026948", "node_type": "facility", "name": "HOSPITAL INFANTIL JOAO PAULO II", "municipality_code": "310620", "latitude": -19.924594, "longitude": -43.9317717}
{"node_id": "facility:0026964", "node_type": "facility", "name": "HOSPITAL ALBERTO CAVALCANTI", "municipality_code": "310620", "latitude": -19.91148526864942, "longitude": -43.98924345800843}
{"node_id": "facility:0026972", "node_type": "facility", "name": "MATERNIDADE ODETE VALADARES", "municipality_code": "310620", "latitude": -19.924069, "longitude": -43.957676}
{"node_id": "facility:0026999", "node_type": "facility", "name": "INSTITUTO RAUL SOARES", "municipality_code": "310620", "latitude": -19.922089651638007, "longitude": -43.9192000170878}
{"node_id": "facility:0027014", "node_type": "facility", "name": "SANTA CASA DE BELO HORIZONTE", "municipality_code": "310620", "latitude": -19.92446018263489, "longitude": -43.92570371893125}
{"node_id": "facility:0027022", "node_type": "facility", "name": "HOSPITAL JULIA KUBITSCHEK", "municipality_code": "310620", "latitude": -19.98966690232356, "longitude": -43.997048261259934}
{"node_id": "facility:0027049", "node_type": "facility", "name": "HOSP DAS CLINICAS DA UNIV FED DE MINAS GERAIS EBSERH", "municipality_code": "310620", "latitude": -19.9253417, "longitude": -43.9292778}
{"node_id": "facility:0027820", "node_type": "facility", "name": "HOSPITAL INFANTIL PADRE ANCHIETA", "municipality_code": "310620", "latitude": -19.87884548028157, "longitude": -43.9579188945421}
{"node_id": "facility:0027863", "node_type": "facility", "name": "HOSPITAL RISOLETA TOLENTINO NEVES", "municipality_code": "310620", "latitude": -19.81754224694853, "longitude": -43.94853115081787}
{"node_id": "facility:0027898", "node_type": "facility", "name": "CNES 0027898 (Belo Horizonte - MG)", "municipality_code": "310620", "latitude": -19.902697308291582, "longitude": -43.95999231421237}
{"node_id": "facility:0027936", "node_type": "facility", "name": "CNES 0027936 (Belo Horizonte - MG)", "municipality_code": "310620", "latitude": -19.902697308291582, "longitude": -43.95999231421237}
{"node_id": "facility:0027979", "node_type": "facility", "name": "CNES 0027979 (Belo Horizonte - MG)", "municipality_code": "310620", "latitude": -19.902697308291582, "longitude": -43.95999231421237}
{"node_id": "facility:0038806", "node_type": "facility", "name": "CNES 0038806 (Bauru - SP)", "municipality_code": "350600", "latitude": -22.25399542167874, "longitude": -49.12613527193945}
{"node_id": "facility:0046124", "node_type": "facility", "name": "CNES 0046124 (A\u00e7ail\u00e2ndia - MA)", "municipality_code": "210005", "latitude": -4.785818643661267, "longitude": -47.332426349413325}
{"node_id": "facility:0052825", "node_type": "facility", "name": "SOPHIA MEDIC SERVICOS MEDICOS E CIRURGICOS LTDA", "municipality_code": "330045", "latitude": -22.764132217456066, "longitude": -43.39975118637085}
{"node_id": "facility:0062197", "node_type": "facility", "name": "CNES 0062197 (Una\u00ed - MG)", "municipality_code": "317040", "latitude": -16.375766727749618, "longitude": -46.81954819498662}
{"node_id": "facility:0072966", "node_type": "facility", "name": "CNES 0072966 (Bombinhas - SC)", "municipality_code": "420245", "latitude": -27.17325589422284, "longitude": -48.51769540507136}
{"node_id": "facility:0073482", "node_type": "facility", "name": "HOSPITAL REGIONAL DO BAIXO TOCANTINS HOSPITAL SANTA ROSA", "municipality_code": "150010", "latitude": -1.7268665248076225, "longitude": -48.880791664123535}
{"node_id": "facility:0078050", "node_type": "facility", "name": "CNES 0078050 (Igaracy - PB)", "municipality_code": "250260", "latitude": -7.155193528900079, "longitude": -38.12457712016862}
{"node_id": "facility:0086126", "node_type": "facility", "name": "HOSPITAL DE ENFRENTAMENTO AO CORONAVIRUS DE GOIANIA", "municipality_code": "520870", "latitude": -16.643542278585027, "longitude": -49.27377718577387}
{"node_id": "facility:0086673", "node_type": "facility", "name": "HOSPITAL ESTADUAL LEONARDO DA VINCI", "municipality_code": "230440", "latitude": -3.7399924, "longitude": -38.51025582433592}
{"node_id": "facility:0088935", "node_type": "facility", "name": "CNES 0088935 (Petr\u00f3polis - RJ)", "municipality_code": "330390", "latitude": -22.397967859607, "longitude": -43.15682996866087}
{"node_id": "facility:0090301", "node_type": "facility", "name": "HOSPITAL DE RETAGUARDA DOM VICENTE ZICO", "municipality_code": "150140", "latitude": -1.4348152, "longitude": -48.4569076}
{"node_id": "facility:0092894", "node_type": "facility", "name": "HOSPITAL REGIONAL DO LITORAL NORTE", "municipality_code": "351050", "latitude": -23.623372, "longitude": -45.417158}
{"node_id": "facility:0093297", "node_type": "facility", "name": "HOSPITAL DE CAMPANHA COVID 19 OURO PRETO", "municipality_code": "314610", "latitude": -20.288, "longitude": -43.508}
{"node_id": "facility:0100358", "node_type": "facility", "name": "CNES 0100358 (Sobral - CE)", "municipality_code": "231290", "latitude": -3.8110362584450135, "longitude": -40.22786895944965}
{"node_id": "facility:0100668", "node_type": "facility", "name": "CNES 0100668 (Caxias do Sul - RS)", "municipality_code": "430510", "latitude": -29.10220619002385, "longitude": -51.02367133760826}
{"node_id": "facility:0101826", "node_type": "facility", "name": "HOSPITAL DE CAMPANHA DO RECIFE HPR I AURORA", "municipality_code": "261160", "latitude": -8.05015555, "longitude": -34.874829032951666}
{"node_id": "facility:0102075", "node_type": "facility", "name": "HOSPITAL MUNICIPAL SANTA DULCE DOS POBRES", "municipality_code": "355030", "latitude": -23.4757, "longitude": -46.6974281}
{"node_id": "facility:0102083", "node_type": "facility", "name": "CNES 0102083 (S\u00e3o Paulo - SP)", "municipality_code": "355030", "latitude": -23.650049140231506, "longitude": -46.64808599996871}
{"node_id": "facility:0102091", "node_type": "facility", "name": "UNIDADE DE TERAPIA INTENSIVA UTI CAR", "municipality_code": "110002", "latitude": -9.909903388047791, "longitude": -63.03210496902466}
{"node_id": "facility:0102105", "node_type": "facility", "name": "HOSPITAL MUNICIPAL BRASILANDIA", "municipality_code": "355030", "latitude": -23.4757036, "longitude": -46.6974047}
{"node_id": "facility:0102547", "node_type": "facility", "name": "HOSPITAL DE CAMPANHA COVID 19 DOM ENEMESIO", "municipality_code": "210140", "latitude": -7.530191132368918, "longitude": -46.03039741516113}
{"node_id": "facility:0102652", "node_type": "facility", "name": "CNES 0102652 (Cama\u00e7ari - BA)", "municipality_code": "290570", "latitude": -12.666028706970154, "longitude": -38.20630421161771}
{"node_id": "facility:0102741", "node_type": "facility", "name": "HOSPITAL DE CAMPANHA COVID 19 ARARAQUARA", "municipality_code": "350320", "latitude": -21.81084947416039, "longitude": -48.17721337080002}
{"node_id": "facility:0102792", "node_type": "facility", "name": "CNES 0102792 (Santos - SP)", "municipality_code": "354850", "latitude": -23.868898172775825, "longitude": -46.29151878988766}
{"node_id": "facility:0103012", "node_type": "facility", "name": "CNES 0103012 (Cachoeira do Sul - RS)", "municipality_code": "430300", "latitude": -30.20619074342043, "longitude": -52.986442395734}
{"node_id": "facility:0103276", "node_type": "facility", "name": "CNES 0103276 (An\u00e1polis - GO)", "municipality_code": "520110", "latitude": -16.29058268395516, "longitude": -48.97287341343124}
{"node_id": "facility:0103284", "node_type": "facility", "name": "HOSPITAL DE CAMPANHA COVID 19 BELEM", "municipality_code": "150140", "latitude": -1.421371, "longitude": -48.456766}
{"node_id": "facility:0103462", "node_type": "facility", "name": "HOSPITAL DE CAMPANHA COVID 19", "municipality_code": "353340", "latitude": -22.8025456, "longitude": -47.311115}
{"node_id": "facility:0103497", "node_type": "facility", "name": "CNES 0103497 (Salvador - BA)", "municipality_code": "292740", "latitude": -12.873498787784706, "longitude": -38.51472863408121}
{"node_id": "facility:0103594", "node_type": "facility", "name": "HOSPITAL COVID 19 ITAIGARA", "municipality_code": "292740", "latitude": -12.873498787784706, "longitude": -38.51472863408121}
{"node_id": "facility:0103608", "node_type": "facility", "name": "CNES 0103608 (Cotia - SP)", "municipality_code": "351300", "latitude": -23.675143362761123, "longitude": -46.96051947668741}
{"node_id": "facility:0103993", "node_type": "facility", "name": "HOSPITAL DE CAMPANHA DO MUNICIPIO DE VARGINHA HCMUV", "municipality_code": "317070", "latitude": -21.5750805, "longitude": -45.414326}
{"node_id": "facility:0104132", "node_type": "facility", "name": "CNES 0104132 (Volta Redonda - RJ)", "municipality_code": "330630", "latitude": -22.49092216337824, "longitude": -44.08893312328573}
{"node_id": "facility:0104167", "node_type": "facility", "name": "CNES 0104167 (Betim - MG)", "municipality_code": "310670", "latitude": -19.9474534489578, "longitude": -44.19916964725088}
{"node_id": "facility:0104213", "node_type": "facility", "name": "HOSPITAL DE CAMPANHA COVID 19 CEACOR", "municipality_code": "314480", "latitude": -19.986, "longitude": -43.847}
{"node_id": "facility:0104515", "node_type": "facility", "name": "HOSPITAL DE CAMPANHA COVID 19 SMS NATAL RN", "municipality_code": "240810", "latitude": -5.8654684, "longitude": -35.1809297}
{"node_id": "facility:0104523", "node_type": "facility", "name": "CNES 0104523 (Pelotas - RS)", "municipality_code": "431440", "latitude": -31.57100658223871, "longitude": -52.3452496486786}
{"node_id": "facility:0104795", "node_type": "facility", "name": "HOSPITAL DE CAMPANHA COVID 19 HOSPITAL VITORIA", "municipality_code": "354850", "latitude": -23.952561, "longitude": -46.3359015}
{"node_id": "facility:0104884", "node_type": "facility", "name": "CNES 0104884 (S\u00e3o Gon\u00e7alo do Amarante - RN)", "municipality_code": "241200", "latitude": -5.787725193342509, "longitude": -35.3647895374224}
{"node_id": "facility:0104892", "node_type": "facility", "name": "CNES 0104892 (Santana de Parna\u00edba - SP)", "municipality_code": "354730", "latitude": -23.449448112749, "longitude": -46.91684767976479}
{"node_id": "facility:0105058", "node_type": "facility", "name": "CNES 0105058 (Jandira - SP)", "municipality_code": "352500", "latitude": -23.54415164708088, "longitude": -46.89968410399078}
{"node_id": "facility:0105317", "node_type": "facility", "name": "HOSPITAL MUNICIPAL OCEANICO DR GILSON CANTARINO HMOGC", "municipality_code": "330330", "latitude": -22.943388379407438, "longitude": -43.061914570933546}
{"node_id": "facility:0105449", "node_type": "facility", "name": "HOSPITAL DE CAMPANHA COVID19 DE BRUMADINHO", "municipality_code": "310900", "latitude": -20.1355692873303, "longitude": -44.202632904052734}
{"node_id": "facility:0105457", "node_type": "facility", "name": "HOSPITAL DE CAMPANHA COVID 19 IPOJUCA", "municipality_code": "260720", "latitude": -8.394941167600672, "longitude": -34.9749755859375}
{"node_id": "facility:0105589", "node_type": "facility", "name": "HOSPITAL DE CAMPANHA COVID 19 FALCAO", "municipality_code": "354100", "latitude": -24.0810734, "longitude": -46.5943298}
{"node_id": "facility:0105597", "node_type": "facility", "name": "HOSPITAL DE CAMPANHA COVID 19 OSASCO", "municipality_code": "353440", "latitude": -23.51362765, "longitude": -46.78887441286128}
{"node_id": "facility:0105619", "node_type": "facility", "name": "HOSPITAL MUNICIPAL COVID 19 DE ITURAMA", "municipality_code": "313440", "latitude": -19.728, "longitude": -50.196}
{"node_id": "facility:0105678", "node_type": "facility", "name": "HOSPITAL DE CAMPANHA COVID 19", "municipality_code": "240325", "latitude": -5.8941018, "longitude": -35.2686871}
{"node_id": "facility:0105724", "node_type": "facility", "name": "CNES 0105724 (Corb\u00e9lia - PR)", "municipality_code": "410630", "latitude": -24.7425038787711, "longitude": -53.23704490272368}
{"node_id": "facility:0105759", "node_type": "facility", "name": "HOSPITAL DE CAMPANHA COVID 19 HOSPITAL DE URGENCIA", "municipality_code": "354870", "latitude": -23.715734422660287, "longitude": -46.55452787876129}
{"node_id": "facility:0105767", "node_type": "facility", "name": "HOSPITAL DE CAMPANHA COVID 19 HOSPITAL ANCHIETA", "municipality_code": "354870", "latitude": -23.714192500000003, "longitude": -46.5444141188369}
{"node_id": "facility:0105805", "node_type": "facility", "name": "HOSPITAL SAO JOSE", "municipality_code": "330170", "latitude": -22.7886932, "longitude": -43.3148691}
{"node_id": "facility:0105856", "node_type": "facility", "name": "CNES 0105856 (Tabo\u00e3o da Serra - SP)", "municipality_code": "355280", "latitude": -23.62053466595504, "longitude": -46.78640477692692}
{"node_id": "facility:0106496", "node_type": "facility", "name": "CNES 0106496 (Salvador - BA)", "municipality_code": "292740", "latitude": -12.873498787784706, "longitude": -38.51472863408121}
{"node_id": "facility:0106526", "node_type": "facility", "name": "CNES 0106526 (Salvador - BA)", "municipality_code": "292740", "latitude": -12.873498787784706, "longitude": -38.51472863408121}
{"node_id": "facility:0107026", "node_type": "facility", "name": "CNES 0107026 (Marechal C\u00e2ndido Rondon - PR)", "municipality_code": "411460", "latitude": -24.571487418083024, "longitude": -54.13689021600279}
{"node_id": "facility:0107166", "node_type": "facility", "name": "CNES 0107166 (Bag\u00e9 - RS)", "municipality_code": "430160", "latitude": -31.23648629057132, "longitude": -54.01657797258111}
{"node_id": "facility:0107689", "node_type": "facility", "name": "HOSPITAL MUNICIPAL DE CONSELHEIRO LAFAIETE", "municipality_code": "311830", "latitude": -20.659530237416764, "longitude": -43.78669738769531}
{"node_id": "facility:0107816", "node_type": "facility", "name": "CNES 0107816 (Afonso Bezerra - RN)", "municipality_code": "240030", "latitude": -5.471440824729838, "longitude": -36.59987333482732}
{"node_id": "facility:0107913", "node_type": "facility", "name": "HOSPITAL DE CAMPANHA COVID 19 AMBULATORIO MUNICIPAL", "municipality_code": "260020", "latitude": -8.514626, "longitude": -41.007743}
{"node_id": "facility:0108138", "node_type": "facility", "name": "CNES 0108138 (Passos - MG)", "municipality_code": "314790", "latitude": -20.71857617189507, "longitude": -46.62201286333257}
{"node_id": "facility:0108308", "node_type": "facility", "name": "CNES 0108308 (Cabo de Santo Agostinho - PE)", "municipality_code": "260290", "latitude": -8.26922495429401, "longitude": -35.08590236746862}
{"node_id": "facility:0108316", "node_type": "facility", "name": "CNES 0108316 (Cabo de Santo Agostinho - PE)", "municipality_code": "260290", "latitude": -8.26922495429401, "longitude": -35.08590236746862}
{"node_id": "facility:0108375", "node_type": "facility", "name": "CNES 0108375 (Salvador - BA)", "municipality_code": "292740", "latitude": -12.873498787784706, "longitude": -38.51472863408121}
{"node_id": "facility:0109258", "node_type": "facility", "name": "CNES 0109258 (Araruna - PR)", "municipality_code": "410170", "latitude": -23.95506470226432, "longitude": -52.57657904123795}
{"node_id": "facility:0109266", "node_type": "facility", "name": "CNES 0109266 (Paulo Afonso - BA)", "municipality_code": "292400", "latitude": -9.53957240484018, "longitude": -38.293680488524885}
{"node_id": "facility:0109703", "node_type": "facility", "name": "HOSPITAL DE CAMPANHA COVID 19 DIVINOPOLIS", "municipality_code": "312230", "latitude": -20.157053, "longitude": -44.862937}
{"node_id": "facility:0109746", "node_type": "facility", "name": "HOSPITAL DE CAMPANHA COVID 19 PEDRO DELL ANTONIA", "municipality_code": "354780", "latitude": -23.6706964, "longitude": -46.5104779}
{"node_id": "facility:0110140", "node_type": "facility", "name": "CENTRO DE ESPECIALIDADE MEDICAS", "municipality_code": "521800", "latitude": -13.433097048969753, "longitude": -49.137468338012695}
{"node_id": "facility:0110310", "node_type": "facility", "name": "HOSPITAL DE CAMPANHA COVID 19 CAIEIRAS", "municipality_code": "350900", "latitude": -23.3929897, "longitude": -46.7134702}
{"node_id": "facility:0110337", "node_type": "facility", "name": "CNES 0110337 (Pen\u00e1polis - SP)", "municipality_code": "353730", "latitude": -21.4054028304539, "longitude": -50.09569618976116}
{"node_id": "facility:0110345", "node_type": "facility", "name": "CENTRO DE TRIAGEM COVID 19 SJVRP", "municipality_code": "330515", "latitude": -22.148754844798223, "longitude": -42.91781187057495}
{"node_id": "facility:0110388", "node_type": "facility", "name": "CNES 0110388 (Itapira - SP)", "municipality_code": "352260", "latitude": -22.43196288449512, "longitude": -46.77209427952755}
{"node_id": "facility:0110612", "node_type": "facility", "name": "UNIDADE RESPIRATORIA NOVA HORTOLANDIA", "municipality_code": "351907", "latitude": -22.85804492556616, "longitude": -47.22001075744629}
{"node_id": "facility:0110981", "node_type": "facility", "name": "HOSPITAL DE CAMPANHA COVID 19 DR AKIRA TADA", "municipality_code": "355280", "latitude": -23.6171331, "longitude": -46.7616769}
{"node_id": "facility:0111163", "node_type": "facility", "name": "HOSPITAL DE CAMPANHA COVID 19", "municipality_code": "210530", "latitude": -5.513176, "longitude": -47.488825}
{"node_id": "facility:0111171", "node_type": "facility", "name": "HOSPITAL DE CAMPANHA POMBOS COVID 19 PLUS", "municipality_code": "261130", "latitude": -8.141, "longitude": -35.396}
{"node_id": "facility:0111775", "node_type": "facility", "name": "CNES 0111775 (Jucati - PE)", "municipality_code": "260825", "latitude": -8.744040215661736, "longitude": -36.45959305360453}
{"node_id": "facility:0111813", "node_type": "facility", "name": "HOSPITAL DE CAMPANHA COVID 19 DE FEIRA NOVA", "municipality_code": "260540", "latitude": -7.953220761979262, "longitude": -35.38507461547852}
{"node_id": "facility:0111856", "node_type": "facility", "name": "HOSPITAL COVID 19 GARANHUNS", "municipality_code": "260600", "latitude": -8.888272877134547, "longitude": -36.45894527435303}
{"node_id": "facility:0112062", "node_type": "facility", "name": "HOSPITAL DE CAMPANHA RIBEIRAO PIRES", "municipality_code": "354330", "latitude": -23.711, "longitude": -46.413}
{"node_id": "facility:0112097", "node_type": "facility", "name": "CNES 0112097 (Jaboat\u00e3o dos Guararapes - PE)", "municipality_code": "260790", "latitude": -8.152191305028575, "longitude": -35.00333636600754}
{"node_id": "facility:0112542", "node_type": "facility", "name": "HOSPITAL DE CAMPANHA COVID 19", "municipality_code": "353470", "latitude": -22.979647, "longitude": -49.867347}
{"node_id": "facility:0112755", "node_type": "facility", "name": "HOSPITAL DE CAMPANHA COVID 19 DE CAETES", "municipality_code": "260320", "latitude": -8.773, "longitude": -36.623}
{"node_id": "facility:0113115", "node_type": "facility", "name": "HOSPITAL MUNICIPAL RETAGUARDA GONCALENSE", "municipality_code": "330490", "latitude": -22.8253875, "longitude": -43.0484401}
{"node_id": "facility:0113123", "node_type": "facility", "name": "CNES 0113123 (S\u00e3o Paulo - SP)", "municipality_code": "355030", "latitude": -23.650049140231506, "longitude": -46.64808599996871}
{"node_id": "facility:0113360", "node_type": "facility", "name": "CNES 0113360 (Goiana - PE)", "municipality_code": "260620", "latitude": -7.596874161259107, "longitude": -34.94249661429631}
{"node_id": "facility:0113484", "node_type": "facility", "name": "CNES 0113484 (Ouro Preto do Oeste - RO)", "municipality_code": "110015", "latitude": -10.610552491070658, "longitude": -62.17253034298432}
{"node_id": "facility:0113565", "node_type": "facility", "name": "CNES 0113565 (Senhor do Bonfim - BA)", "municipality_code": "293010", "latitude": -10.484164780401168, "longitude": -40.11525403476249}
{"node_id": "facility:0113816", "node_type": "facility", "name": "CNES 0113816 (Paulista - PE)", "municipality_code": "261070", "latitude": -7.928148413004609, "longitude": -34.88338249330017}
{"node_id": "facility:0113824", "node_type": "facility", "name": "CNES 0113824 (Cabo Frio - RJ)", "municipality_code": "330070", "latitude": -22.711758908707854, "longitude": -42.057021027251054}
{"node_id": "facility:0113891", "node_type": "facility", "name": "HOSPITAL DO CANCER E DO CORACAO HCCOR", "municipality_code": "330490", "latitude": -22.8230575, "longitude": -42.9805507}
{"node_id": "facility:0113921", "node_type": "facility", "name": "HOSPITAL DE CAMPANHA", "municipality_code": "352390", "latitude": -23.2695046, "longitude": -47.2955734}
{"node_id": "facility:0115258", "node_type": "facility", "name": "CNES 0115258 (Santa Rita - PB)", "municipality_code": "251370", "latitude": -7.067297850152293, "longitude": -35.00007018329911}
{"node_id": "facility:0115509", "node_type": "facility", "name": "HOSPITAL DE CLINICAS ANJO GABRIEL", "municipality_code": "352850", "latitude": -23.276967932864, "longitude": -46.56528899114714}
{"node_id": "facility:0115878", "node_type": "facility", "name": "CNES 0115878 (Rio Verde - GO)", "municipality_code": "521880", "latitude": -17.73914544482921, "longitude": -51.0385025751569}
{"node_id": "facility:0116335", "node_type": "facility", "name": "CNES 0116335 (Marab\u00e1 - PA)", "municipality_code": "150420", "latitude": -5.629800330463251, "longitude": -50.01696410815814}
{"node_id": "facility:0117234", "node_type": "facility", "name": "CNES 0117234 (Rio de Janeiro - RJ)", "municipality_code": "330455", "latitude": -22.923169231252785, "longitude": -43.45112850490985}
{"node_id": "facility:0117277", "node_type": "facility", "name": "CNES 0117277 (Santar\u00e9m - PA)", "municipality_code": "150680", "latitude": -2.67934133567778, "longitude": -55.23846633533838}
{"node_id": "facility:0117404", "node_type": "facility", "name": "CNES 0117404 (Carapebus - RJ)", "municipality_code": "330093", "latitude": -22.19593910568915, "longitude": -41.6508960054913}
{"node_id": "facility:0118095", "node_type": "facility", "name": "CNES 0118095 (Cama\u00e7ari - BA)", "municipality_code": "290570", "latitude": -12.666028706970154, "longitude": -38.20630421161771}
{"node_id": "facility:0118427", "node_type": "facility", "name": "HOSPITAL DE CAMPANHA COVID19 RIBEIRAO DAS NEVES", "municipality_code": "315460", "latitude": -19.767, "longitude": -44.087}
{"node_id": "facility:0119016", "node_type": "facility", "name": "CNES 0119016 (Rio de Janeiro - RJ)", "municipality_code": "330455", "latitude": -22.923169231252785, "longitude": -43.45112850490985}
{"node_id": "facility:0119326", "node_type": "facility", "name": "CNES 0119326 (Manaus - AM)", "municipality_code": "130260", "latitude": -2.625921541245994, "longitude": -60.259625348748166}
{"node_id": "facility:0119377", "node_type": "facility", "name": "CNES 0119377 (Passira - PE)", "municipality_code": "261050", "latitude": -8.012450927578161, "longitude": -35.54629234881802}
{"node_id": "facility:0126772", "node_type": "facility", "name": "HOSPITAL DE REFERENCIA COVID 19", "municipality_code": "330010", "latitude": -23.001, "longitude": -44.308}
{"node_id": "facility:0127248", "node_type": "facility", "name": "CNES 0127248 (Santa Cruz do Capibaribe - PE)", "municipality_code": "261250", "latitude": -7.889567943500506, "longitude": -36.325304204883146}
{"node_id": "facility:0127604", "node_type": "facility", "name": "HOSPITAL DE RETAGUARDA DO JARDIM PAULISTA", "municipality_code": "350570", "latitude": -23.540805866833043, "longitude": -46.88161253929138}
{"node_id": "facility:0127647", "node_type": "facility", "name": "HOSPITAL DE CAMPANHA COVID 19 OURICURI", "municipality_code": "260990", "latitude": -7.883, "longitude": -40.082}
{"node_id": "facility:0127752", "node_type": "facility", "name": "HOSPITAL DE CAMPANHA MUNICIPAL DE SALGUEIRO", "municipality_code": "261220", "latitude": -8.062905125090547, "longitude": -39.11649942398071}
{"node_id": "facility:0127876", "node_type": "facility", "name": "CNES 0127876 (S\u00e3o Paulo - SP)", "municipality_code": "355030", "latitude": -23.650049140231506, "longitude": -46.64808599996871}
{"node_id": "facility:0128341", "node_type": "facility", "name": "HOSPITAL DE CAMPANHA COVID 19 UPA LESTE", "municipality_code": "330040", "latitude": -22.544, "longitude": -44.171}
{"node_id": "facility:0128651", "node_type": "facility", "name": "HOSPITAL DE CAMPANHA DE TORITAMA", "municipality_code": "261540", "latitude": -8.006563307078148, "longitude": -36.05860412120819}
{"node_id": "facility:0129968", "node_type": "facility", "name": "CNES 0129968 (Queimados - RJ)", "municipality_code": "330414", "latitude": -22.725423437347235, "longitude": -43.58495383431647}
{"node_id": "facility:0130303", "node_type": "facility", "name": "CNES 0130303 (Momba\u00e7a - CE)", "municipality_code": "230850", "latitude": -5.788104958901363, "longitude": -39.748457472130085}
{"node_id": "facility:0130419", "node_type": "facility", "name": "CNES 0130419 (Cachoeirinha - RS)", "municipality_code": "430310", "latitude": -29.920923405760373, "longitude": -51.0953326623544}
{"node_id": "facility:0130575", "node_type": "facility", "name": "HOSPITAL DE CAMPANHA DE BEZERROS", "municipality_code": "260190", "latitude": -8.232183247821178, "longitude": -35.74517458677292}
{"node_id": "facility:0130753", "node_type": "facility", "name": "HOSPITAL DE CAMPANHA COVID 19 PADRE PEDRO BALZI", "municipality_code": "221100", "latitude": -5.089, "longitude": -42.802}
{"node_id": "facility:0131202", "node_type": "facility", "name": "CNES 0131202 (Lauro de Freitas - BA)", "municipality_code": "291920", "latitude": -12.86354401773052, "longitude": -38.32723284938902}
{"node_id": "facility:0131237", "node_type": "facility", "name": "HOSPITAL MUNICIPAL SAO JUDAS TADEU", "municipality_code": "330190", "latitude": -22.749529, "longitude": -42.87333}
{"node_id": "facility:0131350", "node_type": "facility", "name": "CNES 0131350 (Salvador - BA)", "municipality_code": "292740", "latitude": -12.873498787784706, "longitude": -38.51472863408121}
{"node_id": "facility:0131709", "node_type": "facility", "name": "CNES 0131709 (Ilh\u00e9us - BA)", "municipality_code": "291360", "latitude": -14.752735791998598, "longitude": -39.1918073761724}
{"node_id": "facility:0133035", "node_type": "facility", "name": "CNES 0133035 (Cruzeiro - SP)", "municipality_code": "351340", "latitude": -22.5514299924552, "longitude": -45.00628763719483}
{"node_id": "facility:0133272", "node_type": "facility", "name": "HOSPITAL DE CAMPANHA COVID 19 MUNICIPIO DE TAUBATE", "municipality_code": "355410", "latitude": -23.0306062, "longitude": -45.5675989}
{"node_id": "facility:0133973", "node_type": "facility", "name": "CNES 0133973 (Bento Gon\u00e7alves - RS)", "municipality_code": "430210", "latitude": -29.12535805862538, "longitude": -51.55148137044854}
{"node_id": "facility:0134163", "node_type": "facility", "name": "HOSPITAL DE CAMPANHA COVID 19 JACAREI", "municipality_code": "352440", "latitude": -23.2998558, "longitude": -45.9825136}
{"node_id": "facility:0134252", "node_type": "facility", "name": "HOSPITAL NOSSA SENHORA DAS GRACAS", "municipality_code": "261160", "latitude": -8.1313758, "longitude": -34.9030027}
{"node_id": "facility:0134716", "node_type": "facility", "name": "CNES 0134716 (Guaruj\u00e1 - SP)", "municipality_code": "351870", "latitude": -23.9512356645075, "longitude": -46.2352572328113}
{"node_id": "facility:0135569", "node_type": "facility", "name": "CENTRO DE ATENDIMENTO AO COVID 19 JARU", "municipality_code": "110011", "latitude": -10.4412187, "longitude": -62.4809137}
{"node_id": "facility:0136069", "node_type": "facility", "name": "CNES 0136069 (Rio de Janeiro - RJ)", "municipality_code": "330455", "latitude": -22.923169231252785, "longitude": -43.45112850490985}
{"node_id": "facility:0136131", "node_type": "facility", "name": "CNES 0136131 (Lavras - MG)", "municipality_code": "313820", "latitude": -21.264670437122152, "longitude": -45.03849713297014}
{"node_id": "facility:0136328", "node_type": "facility", "name": "UNIDADE MISTA CIDADE NOVA PINDAMONHANGABA", "municipality_code": "353800", "latitude": -22.9451305, "longitude": -45.4115655}
{"node_id": "facility:0136581", "node_type": "facility", "name": "HOSPITAL METROPOLITANO DE ALAGOAS", "municipality_code": "270430", "latitude": -9.6154029, "longitude": -35.7173192}
{"node_id": "facility:0145041", "node_type": "facility", "name": "CNES 0145041 (Itagua\u00ed - RJ)", "municipality_code": "330200", "latitude": -22.834583910658065, "longitude": -43.81230299796818}
{"node_id": "facility:0145602", "node_type": "facility", "name": "CNES 0145602 (Graja\u00fa - MA)", "municipality_code": "210480", "latitude": -5.840232826346225, "longitude": -46.01494730757421}
{"node_id": "facility:0145688", "node_type": "facility", "name": "CNES 0145688 (Lu\u00eds Eduardo Magalh\u00e3es - BA)", "municipality_code": "291955", "latitude": -12.198388784671923, "longitude": -46.020357537046415}
{"node_id": "facility:0145742", "node_type": "facility", "name": "CNES 0145742 (Boa Vista - RR)", "municipality_code": "140010", "latitude": 3.1179138644986506, "longitude": -60.717958117034776}
{"node_id": "facility:0145882", "node_type": "facility", "name": "CNES 0145882 (Santa Helena de Goi\u00e1s - GO)", "municipality_code": "521930", "latitude": -17.801844492484626, "longitude": -50.57910554779448}
{"node_id": "facility:0147028", "node_type": "facility", "name": "SOCIEDADE HOSPITALAR MARIA VITORIA", "municipality_code": "261160", "latitude": -8.088696406877409, "longitude": -34.933369159698486}
{"node_id": "facility:0147907", "node_type": "facility", "name": "HOSPITAL GERAL E DO CANCER DR STENIO HOLANDA FILHO", "municipality_code": "250750", "latitude": -7.1173623, "longitude": -34.8732281}
{"node_id": "facility:0150312", "node_type": "facility", "name": "HOSPITAL MUNICIPAL NOSSA SENHORA DE FATIMA", "municipality_code": "220770", "latitude": -2.9132117, "longitude": -41.7759906}
{"node_id": "facility:0150320", "node_type": "facility", "name": "CNES 0150320 (A\u00e7ail\u00e2ndia - MA)", "municipality_code": "210005", "latitude": -4.785818643661267, "longitude": -47.332426349413325}
{"node_id": "facility:0151475", "node_type": "facility", "name": "CNES 0151475 (Goiana - PE)", "municipality_code": "260620", "latitude": -7.596874161259107, "longitude": -34.94249661429631}
{"node_id": "facility:0152617", "node_type": "facility", "name": "CNES 0152617 (Salin\u00f3polis - PA)", "municipality_code": "150620", "latitude": -0.6839753853735773, "longitude": -47.351696648687536}
{"node_id": "facility:0152870", "node_type": "facility", "name": "CNES 0152870 (Barreiras - BA)", "municipality_code": "290320", "latitude": -12.01303499049597, "longitude": -45.542335435511326}
{"node_id": "facility:0153087", "node_type": "facility", "name": "CNES 0153087 (Itapipoca - CE)", "municipality_code": "230640", "latitude": -3.395235178128501, "longitude": -39.59829772144882}
{"node_id": "facility:0154369", "node_type": "facility", "name": "CNES 0154369 (S\u00e3o Lu\u00eds - MA)", "municipality_code": "211130", "latitude": -2.633681950647707, "longitude": -44.28089462646947}
{"node_id": "facility:0154687", "node_type": "facility", "name": "HOSPITAL MUNICIPAL CAMPANHA C 19", "municipality_code": "330020", "latitude": -22.87392139837909, "longitude": -42.33575105667114}
{"node_id": "facility:0155055", "node_type": "facility", "name": "MATERNIDADE SANTA CRUZ DA SERRA", "municipality_code": "330170", "latitude": -22.642154, "longitude": -43.279992}
{"node_id": "facility:0156507", "node_type": "facility", "name": "CNES 0156507 (Breves - PA)", "municipality_code": "150180", "latitude": -1.1209060268752595, "longitude": -50.62814782913533}
{"node_id": "facility:0156647", "node_type": "facility", "name": "CNES 0156647 (Canind\u00e9 - CE)", "municipality_code": "230280", "latitude": -4.402108437875256, "longitude": -39.43036040631244}
{"node_id": "facility:0157392", "node_type": "facility", "name": "HOSPITAL DE CAMPANHA COVID 19 DE SAO BENEDITO", "municipality_code": "231230", "latitude": -4.02489, "longitude": -40.869817}
{"node_id": "facility:0157414", "node_type": "facility", "name": "HOSPITAL DE CAMPANHA COVID 19 PETROLINA", "municipality_code": "261110", "latitude": -9.3526225, "longitude": -40.4672571}
{"node_id": "facility:0157619", "node_type": "facility", "name": "CNES 0157619 (\u00c1guas Lindas de Goi\u00e1s - GO)", "municipality_code": "520025", "latitude": -15.75574163669945, "longitude": -48.28573594945783}
{"node_id": "facility:0158100", "node_type": "facility", "name": "CNES 0158100 (S\u00e3o Paulo - SP)", "municipality_code": "355030", "latitude": -23.650049140231506, "longitude": -46.64808599996871}
{"node_id": "facility:0158119", "node_type": "facility", "name": "COMPLEXO HOSPITALAR MUNICIPAL SOROCABANA", "municipality_code": "355030", "latitude": -23.548, "longitude": -46.636}
{"node_id": "facility:0161438", "node_type": "facility", "name": "HOSPITAL MUNICIPAL GUARAPIRANGA", "municipality_code": "355030", "latitude": -23.705922, "longitude": -46.741949}
{"node_id": "facility:0163279", "node_type": "facility", "name": "HOSPITAL DE CAMPANHA COVID 19 UFABC", "municipality_code": "354780", "latitude": -23.64465645, "longitude": -46.52841501014528}
{"node_id": "facility:0163538", "node_type": "facility", "name": "CNES 0163538 (Po\u00e7os de Caldas - MG)", "municipality_code": "315180", "latitude": -21.808073246604632, "longitude": -46.56327553110067}
{"node_id": "facility:0163635", "node_type": "facility", "name": "CNES 0163635 (Confresa - MT)", "municipality_code": "510335", "latitude": -10.404164735466168, "longitude": -51.69857000498182}
{"node_id": "facility:0163864", "node_type": "facility", "name": "HOSPITAL REGIONAL DE IVAIPORA", "municipality_code": "411150", "latitude": -24.2453993304624, "longitude": -51.6625213682584}
{"node_id": "facility:0163872", "node_type": "facility", "name": "CNES 0163872 (Riach\u00e3o - MA)", "municipality_code": "210950", "latitude": -7.597916747563648, "longitude": -46.65940696159107}
{"node_id": "facility:0164542", "node_type": "facility", "name": "HOSPITAL MUNICIPAL DO RIBEIRAO", "municipality_code": "261180", "latitude": -8.498688527900752, "longitude": -35.373873710632324}
{"node_id": "facility:0171557", "node_type": "facility", "name": "CNES 0171557 (Rondon\u00f3polis - MT)", "municipality_code": "510760", "latitude": -16.56747338887854, "longitude": -54.68479188816129}
{"node_id": "facility:0174378", "node_type": "facility", "name": "CNES 0174378 (Santa B\u00e1rbara d'Oeste - SP)", "municipality_code": "354580", "latitude": -22.800621232507886, "longitude": -47.42807524451499}
{"node_id": "facility:0174815", "node_type": "facility", "name": "CNES 0174815 (Teresina - PI)", "municipality_code": "221100", "latitude": -5.1026516513853135, "longitude": -42.74060466904587}
{"node_id": "facility:0174971", "node_type": "facility", "name": "CNES 0174971 (Bras\u00edlia - DF)", "municipality_code": "530010", "latitude": -15.781172363612123, "longitude": -47.7968439416826}
{"node_id": "facility:0176664", "node_type": "facility", "name": "HOSPITAL DE CAMPANHA CENTRO COVID IV", "municipality_code": "160030", "latitude": 0.5627552308237873, "longitude": -51.0818338394165}
{"node_id": "facility:0177105", "node_type": "facility", "name": "CNES 0177105 (Santa B\u00e1rbara d'Oeste - SP)", "municipality_code": "354580", "latitude": -22.800621232507886, "longitude": -47.42807524451499}
{"node_id": "facility:0177121", "node_type": "facility", "name": "CNES 0177121 (Santa B\u00e1rbara d'Oeste - SP)", "municipality_code": "354580", "latitude": -22.800621232507886, "longitude": -47.42807524451499}
{"node_id": "facility:0177474", "node_type": "facility", "name": "CNES 0177474 (C\u00e2ndido Sales - BA)", "municipality_code": "290670", "latitude": -15.355086123079898, "longitude": -41.26948543624991}
{"node_id": "facility:0178012", "node_type": "facility", "name": "CNES 0178012 (Campina Grande - PB)", "municipality_code": "250400", "latitude": -7.263558240894653, "longitude": -35.965632551352954}
{"node_id": "facility:0178918", "node_type": "facility", "name": "CNES 0178918 (Piquet Carneiro - CE)", "municipality_code": "231090", "latitude": -5.862969950188376, "longitude": -39.4516774251275}
{"node_id": "facility:0179019", "node_type": "facility", "name": "CNES 0179019 (S\u00e3o Jos\u00e9 da Laje - AL)", "municipality_code": "270830", "latitude": -8.98749410135786, "longitude": -36.04000519127999}
{"node_id": "facility:0179108", "node_type": "facility", "name": "CNES 0179108 (Rafael Jambeiro - BA)", "municipality_code": "292595", "latitude": -12.4787366563258, "longitude": -39.57407553362336}
{"node_id": "facility:0179140", "node_type": "facility", "name": "CNES 0179140 (Macau - RN)", "municipality_code": "240720", "latitude": -5.195950233422388, "longitude": -36.523440647467794}
{"node_id": "facility:0179418", "node_type": "facility", "name": "CNES 0179418 (Ibi\u00fana - SP)", "municipality_code": "351970", "latitude": -23.8023823088062, "longitude": -47.21525189533563}
{"node_id": "facility:0179434", "node_type": "facility", "name": "HOSPITAL DO OLHO LAGOS", "municipality_code": "330520", "latitude": -22.83125, "longitude": -42.09388}
{"node_id": "facility:0179817", "node_type": "facility", "name": "CNES 0179817 (Itaituba - PA)", "municipality_code": "150360", "latitude": -5.871132568778085, "longitude": -56.49671810237083}
{"node_id": "facility:0180505", "node_type": "facility", "name": "HOSPITAL DE FEIRA DE SANTANA", "municipality_code": "291080", "latitude": -12.2354098, "longitude": -38.945119}
{"node_id": "facility:0180637", "node_type": "facility", "name": "HOSPITAL DR RAIMUNDO LIMA SLZ", "municipality_code": "211130", "latitude": -2.530365, "longitude": -44.3274911}
{"node_id": "facility:0180998", "node_type": "facility", "name": "CNES 0180998 (Sapucaia - RJ)", "municipality_code": "330540", "latitude": -22.0241180614502, "longitude": -42.82280527546039}
{"node_id": "facility:0181145", "node_type": "facility", "name": "CNES 0181145 (Ara\u00e7oiaba da Serra - SP)", "municipality_code": "350290", "latitude": -23.54385398742114, "longitude": -47.651511850900505}
{"node_id": "facility:0181277", "node_type": "facility", "name": "NOVAMEDIC MEDICINA DIAGNOSTICA", "municipality_code": "510622", "latitude": -13.833329536514055, "longitude": -56.11013889312744}
{"node_id": "facility:0181927", "node_type": "facility", "name": "CNES 0181927 (Gua\u00edba - RS)", "municipality_code": "430930", "latitude": -30.17733250518573, "longitude": -51.43419820195478}
{"node_id": "facility:0182974", "node_type": "facility", "name": "HOSPITAL E MATERNIDADE MUNICIPAL DE QUEIMADOS", "municipality_code": "330414", "latitude": -22.71832434384697, "longitude": -43.55583965778351}
{"node_id": "facility:0183229", "node_type": "facility", "name": "CNES 0183229 (Tiangu\u00e1 - CE)", "municipality_code": "231340", "latitude": -3.7361308927266585, "longitude": -41.05497758796477}
{"node_id": "facility:0184632", "node_type": "facility", "name": "HOSPITAL DE CAMPANHA COVID 19", "municipality_code": "330555", "latitude": -22.74264267176382, "longitude": -43.70511531829834}
{"node_id": "facility:0184667", "node_type": "facility", "name": "CNES 0184667 (Cianorte - PR)", "municipality_code": "410550", "latitude": -23.72746312928251, "longitude": -52.62698382676394}
{"node_id": "facility:0188425", "node_type": "facility", "name": "HOSPITAL REGIONAL DR RUBENS JORGE", "municipality_code": "210570", "latitude": -4.5647445, "longitude": -45.125891}
{"node_id": "facility:0189979", "node_type": "facility", "name": "HOSPITAL DE CAMPANHA COVID 19 CARAGUATATUBA", "municipality_code": "351050", "latitude": -23.6308412, "longitude": -45.4210671}
{"node_id": "facility:0190802", "node_type": "facility", "name": "CNES 0190802 (Mata de S\u00e3o Jo\u00e3o - BA)", "municipality_code": "292100", "latitude": -12.48398174977967, "longitude": -38.14886998954166}
{"node_id": "facility:0191493", "node_type": "facility", "name": "HOSPITAL DE CAMPANHA COVID 19 FERNANDA PAES", "municipality_code": "260610", "latitude": -8.002074535605592, "longitude": -35.293214321136475}
{"node_id": "facility:0191787", "node_type": "facility", "name": "LEITOS DE ENFERMARIA COVID GRAJAU MA", "municipality_code": "210480", "latitude": -5.821125009072497, "longitude": -46.14038944244385}
{"node_id": "facility:0196231", "node_type": "facility", "name": "HOSPITAL REGIONAL DR KLEBER CARVALHO BRANCO", "municipality_code": "210820", "latitude": -4.56, "longitude": -44.603}
{"node_id": "facility:0196398", "node_type": "facility", "name": "HOSPITAL MUNICIPAL ENCAMPADO CLINICA DA CRIANCA", "municipality_code": "510795", "latitude": -14.616038843182288, "longitude": -57.49016761779785}
{"node_id": "facility:0197831", "node_type": "facility", "name": "HOSPITAL DE CAMPANHA COVID 19 CARLOS LOURENCO", "municipality_code": "350950", "latitude": -22.9225783, "longitude": -47.0274248}
{"node_id": "facility:0198552", "node_type": "facility", "name": "CNES 0198552 (Chorroch\u00f3 - BA)", "municipality_code": "290770", "latitude": -9.27172193120376, "longitude": -39.18910997369613}
{"node_id": "facility:0198684", "node_type": "facility", "name": "CNES 0198684 (Alvorada do Sul - PR)", "municipality_code": "410080", "latitude": -22.810656817816263, "longitude": -51.25507256077993}
{"node_id": "facility:0199176", "node_type": "facility", "name": "CNES 0199176 (Feira Nova do Maranh\u00e3o - MA)", "municipality_code": "210407", "latitude": -7.018608083731515, "longitude": -46.62674705562407}
{"node_id": "facility:0199966", "node_type": "facility", "name": "CNES 0199966 (Serra do Salitre - MG)", "municipality_code": "316680", "latitude": -19.159150890669, "longitude": -46.65451830971271}
{"node_id": "facility:0203505", "node_type": "facility", "name": "CNES 0203505 (Caapiranga - AM)", "municipality_code": "130083", "latitude": -3.082020195540638, "longitude": -61.87774870432048}
{"node_id": "facility:0205451", "node_type": "facility", "name": "CNES 0205451 (Gl\u00f3ria D'Oeste - MT)", "municipality_code": "510395", "latitude": -15.839198370861896, "longitude": -58.32529380551684}
{"node_id": "facility:0208116", "node_type": "facility", "name": "CNES 0208116 (Capela - AL)", "municipality_code": "270170", "latitude": -9.34590971987436, "longitude": -36.09326369288978}
{"node_id": "facility:0210188", "node_type": "facility", "name": "HOSPITAL DE RETAGUARDA WALDO MACHADO XAVIER", "municipality_code": "520450", "latitude": -17.70953670581703, "longitude": -48.646324753396016}
{"node_id": "facility:0211125", "node_type": "facility", "name": "CENTRO DE SAUDE DE XIQUE XIQUE", "municipality_code": "293360", "latitude": -10.8322286, "longitude": -42.7312021}
{"node_id": "facility:0211397", "node_type": "facility", "name": "CNES 0211397 (Jacund\u00e1 - PA)", "municipality_code": "150380", "latitude": -4.598528228352157, "longitude": -49.18120970728982}
{"node_id": "facility:0212679", "node_type": "facility", "name": "HOSPITAL CAMPANHA COVID 19", "municipality_code": "316860", "latitude": -17.8691433, "longitude": -41.5077841}
{"node_id": "facility:0213527", "node_type": "facility", "name": "HOSPITAL ESTADUAL DE CAMPANHA COVID 19 BAURU", "municipality_code": "350600", "latitude": -22.3335201, "longitude": -49.0600231}
{"node_id": "facility:0213837", "node_type": "facility", "name": "CNES 0213837 (Porto Velho - RO)", "municipality_code": "110020", "latitude": -9.153582029071597, "longitude": -64.30679728499692}
{"node_id": "facility:0213845", "node_type": "facility", "name": "HOSPITAL REGIONAL DE GUARAPUAVA", "municipality_code": "410940", "latitude": -25.395, "longitude": -51.458}
{"node_id": "facility:0214299", "node_type": "facility", "name": "CNES 0214299 (Petrolina - PE)", "municipality_code": "261110", "latitude": -9.019794773413592, "longitude": -40.57235420942636}
{"node_id": "facility:0214310", "node_type": "facility", "name": "HOSPITAL DE CAMPANHA COVID 19 RIO DAS OSTRAS", "municipality_code": "330452", "latitude": -22.516981, "longitude": -41.9440618}
{"node_id": "facility:0214396", "node_type": "facility", "name": "CNES 0214396 (Sumar\u00e9 - SP)", "municipality_code": "355240", "latitude": -22.84184692413677, "longitude": -47.26297363852181}
{"node_id": "facility:0214930", "node_type": "facility", "name": "CNES 0214930 (Parauapebas - PA)", "municipality_code": "150553", "latitude": -6.151736850546234, "longitude": -50.48976857294857}
{"node_id": "facility:0215368", "node_type": "facility", "name": "CNES 0215368 (Ubatuba - SP)", "municipality_code": "355540", "latitude": -23.38108800525287, "longitude": -45.02408953508536}
{"node_id": "facility:0218669", "node_type": "facility", "name": "CNES 0218669 (Sinop - MT)", "municipality_code": "510790", "latitude": -11.71086502634726, "longitude": -55.50150511851559}
{"node_id": "facility:0218782", "node_type": "facility", "name": "CNES 0218782 (Lauro de Freitas - BA)", "municipality_code": "291920", "latitude": -12.86354401773052, "longitude": -38.32723284938902}
{"node_id": "facility:0218944", "node_type": "facility", "name": "CNES 0218944 (Santa Helena de Goi\u00e1s - GO)", "municipality_code": "521930", "latitude": -17.801844492484626, "longitude": -50.57910554779448}
{"node_id": "facility:0219436", "node_type": "facility", "name": "MATERNIDADE LAURINDO JOSE FERREIRA", "municipality_code": "330360", "latitude": -22.6276506, "longitude": -43.7007294}
{"node_id": "facility:0220027", "node_type": "facility", "name": "CNES 0220027 (Castanhal - PA)", "municipality_code": "150240", "latitude": -1.268515026828647, "longitude": -47.87698646685054}
{"node_id": "facility:0220337", "node_type": "facility", "name": "HOSPITAL DE CLINICAS DE CAMPINA GRANDE", "municipality_code": "250400", "latitude": -7.23072, "longitude": -35.8817}
{"node_id": "facility:0221015", "node_type": "facility", "name": "HOSPITAL MUNICIPAL DR JAQUELINE PRATES CNPJ 31 135 0460001 4", "municipality_code": "330020", "latitude": -22.8740661, "longitude": -42.3355732}
{"node_id": "facility:0223980", "node_type": "facility", "name": "CNES 0223980 (Salvador - BA)", "municipality_code": "292740", "latitude": -12.873498787784706, "longitude": -38.51472863408121}
{"node_id": "facility:0225568", "node_type": "facility", "name": "CNES 0225568 (Ituber\u00e1 - BA)", "municipality_code": "291730", "latitude": -13.74931777498125, "longitude": -39.15292667244918}
{"node_id": "facility:0225886", "node_type": "facility", "name": "CNES 0225886 (Ponta de Pedras - PA)", "municipality_code": "150570", "latitude": -1.117501543422431, "longitude": -49.07728962192237}
{"node_id": "facility:0225967", "node_type": "facility", "name": "CNES 0225967 (Juazeiro do Norte - CE)", "municipality_code": "230730", "latitude": -7.182814211506161, "longitude": -39.28616771435244}
{"node_id": "facility:0226491", "node_type": "facility", "name": "HOSPITAL EDUARDO CAMPOS", "municipality_code": "261390", "latitude": -7.98603, "longitude": -38.296}
{"node_id": "facility:0229385", "node_type": "facility", "name": "CNES 0229385 (Tim\u00f3teo - MG)", "municipality_code": "316870", "latitude": -19.55800384636529, "longitude": -42.60263206478345}
{"node_id": "facility:0230065", "node_type": "facility", "name": "REDE DE ATENCAO AO COVID 19 LEITOS DE RETAGUARDA MUNICIPAL", "municipality_code": "261390", "latitude": -7.986, "longitude": -38.296}
{"node_id": "facility:0245364", "node_type": "facility", "name": "CNES 0245364 (Petrolina - PE)", "municipality_code": "261110", "latitude": -9.019794773413592, "longitude": -40.57235420942636}
{"node_id": "facility:0246417", "node_type": "facility", "name": "CNES 0246417 (Tupaciguara - MG)", "municipality_code": "316960", "latitude": -18.53501763460522, "longitude": -48.75527123233724}
{"node_id": "facility:0247774", "node_type": "facility", "name": "CNES 0247774 (Pontalina - GO)", "municipality_code": "521770", "latitude": -17.531078186808127, "longitude": -49.537683159882135}
{"node_id": "facility:0248150", "node_type": "facility", "name": "CNES 0248150 (Altamira - PA)", "municipality_code": "150060", "latitude": -6.486176716653461, "longitude": -53.88668267930181}
{"node_id": "facility:0249483", "node_type": "facility", "name": "CNES 0249483 (Araguari - MG)", "municipality_code": "310350", "latitude": -18.57711922597632, "longitude": -48.22204317992429}
{"node_id": "facility:0252492", "node_type": "facility", "name": "HOSPITAL DE CAMPANHA DO CENTRO MEDICO DA PM", "municipality_code": "530010", "latitude": -15.82390409362647, "longitude": -47.93961524963379}
{"node_id": "facility:0252654", "node_type": "facility", "name": "CNES 0252654 (Santaluz - BA)", "municipality_code": "292800", "latitude": -11.220225226146267, "longitude": -39.4852407197305}
{"node_id": "facility:0253987", "node_type": "facility", "name": "CNES 0253987 (Porto Velho - RO)", "municipality_code": "110020", "latitude": -9.153582029071597, "longitude": -64.30679728499692}
{"node_id": "facility:0254460", "node_type": "facility", "name": "CNES 0254460 (Altamira - PA)", "municipality_code": "150060", "latitude": -6.486176716653461, "longitude": -53.88668267930181}
{"node_id": "facility:0255297", "node_type": "facility", "name": "HOSPITAL ESTADUAL COVID 19 BEBEDOURO", "municipality_code": "350610", "latitude": -20.949, "longitude": -48.479}
{"node_id": "facility:0255874", "node_type": "facility", "name": "HOSPITAL DE CAMPANHA COVID 19 GUARATINGUETA", "municipality_code": "351840", "latitude": -22.8223812, "longitude": -45.1910647}
{"node_id": "facility:0256684", "node_type": "facility", "name": "CENTRO DE PARTO NORMAL IMACULADA CONCEICAO", "municipality_code": "270470", "latitude": -9.713604358705764, "longitude": -35.89840650558472}
{"node_id": "facility:0258857", "node_type": "facility", "name": "CNES 0258857 (Juazeiro do Norte - CE)", "municipality_code": "230730", "latitude": -7.182814211506161, "longitude": -39.28616771435244}
{"node_id": "facility:0260568", "node_type": "facility", "name": "CNES 0260568 (Gandu - BA)", "municipality_code": "291120", "latitude": -13.788697830349662, "longitude": -39.48269172860427}
{"node_id": "facility:0262862", "node_type": "facility", "name": "CNES 0262862 (Goi\u00e2nia - GO)", "municipality_code": "520870", "latitude": -16.643542278585027, "longitude": -49.27377718577387}
{"node_id": "facility:0265187", "node_type": "facility", "name": "CNES 0265187 (S\u00e3o Sebasti\u00e3o - SP)", "municipality_code": "355070", "latitude": -23.754240287734937, "longitude": -45.60676565344816}
{"node_id": "facility:0265500", "node_type": "facility", "name": "US 111 HOSPITAL EDUARDO CAMPOS DA PESSOA IDOSA DO RECIFE", "municipality_code": "261160", "latitude": -8.100162749999999, "longitude": -34.9256068367588}
{"node_id": "facility:0265896", "node_type": "facility", "name": "CNES 0265896 (\u00c1gua Clara - MS)", "municipality_code": "500020", "latitude": -19.962830048165355, "longitude": -52.9266811820876}
{"node_id": "facility:0267317", "node_type": "facility", "name": "CNES 0267317 (Lajedo - PE)", "municipality_code": "260880", "latitude": -8.677937470291633, "longitude": -36.28628192941907}
{"node_id": "facility:0267503", "node_type": "facility", "name": "CNES 0267503 (Miguel\u00f3polis - SP)", "municipality_code": "352970", "latitude": -20.18469697716618, "longitude": -48.10547560944959}
{"node_id": "facility:0270865", "node_type": "facility", "name": "CNES 0270865 (Uberl\u00e2ndia - MG)", "municipality_code": "317020", "latitude": -19.027777044686275, "longitude": -48.33173691788792}
{"node_id": "facility:0272957", "node_type": "facility", "name": "CNES 0272957 (Sete Lagoas - MG)", "municipality_code": "316720", "latitude": -19.437246397063497, "longitude": -44.25345659806914}
{"node_id": "facility:0276456", "node_type": "facility", "name": "CNES 0276456 (Floriano - PI)", "municipality_code": "220390", "latitude": -7.005808882307984, "longitude": -43.0793842573213}
{"node_id": "facility:0282715", "node_type": "facility", "name": "HOSPESC HOSPITAL DOS PESCADORES", "municipality_code": "240810", "latitude": -5.7710393, "longitude": -35.2029647}
{"node_id": "facility:0283800", "node_type": "facility", "name": "CNES 0283800 (Sim\u00f5es Filho - BA)", "municipality_code": "293070", "latitude": -12.767693906245023, "longitude": -38.4006778749365}
{"node_id": "facility:0294217", "node_type": "facility", "name": "CNES 0294217 (Ribeir\u00e3o Cascalheira - MT)", "municipality_code": "510718", "latitude": -12.874755070826758, "longitude": -51.56832373990785}
{"node_id": "facility:0302961", "node_type": "facility", "name": "HOSPITAL DE CAMPANHA COVID 19 RIO CLARO", "municipality_code": "354390", "latitude": -22.411, "longitude": -47.561}
{"node_id": "facility:0303267", "node_type": "facility", "name": "HOSPITAL MUNICIPAL EUCLIDES HORST", "municipality_code": "510263", "latitude": -13.65032398353722, "longitude": -57.8898811340332}
{"node_id": "facility:0366323", "node_type": "facility", "name": "CNES 0366323 (Crici\u00fama - SC)", "municipality_code": "420460", "latitude": -28.71567615925795, "longitude": -49.37971798399219}
{"node_id": "facility:0379883", "node_type": "facility", "name": "CNES 0379883 (Belford Roxo - RJ)", "municipality_code": "330045", "latitude": -22.728770335693767, "longitude": -43.37756366550491}
{"node_id": "facility:0398705", "node_type": "facility", "name": "CNES 0398705 (Santo Amaro da Imperatriz - SC)", "municipality_code": "421570", "latitude": -27.741753988163968, "longitude": -48.796547650927984}
{"node_id": "facility:0404853", "node_type": "facility", "name": "AME AMBULATORIO MEDICO DE ESPECIALIDADES DE CAMPINAS", "municipality_code": "350950", "latitude": -22.90600479164004, "longitude": -47.06388473510742}
{"node_id": "facility:0405159", "node_type": "facility", "name": "CNES 0405159 (Sinop - MT)", "municipality_code": "510790", "latitude": -11.71086502634726, "longitude": -55.50150511851559}
{"node_id": "facility:0407720", "node_type": "facility", "name": "CNES 0407720 (Natal - RN)", "municipality_code": "240810", "latitude": -5.803177520545519, "longitude": -35.22883356599637}
{"node_id": "facility:0415383", "node_type": "facility", "name": "CNES 0415383 (V\u00e1rzea Alegre - CE)", "municipality_code": "231400", "latitude": -6.771789777013255, "longitude": -39.29784813003217}
{"node_id": "facility:0419478", "node_type": "facility", "name": "CNES 0419478 (Rio Grande - RS)", "municipality_code": "431560", "latitude": -32.2175163152798, "longitude": -52.403522391016345}
{"node_id": "facility:0420964", "node_type": "facility", "name": "CNES 0420964 (S\u00e3o Carlos - SP)", "municipality_code": "354890", "latitude": -21.91888050502804, "longitude": -47.867167006877146}
{"node_id": "facility:0424811", "node_type": "facility", "name": "CNES 0424811 (Catu - BA)", "municipality_code": "290750", "latitude": -12.33057623349553, "longitude": -38.41289954688791}
{"node_id": "facility:0431451", "node_type": "facility", "name": "CNES 0431451 (\u00c1guas Lindas de Goi\u00e1s - GO)", "municipality_code": "520025", "latitude": -15.75574163669945, "longitude": -48.28573594945783}
{"node_id": "facility:0450472", "node_type": "facility", "name": "CNES 0450472 (Guia Lopes da Laguna - MS)", "municipality_code": "500410", "latitude": -21.5416407480835, "longitude": -55.99614483496064}
{"node_id": "facility:0451126", "node_type": "facility", "name": "CNES 0451126 (Crici\u00fama - SC)", "municipality_code": "420460", "latitude": -28.71567615925795, "longitude": -49.37971798399219}
{"node_id": "facility:0451436", "node_type": "facility", "name": "CNES 0451436 (Uruana - GO)", "municipality_code": "522170", "latitude": -15.57780624848857, "longitude": -49.64224026836445}
{"node_id": "facility:0454788", "node_type": "facility", "name": "CNES 0454788 (S\u00e3o Lu\u00eds do Curu - CE)", "municipality_code": "231260", "latitude": -3.646289894847091, "longitude": -39.26448555470272}
{"node_id": "facility:0456306", "node_type": "facility", "name": "CNES 0456306 (C\u00e1ceres - MT)", "municipality_code": "510250", "latitude": -16.537400924922895, "longitude": -57.83361079979341}
{"node_id": "facility:0457493", "node_type": "facility", "name": "CNES 0457493 (Madre de Deus - BA)", "municipality_code": "291992", "latitude": -12.741104473058208, "longitude": -38.64270927128258}
{"node_id": "facility:0478024", "node_type": "facility", "name": "UBS LUZ DA ESPERANCA", "municipality_code": "354980", "latitude": -20.772713, "longitude": -49.318524}
{"node_id": "facility:0478849", "node_type": "facility", "name": "UBS FRATERNIDADE", "municipality_code": "354980", "latitude": -20.876123, "longitude": -49.339139}
{"node_id": "facility:0491632", "node_type": "facility", "name": "CNES 0491632 (Abadia dos Dourados - MG)", "municipality_code": "310010", "latitude": -18.3533083028482, "longitude": -47.45900470338145}
{"node_id": "facility:0493899", "node_type": "facility", "name": "CNES 0493899 (Ipanema - MG)", "municipality_code": "313120", "latitude": -19.757801951684385, "longitude": -41.74935114215639}
{"node_id": "facility:0503894", "node_type": "facility", "name": "CNES 0503894 (Len\u00e7\u00f3is - BA)", "municipality_code": "291930", "latitude": -12.424986611619346, "longitude": -41.33729706863356}
{"node_id": "facility:0514292", "node_type": "facility", "name": "CNES 0514292 (Santar\u00e9m - PA)", "municipality_code": "150680", "latitude": -2.67934133567778, "longitude": -55.23846633533838}
{"node_id": "facility:2000024", "node_type": "facility", "name": "UNIDADE MISTA DE SAUDE DO MUNICIPIO DE RODRIGUES ALVES", "municipality_code": "120042", "latitude": -7.742, "longitude": -72.647}
{"node_id": "facility:2000083", "node_type": "facility", "name": "CNES 2000083 (M\u00e2ncio Lima - AC)", "municipality_code": "120033", "latitude": -7.504426008096305, "longitude": -73.43908274209865}
{"node_id": "facility:2000121", "node_type": "facility", "name": "HOSPITAL DR SANSAO GOMES", "municipality_code": "120060", "latitude": -8.16668037, "longitude": -70.7662439}
{"node_id": "facility:2000172", "node_type": "facility", "name": "SESACRE HOSPITAL DE DERMATOLOGIA SANITARIA", "municipality_code": "120020", "latitude": -7.624668451151956, "longitude": -72.66201853752136}
{"node_id": "facility:2000296", "node_type": "facility", "name": "HOSPITAL DA MULHER E DA CRIANCA DO JURUA", "municipality_code": "120020", "latitude": -7.636009437420734, "longitude": -72.67406702041626}
{"node_id": "facility:2000385", "node_type": "facility", "name": "HOSPITAL INFANTIL IOLANDA COSTA E SILVA", "municipality_code": "120040", "latitude": -9.985989592033404, "longitude": -67.80978441238403}
{"node_id": "facility:2000393", "node_type": "facility", "name": "HOSPITAL EPAMINONDAS JACOME", "municipality_code": "120070", "latitude": -10.650190640678137, "longitude": -68.50640773773193}
{"node_id": "facility:2000636", "node_type": "facility", "name": "CNES 2000636 (Feij\u00f3 - AC)", "municipality_code": "120030", "latitude": -8.92441953086217, "longitude": -70.74476349462839}
{"node_id": "facility:2000725", "node_type": "facility", "name": "HOSPITAL DR ARY RODRIGUES", "municipality_code": "120045", "latitude": -10.158544012357204, "longitude": -67.7322793006897}
{"node_id": "facility:2000733", "node_type": "facility", "name": "MATERNIDADE E CLINICAS DE MULHERES BARBARA HELIODORA", "municipality_code": "120040", "latitude": -9.969711, "longitude": -67.812496}
{"node_id": "facility:2000822", "node_type": "facility", "name": "CNES 2000822 (Pl\u00e1cido de Castro - AC)", "municipality_code": "120038", "latitude": -10.249084663234742, "longitude": -67.34031867614065}
{"node_id": "facility:2000857", "node_type": "facility", "name": "HOSPITAL DE SAUDE MENTAL DO ACRE", "municipality_code": "120040", "latitude": -9.9909949, "longitude": -67.8215683}
{"node_id": "facility:2000865", "node_type": "facility", "name": "HOSPITAL JOAO CANCIO FERNANDES", "municipality_code": "120050", "latitude": -9.06721, "longitude": -68.6577}
{"node_id": "facility:2000970", "node_type": "facility", "name": "SESACRE UNIDADE MISTA DE MANOEL URBANO", "municipality_code": "120034", "latitude": -8.842096377000919, "longitude": -69.25929307937622}
{"node_id": "facility:2000997", "node_type": "facility", "name": "HOSPITAL DR MANOEL MARINHO MONTE", "municipality_code": "120038", "latitude": -10.333107, "longitude": -67.184474}
{"node_id": "facility:2001020", "node_type": "facility", "name": "UNIDADE MISTA DE SAUDE ANTONIO BALBINO RODRIGUES", "municipality_code": "120005", "latitude": -10.9427, "longitude": -69.567}
{"node_id": "facility:2001500", "node_type": "facility", "name": "HOSPITAL RAIMUNDO CHAAR", "municipality_code": "120010", "latitude": -11.00992746751825, "longitude": -68.74804258346558}
{"node_id": "facility:2001578", "node_type": "facility", "name": "HOSPITAL GERAL DE CLINICAS DE RIO BRANCO", "municipality_code": "120040", "latitude": -9.9649435, "longitude": -67.8152152}
{"node_id": "facility:2001586", "node_type": "facility", "name": "FUNDHACRE", "municipality_code": "120040", "latitude": -9.966, "longitude": -67.85465}
{"node_id": "facility:2001594", "node_type": "facility", "name": "UNIDADE MISTA DE MARECHAL THAUMATURGO", "municipality_code": "120035", "latitude": -8.948560699208226, "longitude": -72.78564691543579}
{"node_id": "facility:2002078", "node_type": "facility", "name": "HOSPITAL SANTA JULIANA", "municipality_code": "120040", "latitude": -9.955714, "longitude": -67.814723}
{"node_id": "facility:2003368", "node_type": "facility", "name": "HOSPITAL PORTUGAL RAMALHO", "municipality_code": "270430", "latitude": -9.6457902, "longitude": -35.7403299}
{"node_id": "facility:2003570", "node_type": "facility", "name": "HOSPITAL MUNICIPAL DE VICOSA", "municipality_code": "270940", "latitude": -9.37170006372915, "longitude": -36.24539852142334}
{"node_id": "facility:2003775", "node_type": "facility", "name": "SANTA CASA DE MISERICORDIA DE PENEDO", "municipality_code": "270670", "latitude": -10.285466, "longitude": -36.5755999}
{"node_id": "facility:2003856", "node_type": "facility", "name": "UNIDADE MISTA MARIA LOUREIRO CAVALCANTE", "municipality_code": "270210", "latitude": -8.9099088, "longitude": -35.716652}
{"node_id": "facility:2003910", "node_type": "facility", "name": "CASA MATERNAL FREI DAMIAO", "municipality_code": "270235", "latitude": -9.6190573, "longitude": -36.7656029}
{"node_id": "facility:2004488", "node_type": "facility", "name": "CNES 2004488 (Major Isidoro - AL)", "municipality_code": "270440", "latitude": -9.542686249449009, "longitude": -37.01062721835744}
{"node_id": "facility:2004976", "node_type": "facility", "name": "CNES 2004976 (Arapiraca - AL)", "municipality_code": "270030", "latitude": -9.749274072402468, "longitude": -36.64101340937759}
{"node_id": "facility:2005026", "node_type": "facility", "name": "H N SRA DE LTDA", "municipality_code": "270030", "latitude": -9.752074072803774, "longitude": -36.65908098220825}
{"node_id": "facility:2005050", "node_type": "facility", "name": "HOSPITAL REGIONAL DE ARAPIRACA", "municipality_code": "270030", "latitude": -9.751503086920025, "longitude": -36.66401624679565}
{"node_id": "facility:2005123", "node_type": "facility", "name": "HOSPITAL PSIQUIATRICO TEODORA ALBUQUERQUE", "municipality_code": "270030", "latitude": -9.76252082702164, "longitude": -36.59734725952149}
{"node_id": "facility:2005344", "node_type": "facility", "name": "CNES 2005344 (Arapiraca - AL)", "municipality_code": "270030", "latitude": -9.749274072402468, "longitude": -36.64101340937759}
{"node_id": "facility:2005417", "node_type": "facility", "name": "CHAMA", "municipality_code": "270030", "latitude": -9.745349065895036, "longitude": -36.63442611694336}
{"node_id": "facility:2006197", "node_type": "facility", "name": "HOSPITAL UNIVERSITARIO PROF ALBERTO ANTUNES", "municipality_code": "270430", "latitude": -9.5389075, "longitude": -35.7776847}
{"node_id": "facility:2006219", "node_type": "facility", "name": "CNES 2006219 (Macei\u00f3 - AL)", "municipality_code": "270430", "latitude": -9.52239445793112, "longitude": -35.71138393843422}
{"node_id": "facility:2006286", "node_type": "facility", "name": "CLINICA INFANTIL SANTA MARIA SOCIEDADE CIVIL LTDA", "municipality_code": "270430", "latitude": -9.666076843978226, "longitude": -35.7349419593811}
{"node_id": "facility:2006340", "node_type": "facility", "name": "CASA DE SAUDE SANTO ANTONIO", "municipality_code": "270430", "latitude": -9.6519988, "longitude": -35.7406271}
{"node_id": "facility:2006359", "node_type": "facility", "name": "SANATORIO HOSPITAL GERAL", "municipality_code": "270430", "latitude": -9.6655304, "longitude": -35.7322459}
{"node_id": "facility:2006391", "node_type": "facility", "name": "CASA DE SAUDE MIGUEL COUTO", "municipality_code": "270430", "latitude": -9.666055690938848, "longitude": -35.734877586364746}
{"node_id": "facility:2006405", "node_type": "facility", "name": "CNES 2006405 (Macei\u00f3 - AL)", "municipality_code": "270430", "latitude": -9.52239445793112, "longitude": -35.71138393843422}
{"node_id": "facility:2006413", "node_type": "facility", "name": "CASA DE SAUDE E CLINICA DE REPOUSO ULYSSES PERNAMBUCANO", "municipality_code": "270430", "latitude": -9.6360541, "longitude": -35.734899044036865}
{"node_id": "facility:2006421", "node_type": "facility", "name": "HOSPITAL ORTOPEDICO DE MACEIO", "municipality_code": "270430", "latitude": -9.6624849, "longitude": -35.735}
{"node_id": "facility:2006448", "node_type": "facility", "name": "HOSPITAL VEREDAS", "municipality_code": "270430", "latitude": -9.6302718, "longitude": -35.7336425}
{"node_id": "facility:2006472", "node_type": "facility", "name": "CNES 2006472 (Macei\u00f3 - AL)", "municipality_code": "270430", "latitude": -9.52239445793112, "longitude": -35.71138393843422}
{"node_id": "facility:2006499", "node_type": "facility", "name": "CNES 2006499 (Macei\u00f3 - AL)", "municipality_code": "270430", "latitude": -9.52239445793112, "longitude": -35.71138393843422}
{"node_id": "facility:2006510", "node_type": "facility", "name": "HOSPITAL GERAL DO ESTADO DR OSVALDO BRANDAO VILELA", "municipality_code": "270430", "latitude": -9.66971514695776, "longitude": -35.73401927947998}
{"node_id": "facility:2006944", "node_type": "facility", "name": "HOSPITAL DE OLHOS SANTA LUZIA", "municipality_code": "270430", "latitude": -9.6161164, "longitude": -35.73732376098633}
{"node_id": "facility:2006960", "node_type": "facility", "name": "HOSPITAL VIDA", "municipality_code": "270430", "latitude": -9.6558108, "longitude": -35.729942321777344}
{"node_id": "facility:2006979", "node_type": "facility", "name": "INSTITUTO DE OLHOS DE MACEIO", "municipality_code": "270430", "latitude": -9.64949245306766, "longitude": -35.733890533447266}
